{"businesses": [{"id": "mNfO5Yv2jxXQSyfQM15saw", "alias": "hermanos-mora-arriaga-mexican-show-band-miami-mariachis-miam-miami", "name": "Hermanos Mora Arriaga - Mexican Show Band Miami - Mariachis Miam", "image_url": "https://s3-media1.fl.yelpcdn.com/bphoto/F9DZ5NVercmC9eLQxaqTsA/o.jpg", "is_closed": false, "url": "https://www.yelp.com/biz/hermanos-mora-arriaga-mexican-show-band-miami-mariachis-miam-miami?adjust_creative=OD45_sigUUSBobJ_eVs01w&utm_campaign=yelp_api_v3&utm_medium=api_v3_business_search&utm_source=OD45_sigUUSBobJ_eVs01w", "review_count": 15, "categories": [{"alias": "festivals", "title": "Festivals"}], "rating": 5.0, "coordinates": {"latitude": 25.73054, "longitude": -80.35323}, "transactions": [], "location": {"address1": "", "address2": "", "address3": "", "city": "Miami", "zip_code": "33165", "country": "US", "state": "FL", "display_address": ["Miami, FL 33165"]}, "phone": "+17863038675", "display_phone": "(786) 303-8675", "distance": 7035.439071631894}, {"id": "AtRRTuv3a7baM3ym31r6lg", "alias": "orchid-show-fort-lauderdale-orchid-society-fort-lauderdale", "name": "Orchid Show - Fort Lauderdale Orchid Society", "image_url": "https://s3-media1.fl.yelpcdn.com/bphoto/i3oNd7wp_qPeW08GLej_fQ/o.jpg", "is_closed": false, "url": "https://www.yelp.com/biz/orchid-show-fort-lauderdale-orchid-society-fort-lauderdale?adjust_creative=OD45_sigUUSBobJ_eVs01w&utm_campaign=yelp_api_v3&utm_medium=api_v3_business_search&utm_source=OD45_sigUUSBobJ_eVs01w", "review_count": 4, "categories": [{"alias": "festivals", "title": "Festivals"}], "rating": 5.0, "coordinates": {"latitude": 26.098596, "longitude": -80.122735}, "transactions": [], "location": {"address1": "1950 Eisenhower Blvd", "address2": "", "address3": "convention center", "city": "Fort Lauderdale", "zip_code": "33316", "country": "US", "state": "FL", "display_address": ["1950 Eisenhower Blvd", "convention center", "Fort Lauderdale, FL 33316"]}, "phone": "+19547641239", "display_phone": "(954) 764-1239", "distance": 41860.30575287362}, {"id": "pjj3A6PnlHPl-LRcDb3jLw", "alias": "south-miami-art-festival-south-miami-2", "name": "South Miami Art Festival", "image_url": "https://s3-media4.fl.yelpcdn.com/bphoto/i-7s8nKr6IUeFbR9YYyD7Q/o.jpg", "is_closed": false, "url": "https://www.yelp.com/biz/south-miami-art-festival-south-miami-2?adjust_creative=OD45_sigUUSBobJ_eVs01w&utm_campaign=yelp_api_v3&utm_medium=api_v3_business_search&utm_source=OD45_sigUUSBobJ_eVs01w", "review_count": 11, "categories": [{"alias": "festivals", "title": "Festivals"}], "rating": 4.0, "coordinates": {"latitude": 25.7043561373748, "longitude": -80.2873801689949}, "transactions": [], "location": {"address1": "SW 72nd Street - Sunset Dr", "address2": "", "address3": "", "city": "South Miami", "zip_code": "33143", "country": "US", "state": "FL", "display_address": ["SW 72nd Street - Sunset Dr", "South Miami, FL 33143"]}, "phone": "+13056611621", "display_phone": "(305) 661-1621", "distance": 5382.0253163268935}, {"id": "Hf27aKBioxEaXT6zTMqrvQ", "alias": "fibega-miami-beach", "name": "Fibega", "image_url": "https://s3-media1.fl.yelpcdn.com/bphoto/Ni0pTtm4eIaMhzBuEFXpJA/o.jpg", "is_closed": false, "url": "https://www.yelp.com/biz/fibega-miami-beach?adjust_creative=OD45_sigUUSBobJ_eVs01w&utm_campaign=yelp_api_v3&utm_medium=api_v3_business_search&utm_source=OD45_sigUUSBobJ_eVs01w", "review_count": 1, "categories": [{"alias": "festivals", "title": "Festivals"}], "rating": 5.0, "coordinates": {"latitude": 25.79415, "longitude": -80.13479}, "transactions": [], "location": {"address1": "1901 Convention Ctr Dr", "address2": "", "address3": null, "city": "Miami Beach", "zip_code": "33139", "country": "US", "state": "FL", "display_address": ["1901 Convention Ctr Dr", "Miami Beach, FL 33139"]}, "phone": "+13055293883", "display_phone": "(305) 529-3883", "distance": 16140.930876214461}, {"id": "RZUiw2XrAez9gutjIyabFw", "alias": "carnaval-miami-miami-2", "name": "Carnaval Miami", "image_url": "https://s3-media1.fl.yelpcdn.com/bphoto/097qKoXTpWT6OcnbHXzmBw/o.jpg", "is_closed": false, "url": "https://www.yelp.com/biz/carnaval-miami-miami-2?adjust_creative=OD45_sigUUSBobJ_eVs01w&utm_campaign=yelp_api_v3&utm_medium=api_v3_business_search&utm_source=OD45_sigUUSBobJ_eVs01w", "review_count": 1, "categories": [{"alias": "festivals", "title": "Festivals"}], "rating": 5.0, "coordinates": {"latitude": 25.7722282, "longitude": -80.21812320000001}, "transactions": [], "location": {"address1": "1400 SW 1st St", "address2": "", "address3": null, "city": "Miami", "zip_code": "33135", "country": "US", "state": "FL", "display_address": ["1400 SW 1st St", "Miami, FL 33135"]}, "phone": "+13056448888", "display_phone": "(305) 644-8888", "distance": 7333.252476558838}, {"id": "kvoBspxRSspuRlCEsYfdew", "alias": "family-farm-davie", "name": "Family Farm", "image_url": "https://s3-media2.fl.yelpcdn.com/bphoto/_wi0vpAsur8Eqiz-igb2Ug/o.jpg", "is_closed": false, "url": "https://www.yelp.com/biz/family-farm-davie?adjust_creative=OD45_sigUUSBobJ_eVs01w&utm_campaign=yelp_api_v3&utm_medium=api_v3_business_search&utm_source=OD45_sigUUSBobJ_eVs01w", "review_count": 87, "categories": [{"alias": "markets", "title": "Fruits & Veggies"}, {"alias": "festivals", "title": "Festivals"}, {"alias": "farmersmarket", "title": "Farmers Market"}], "rating": 4.0, "coordinates": {"latitude": 26.101095072192802, "longitude": -80.34704275069252}, "transactions": [], "location": {"address1": "14950 SW 14th St", "address2": "", "address3": null, "city": "Davie", "zip_code": "33326", "country": "US", "state": "FL", "display_address": ["14950 SW 14th St", "Davie, FL 33326"]}, "phone": "+19548042850", "display_phone": "(954) 804-2850", "distance": 39179.896958330835}, {"id": "EyoPQsXV4IwJt-SpZ-IYfQ", "alias": "dania-beach-arts-and-seafood-celebration-dania-beach", "name": "Dania Beach Arts & Seafood Celebration", "image_url": "https://s3-media4.fl.yelpcdn.com/bphoto/KL62QEkBP7dCymtS7eV9lg/o.jpg", "is_closed": false, "url": "https://www.yelp.com/biz/dania-beach-arts-and-seafood-celebration-dania-beach?adjust_creative=OD45_sigUUSBobJ_eVs01w&utm_campaign=yelp_api_v3&utm_medium=api_v3_business_search&utm_source=OD45_sigUUSBobJ_eVs01w", "review_count": 19, "categories": [{"alias": "festivals", "title": "Festivals"}, {"alias": "artsandcrafts", "title": "Arts & Crafts"}, {"alias": "theater", "title": "Performing Arts"}], "rating": 4.0, "coordinates": {"latitude": 26.0550746917725, "longitude": -80.1397018432617}, "transactions": [], "price": "$", "location": {"address1": "300 NE 2nd St", "address2": "", "address3": "", "city": "Dania Beach", "zip_code": "33004", "country": "US", "state": "FL", "display_address": ["300 NE 2nd St", "Dania Beach, FL 33004"]}, "phone": "+19549246801", "display_phone": "(954) 924-6801", "distance": 36808.811312739315}, {"id": "K8Yc9xiJLx6F3Xjcot7gPQ", "alias": "basel-house-miami-2", "name": "Basel House", "image_url": "https://s3-media3.fl.yelpcdn.com/bphoto/6J8DduD2FABZAvAiiVu1zQ/o.jpg", "is_closed": false, "url": "https://www.yelp.com/biz/basel-house-miami-2?adjust_creative=OD45_sigUUSBobJ_eVs01w&utm_campaign=yelp_api_v3&utm_medium=api_v3_business_search&utm_source=OD45_sigUUSBobJ_eVs01w", "review_count": 4, "categories": [{"alias": "festivals", "title": "Festivals"}], "rating": 4.0, "coordinates": {"latitude": 25.7992793, "longitude": -80.2034373}, "transactions": [], "location": {"address1": "2308 NW 5th Ave", "address2": "", "address3": "", "city": "Miami", "zip_code": "33127", "country": "US", "state": "FL", "display_address": ["2308 NW 5th Ave", "Miami, FL 33127"]}, "phone": "+13054612700", "display_phone": "(305) 461-2700", "distance": 9930.04901189625}, {"id": "BBmKB3quIjuMSZEX9_3S8g", "alias": "the-miami-flea-miami", "name": "The Miami Flea", "image_url": "https://s3-media2.fl.yelpcdn.com/bphoto/l6UncFlc7BgWR_iauYc2IA/o.jpg", "is_closed": false, "url": "https://www.yelp.com/biz/the-miami-flea-miami?adjust_creative=OD45_sigUUSBobJ_eVs01w&utm_campaign=yelp_api_v3&utm_medium=api_v3_business_search&utm_source=OD45_sigUUSBobJ_eVs01w", "review_count": 35, "categories": [{"alias": "festivals", "title": "Festivals"}], "rating": 3.5, "coordinates": {"latitude": 25.7889899, "longitude": -80.1944}, "transactions": [], "location": {"address1": "1445 N Miami Ave", "address2": "", "address3": "", "city": "Miami", "zip_code": "33132", "country": "US", "state": "FL", "display_address": ["1445 N Miami Ave", "Miami, FL 33132"]}, "phone": "+13056250949", "display_phone": "(305) 625-0949", "distance": 10209.564808934676}, {"id": "Geh2tTQ09CLtCaX6UZGQLA", "alias": "wynwood-art-fair-miami", "name": "Wynwood Art Fair", "image_url": "https://s3-media2.fl.yelpcdn.com/bphoto/G_auEx_nyvzaxJenytAsIg/o.jpg", "is_closed": false, "url": "https://www.yelp.com/biz/wynwood-art-fair-miami?adjust_creative=OD45_sigUUSBobJ_eVs01w&utm_campaign=yelp_api_v3&utm_medium=api_v3_business_search&utm_source=OD45_sigUUSBobJ_eVs01w", "review_count": 5, "categories": [{"alias": "festivals", "title": "Festivals"}], "rating": 3.5, "coordinates": {"latitude": 25.800968, "longitude": -80.19828}, "transactions": [], "location": {"address1": "167 NW 25th St", "address2": "", "address3": "Wywood Arts District", "city": "Miami", "zip_code": "33127", "country": "US", "state": "FL", "display_address": ["167 NW 25th St", "Wywood Arts District", "Miami, FL 33127"]}, "phone": "", "display_phone": "", "distance": 10462.989697829717}, {"id": "aSi1Z0k3lWqI97lcjKNphg", "alias": "outshine-film-festival-miami", "name": "OUTshine Film Festival", "image_url": "https://s3-media2.fl.yelpcdn.com/bphoto/m2lInxolmWXDC_SIXaCAAQ/o.jpg", "is_closed": false, "url": "https://www.yelp.com/biz/outshine-film-festival-miami?adjust_creative=OD45_sigUUSBobJ_eVs01w&utm_campaign=yelp_api_v3&utm_medium=api_v3_business_search&utm_source=OD45_sigUUSBobJ_eVs01w", "review_count": 2, "categories": [{"alias": "festivals", "title": "Festivals"}], "rating": 4.0, "coordinates": {"latitude": 25.83459, "longitude": -80.1878}, "transactions": [], "location": {"address1": "6360 NE 4th Ct", "address2": "", "address3": null, "city": "Miami", "zip_code": "33138", "country": "US", "state": "FL", "display_address": ["6360 NE 4th Ct", "Miami, FL 33138"]}, "phone": "+13057516305", "display_phone": "(305) 751-6305", "distance": 13559.474351327552}, {"id": "qs8nW7SLChFhNjsHz_qr6w", "alias": "wynwood-life-miami", "name": "Wynwood Life", "image_url": "https://s3-media2.fl.yelpcdn.com/bphoto/mgrTDB8oOiMLcDQNrhrmRQ/o.jpg", "is_closed": false, "url": "https://www.yelp.com/biz/wynwood-life-miami?adjust_creative=OD45_sigUUSBobJ_eVs01w&utm_campaign=yelp_api_v3&utm_medium=api_v3_business_search&utm_source=OD45_sigUUSBobJ_eVs01w", "review_count": 9, "categories": [{"alias": "festivals", "title": "Festivals"}], "rating": 3.0, "coordinates": {"latitude": 25.7986177, "longitude": -80.1994059}, "transactions": [], "location": {"address1": "2250 NW 2nd Ave", "address2": "", "address3": "", "city": "Miami", "zip_code": "33127", "country": "US", "state": "FL", "display_address": ["2250 NW 2nd Ave", "Miami, FL 33127"]}, "phone": "+13054612700", "display_phone": "(305) 461-2700", "distance": 10239.943376730433}, {"id": "FHcys4D9GtwMRXD9i3mo4w", "alias": "san-gennaro-feast-hallandale-beach", "name": "San Gennaro Feast", "image_url": "https://s3-media2.fl.yelpcdn.com/bphoto/cNekrRA6bxGKw1ZJOhb2NA/o.jpg", "is_closed": false, "url": "https://www.yelp.com/biz/san-gennaro-feast-hallandale-beach?adjust_creative=OD45_sigUUSBobJ_eVs01w&utm_campaign=yelp_api_v3&utm_medium=api_v3_business_search&utm_source=OD45_sigUUSBobJ_eVs01w", "review_count": 3, "categories": [{"alias": "italian", "title": "Italian"}, {"alias": "festivals", "title": "Festivals"}, {"alias": "gourmet", "title": "Specialty Food"}], "rating": 3.5, "coordinates": {"latitude": 26.00391415304719, "longitude": -80.14254769173587}, "transactions": [], "location": {"address1": "901 S Federal Hwy", "address2": "", "address3": null, "city": "Hallandale Beach", "zip_code": "33009", "country": "US", "state": "FL", "display_address": ["901 S Federal Hwy", "Hallandale Beach, FL 33009"]}, "phone": "+17022864944", "display_phone": "(702) 286-4944", "distance": 31495.39830340193}, {"id": "pdWEXA8vonTUtina3vHGzA", "alias": "palm-beach-home-design-and-remodeling-show-west-palm-beach", "name": "Palm Beach Home Design and Remodeling Show", "image_url": "https://s3-media2.fl.yelpcdn.com/bphoto/TMtMJnVk6586tHDRMJSPJQ/o.jpg", "is_closed": false, "url": "https://www.yelp.com/biz/palm-beach-home-design-and-remodeling-show-west-palm-beach?adjust_creative=OD45_sigUUSBobJ_eVs01w&utm_campaign=yelp_api_v3&utm_medium=api_v3_business_search&utm_source=OD45_sigUUSBobJ_eVs01w", "review_count": 11, "categories": [{"alias": "festivals", "title": "Festivals"}, {"alias": "interiordesign", "title": "Interior Design"}], "rating": 3.0, "coordinates": {"latitude": 25.7982207, "longitude": -80.2019551}, "transactions": [], "location": {"address1": "Palm Beach County Convention Ctr", "address2": "650 Okeechobee Blvd", "address3": "", "city": "West Palm Beach", "zip_code": "33401", "country": "US", "state": "FL", "display_address": ["Palm Beach County Convention Ctr", "650 Okeechobee Blvd", "West Palm Beach, FL 33401"]}, "phone": "+13056679299", "display_phone": "(305) 667-9299", "distance": 9997.019191260246}, {"id": "TQB5K2bUIz3VGpZYbH7vYQ", "alias": "hollywood-greek-festival-hollywood", "name": "Hollywood Greek Festival", "image_url": "https://s3-media4.fl.yelpcdn.com/bphoto/VwZ_VhJQ2DShe5GF0hyMSw/o.jpg", "is_closed": false, "url": "https://www.yelp.com/biz/hollywood-greek-festival-hollywood?adjust_creative=OD45_sigUUSBobJ_eVs01w&utm_campaign=yelp_api_v3&utm_medium=api_v3_business_search&utm_source=OD45_sigUUSBobJ_eVs01w", "review_count": 1, "categories": [{"alias": "festivals", "title": "Festivals"}], "rating": 4.0, "coordinates": {"latitude": 26.0133311862622, "longitude": -80.2034810185432}, "transactions": [], "location": {"address1": "425 N 58th Ave", "address2": "", "address3": null, "city": "Hollywood", "zip_code": "33021", "country": "US", "state": "FL", "display_address": ["425 N 58th Ave", "Hollywood, FL 33021"]}, "phone": "+19549661898", "display_phone": "(954) 966-1898", "distance": 30185.761142886964}, {"id": "YSSCfcFQn74lydp7FU_Gwg", "alias": "coral-gables-festival-of-the-arts-coral-gables-2", "name": "Coral Gables Festival of the Arts", "image_url": "https://s3-media2.fl.yelpcdn.com/bphoto/ItLL4TnWR0fGfnqn0v2c5g/o.jpg", "is_closed": false, "url": "https://www.yelp.com/biz/coral-gables-festival-of-the-arts-coral-gables-2?adjust_creative=OD45_sigUUSBobJ_eVs01w&utm_campaign=yelp_api_v3&utm_medium=api_v3_business_search&utm_source=OD45_sigUUSBobJ_eVs01w", "review_count": 15, "categories": [{"alias": "festivals", "title": "Festivals"}], "rating": 2.5, "coordinates": {"latitude": 25.7511100769043, "longitude": -80.2583770751953}, "transactions": [], "location": {"address1": "2305 Ponce De Leon Blvd", "address2": "", "address3": "", "city": "Coral Gables", "zip_code": "33134", "country": "US", "state": "FL", "display_address": ["2305 Ponce De Leon Blvd", "Coral Gables, FL 33134"]}, "phone": "+17865585234", "display_phone": "(786) 558-5234", "distance": 2980.9151156088888}, {"id": "28n_2VfVDAQRsSbi_X8hlQ", "alias": "soflo-boat-show-miami", "name": "SoFlo Boat Show", "image_url": "https://s3-media1.fl.yelpcdn.com/bphoto/fb2elWdkniCUTX3F0_Zpdg/o.jpg", "is_closed": false, "url": "https://www.yelp.com/biz/soflo-boat-show-miami?adjust_creative=OD45_sigUUSBobJ_eVs01w&utm_campaign=yelp_api_v3&utm_medium=api_v3_business_search&utm_source=OD45_sigUUSBobJ_eVs01w", "review_count": 1, "categories": [{"alias": "festivals", "title": "Festivals"}], "rating": 3.0, "coordinates": {"latitude": 25.74370526479471, "longitude": -80.1719419}, "transactions": [], "location": {"address1": "3501 Rickenbacker Cswy", "address2": "", "address3": null, "city": "Miami", "zip_code": "33149", "country": "US", "state": "FL", "display_address": ["3501 Rickenbacker Cswy", "Miami, FL 33149"]}, "phone": "+13054599988", "display_phone": "(305) 459-9988", "distance": 11675.774725671468}, {"id": "dPIAQ9n_2FoQymAv2LZgMw", "alias": "taste-of-brickell-food-and-wine-miami", "name": "Taste of Brickell Food & Wine", "image_url": "https://s3-media1.fl.yelpcdn.com/bphoto/s7CDUOjY_2RQ-rU_6m9wnw/o.jpg", "is_closed": false, "url": "https://www.yelp.com/biz/taste-of-brickell-food-and-wine-miami?adjust_creative=OD45_sigUUSBobJ_eVs01w&utm_campaign=yelp_api_v3&utm_medium=api_v3_business_search&utm_source=OD45_sigUUSBobJ_eVs01w", "review_count": 37, "categories": [{"alias": "festivals", "title": "Festivals"}], "rating": 1.5, "coordinates": {"latitude": 25.7675514291892, "longitude": -80.1890130653111}, "transactions": [], "location": {"address1": "609 Brickell Ave", "address2": "", "address3": "", "city": "Miami", "zip_code": "33131", "country": "US", "state": "FL", "display_address": ["609 Brickell Ave", "Miami, FL 33131"]}, "phone": "+17863554800", "display_phone": "(786) 355-4800", "distance": 10057.109083092466}, {"id": "shOnpgoY1qR2sapucGOT9w", "alias": "miami-events-and-festivals-coral-gables-2", "name": "Miami Events and Festivals", "image_url": "https://s3-media1.fl.yelpcdn.com/bphoto/f1pJv4oQXHg7a5fdPQ2Psw/o.jpg", "is_closed": false, "url": "https://www.yelp.com/biz/miami-events-and-festivals-coral-gables-2?adjust_creative=OD45_sigUUSBobJ_eVs01w&utm_campaign=yelp_api_v3&utm_medium=api_v3_business_search&utm_source=OD45_sigUUSBobJ_eVs01w", "review_count": 2, "categories": [{"alias": "festivals", "title": "Festivals"}], "rating": 1.0, "coordinates": {"latitude": 25.7782867554407, "longitude": -80.1990136}, "transactions": [], "location": {"address1": "255 Alhambra", "address2": null, "address3": "", "city": "Coral Gables", "zip_code": "33134", "country": "US", "state": "FL", "display_address": ["255 Alhambra", "Coral Gables, FL 33134"]}, "phone": "+17865585234", "display_phone": "(786) 558-5234", "distance": 9360.64237610243}]}
