{"businesses": [{"id": "OrJhLmdE09puDoRu2Z5gKg", "alias": "platform-strength-denver", "name": "Platform Strength", "image_url": "https://s3-media4.fl.yelpcdn.com/bphoto/dxeIYLUp-zxQ5aXCp6j0sQ/o.jpg", "is_closed": false, "url": "https://www.yelp.com/biz/platform-strength-denver?adjust_creative=CSd6XTHR0DfUmDUFsIPk6g&utm_campaign=yelp_api_v3&utm_medium=api_v3_business_search&utm_source=CSd6XTHR0DfUmDUFsIPk6g", "review_count": 18, "categories": [{"alias": "gyms", "title": "Gyms"}, {"alias": "healthtrainers", "title": "Trainers"}], "rating": 5.0, "coordinates": {"latitude": 39.76528313669848, "longitude": -104.98005321904905}, "transactions": [], "location": {"address1": "3198 Blake St", "address2": "Unit 100", "address3": "", "city": "Denver", "zip_code": "80205", "country": "US", "state": "CO", "display_address": ["3198 Blake St", "Unit 100", "Denver, CO 80205"]}, "phone": "+17205064945", "display_phone": "(720) 506-4945", "distance": 3413.6169716977483}, {"id": "f2EAhyKSZjxTBxO6oiRgew", "alias": "runfree-physical-therapy-and-sports-performance-golden", "name": "RunFree Physical Therapy and Sports Performance", "image_url": "https://s3-media2.fl.yelpcdn.com/bphoto/TNsAFWWdaHEcMa2OBB2I7A/o.jpg", "is_closed": false, "url": "https://www.yelp.com/biz/runfree-physical-therapy-and-sports-performance-golden?adjust_creative=CSd6XTHR0DfUmDUFsIPk6g&utm_campaign=yelp_api_v3&utm_medium=api_v3_business_search&utm_source=CSd6XTHR0DfUmDUFsIPk6g", "review_count": 6, "categories": [{"alias": "physicaltherapy", "title": "Physical Therapy"}, {"alias": "races", "title": "Races & Competitions"}, {"alias": "healthtrainers", "title": "Trainers"}], "rating": 5.0, "coordinates": {"latitude": 39.7800393, "longitude": -105.2336054}, "transactions": [], "location": {"address1": "811 Brickyard Cir", "address2": "", "address3": "", "city": "Golden", "zip_code": "80403", "country": "US", "state": "CO", "display_address": ["811 Brickyard Cir", "Golden, CO 80403"]}, "phone": "+15419518170", "display_phone": "(541) 951-8170", "distance": 23050.160231064627}, {"id": "yj-w2uT764UVjXQioi-Kxg", "alias": "denver-racquet-stringing-englewood", "name": "Denver Racquet Stringing", "image_url": "https://s3-media4.fl.yelpcdn.com/bphoto/PaWxUL22qAm10ZiRHHX72g/o.jpg", "is_closed": false, "url": "https://www.yelp.com/biz/denver-racquet-stringing-englewood?adjust_creative=CSd6XTHR0DfUmDUFsIPk6g&utm_campaign=yelp_api_v3&utm_medium=api_v3_business_search&utm_source=CSd6XTHR0DfUmDUFsIPk6g", "review_count": 6, "categories": [{"alias": "tennis", "title": "Tennis"}], "rating": 5.0, "coordinates": {"latitude": 39.618918, "longitude": -104.98266}, "transactions": [], "location": {"address1": "5300 S Broadway Cir", "address2": "Ste 1-302", "address3": "", "city": "Englewood", "zip_code": "80113", "country": "US", "state": "CO", "display_address": ["5300 S Broadway Cir", "Ste 1-302", "Englewood, CO 80113"]}, "phone": "+13034878846", "display_phone": "(303) 487-8846", "distance": 13009.462233772929}, {"id": "vAQJ5ZTo71txDX9x2jigig", "alias": "chase-mansmann-personal-training-arvada-2", "name": "Chase Mansmann Personal Training", "image_url": "https://s3-media3.fl.yelpcdn.com/bphoto/wTZA5DAQTwoFui1lU2iMig/o.jpg", "is_closed": false, "url": "https://www.yelp.com/biz/chase-mansmann-personal-training-arvada-2?adjust_creative=CSd6XTHR0DfUmDUFsIPk6g&utm_campaign=yelp_api_v3&utm_medium=api_v3_business_search&utm_source=CSd6XTHR0DfUmDUFsIPk6g", "review_count": 15, "categories": [{"alias": "healthtrainers", "title": "Trainers"}, {"alias": "nutritionists", "title": "Nutritionists"}], "rating": 5.0, "coordinates": {"latitude": 39.7907566, "longitude": -105.0849687}, "transactions": [], "location": {"address1": null, "address2": null, "address3": "", "city": "Arvada", "zip_code": "80002", "country": "US", "state": "CO", "display_address": ["Arvada, CO 80002"]}, "phone": "+18058130414", "display_phone": "(805) 813-0414", "distance": 11570.464081893393}, {"id": "RsZzcJ9x26mCRcd_Xo6HDg", "alias": "lions-den-strength-mobility-performance-denver", "name": "Lions Den Strength Mobility Performance", "image_url": "https://s3-media4.fl.yelpcdn.com/bphoto/u3p65TL2V5FhaVe78VHSKQ/o.jpg", "is_closed": false, "url": "https://www.yelp.com/biz/lions-den-strength-mobility-performance-denver?adjust_creative=CSd6XTHR0DfUmDUFsIPk6g&utm_campaign=yelp_api_v3&utm_medium=api_v3_business_search&utm_source=CSd6XTHR0DfUmDUFsIPk6g", "review_count": 7, "categories": [{"alias": "gyms", "title": "Gyms"}, {"alias": "sports_clubs", "title": "Sports Clubs"}], "rating": 5.0, "coordinates": {"latitude": 39.625570340716, "longitude": -104.898597478017}, "transactions": [], "location": {"address1": "5058 S Syracuse St", "address2": null, "address3": "", "city": "Denver", "zip_code": "80237", "country": "US", "state": "CO", "display_address": ["5058 S Syracuse St", "Denver, CO 80237"]}, "phone": "+17202611965", "display_phone": "(720) 261-1965", "distance": 13677.604067779472}, {"id": "Rp1gQn8BbyGHdh_YARRZ_A", "alias": "alpha-life-fitness-denver", "name": "Alpha Life Fitness", "image_url": "https://s3-media1.fl.yelpcdn.com/bphoto/J4LOaIEBxkMgUqppvkOHyg/o.jpg", "is_closed": false, "url": "https://www.yelp.com/biz/alpha-life-fitness-denver?adjust_creative=CSd6XTHR0DfUmDUFsIPk6g&utm_campaign=yelp_api_v3&utm_medium=api_v3_business_search&utm_source=CSd6XTHR0DfUmDUFsIPk6g", "review_count": 9, "categories": [{"alias": "healthtrainers", "title": "Trainers"}], "rating": 5.0, "coordinates": {"latitude": 39.7191425, "longitude": -104.9056243}, "transactions": [], "location": {"address1": "168 Pontiac St", "address2": null, "address3": null, "city": "Denver", "zip_code": "80220", "country": "US", "state": "CO", "display_address": ["168 Pontiac St", "Denver, CO 80220"]}, "phone": "+17209993699", "display_phone": "(720) 999-3699", "distance": 5818.817081158957}, {"id": "WhAD9eZndK3xbFpIPqeFYQ", "alias": "the-dance-art-media-studios-littleton", "name": "The Dance Art Media Studios", "image_url": "https://s3-media4.fl.yelpcdn.com/bphoto/IKQ664XV3GkkbQFgB4UJWw/o.jpg", "is_closed": false, "url": "https://www.yelp.com/biz/the-dance-art-media-studios-littleton?adjust_creative=CSd6XTHR0DfUmDUFsIPk6g&utm_campaign=yelp_api_v3&utm_medium=api_v3_business_search&utm_source=CSd6XTHR0DfUmDUFsIPk6g", "review_count": 5, "categories": [{"alias": "dancestudio", "title": "Dance Studios"}, {"alias": "theater", "title": "Performing Arts"}], "rating": 5.0, "coordinates": {"latitude": 39.6081044, "longitude": -105.0976659}, "transactions": [], "location": {"address1": "8996 West Bowles Ave", "address2": "Unit K2", "address3": null, "city": "Littleton", "zip_code": "80123", "country": "US", "state": "CO", "display_address": ["8996 West Bowles Ave", "Unit K2", "Littleton, CO 80123"]}, "phone": "+13039796419", "display_phone": "(303) 979-6419", "distance": 17879.54284033615}, {"id": "HHv2fah0WapIL8Kche3AHQ", "alias": "wonderbound-denver-2", "name": "Wonderbound", "image_url": "https://s3-media1.fl.yelpcdn.com/bphoto/AoLS0b6fYQqQvFwlA39CHg/o.jpg", "is_closed": false, "url": "https://www.yelp.com/biz/wonderbound-denver-2?adjust_creative=CSd6XTHR0DfUmDUFsIPk6g&utm_campaign=yelp_api_v3&utm_medium=api_v3_business_search&utm_source=CSd6XTHR0DfUmDUFsIPk6g", "review_count": 6, "categories": [{"alias": "theater", "title": "Performing Arts"}, {"alias": "dancestudio", "title": "Dance Studios"}], "rating": 5.0, "coordinates": {"latitude": 39.773672666, "longitude": -104.95555183}, "transactions": [], "location": {"address1": "2535 E 40th Ave", "address2": null, "address3": null, "city": "Denver", "zip_code": "80205", "country": "US", "state": "CO", "display_address": ["2535 E 40th Ave", "Denver, CO 80205"]}, "phone": "+13032924700", "display_phone": "(303) 292-4700", "distance": 4456.443205259131}, {"id": "0u1xWODmufStTWtNOAFeQg", "alias": "warriors-call-tactical-solutions-parker-3", "name": "Warriors Call Tactical Solutions", "image_url": "https://s3-media2.fl.yelpcdn.com/bphoto/EkQ1ZL9EQCsOBUZ9qKm2Zg/o.jpg", "is_closed": false, "url": "https://www.yelp.com/biz/warriors-call-tactical-solutions-parker-3?adjust_creative=CSd6XTHR0DfUmDUFsIPk6g&utm_campaign=yelp_api_v3&utm_medium=api_v3_business_search&utm_source=CSd6XTHR0DfUmDUFsIPk6g", "review_count": 5, "categories": [{"alias": "firearmtraining", "title": "Firearm Training"}, {"alias": "gun_ranges", "title": "Gun/Rifle Ranges"}], "rating": 5.0, "coordinates": {"latitude": 39.52717, "longitude": -104.76715}, "transactions": [], "location": {"address1": "10469 S Parker Rd", "address2": "", "address3": null, "city": "Parker", "zip_code": "80134", "country": "US", "state": "CO", "display_address": ["10469 S Parker Rd", "Parker, CO 80134"]}, "phone": "+17204647885", "display_phone": "(720) 464-7885", "distance": 28964.30283847292}, {"id": "WBHUmYp7wS-jY5IyHLCHKg", "alias": "my-nature-lab-louisville", "name": "My Nature Lab", "image_url": "https://s3-media2.fl.yelpcdn.com/bphoto/ntrK3eh7C2cEcOEbgHKFgA/o.jpg", "is_closed": false, "url": "https://www.yelp.com/biz/my-nature-lab-louisville?adjust_creative=CSd6XTHR0DfUmDUFsIPk6g&utm_campaign=yelp_api_v3&utm_medium=api_v3_business_search&utm_source=CSd6XTHR0DfUmDUFsIPk6g", "review_count": 10, "categories": [{"alias": "educationservices", "title": "Educational Services"}, {"alias": "zoos", "title": "Zoos"}], "rating": 5.0, "coordinates": {"latitude": 39.976643866259806, "longitude": -105.12968147912312}, "transactions": [], "location": {"address1": "1110 E South Boulder Rd", "address2": null, "address3": "", "city": "Louisville", "zip_code": "80027", "country": "US", "state": "CO", "display_address": ["1110 E South Boulder Rd", "Louisville, CO 80027"]}, "phone": "+17705000000", "display_phone": "(770) 500-0000", "distance": 30067.548200959965}, {"id": "frqr0wbb0qEzcx4cnFtjJg", "alias": "colorado-clownfish-swim-club-littleton", "name": "Colorado Clownfish Swim Club", "image_url": "https://s3-media2.fl.yelpcdn.com/bphoto/XYm9u57lhKpgKtrftFeJ0Q/o.jpg", "is_closed": false, "url": "https://www.yelp.com/biz/colorado-clownfish-swim-club-littleton?adjust_creative=CSd6XTHR0DfUmDUFsIPk6g&utm_campaign=yelp_api_v3&utm_medium=api_v3_business_search&utm_source=CSd6XTHR0DfUmDUFsIPk6g", "review_count": 21, "categories": [{"alias": "swimmingpools", "title": "Swimming Pools"}, {"alias": "swimminglessons", "title": "Swimming Lessons/Schools"}], "rating": 5.0, "coordinates": {"latitude": 39.5947447, "longitude": -105.0901068}, "transactions": [], "location": {"address1": "8310 W Coal Mine Ave", "address2": null, "address3": "", "city": "Littleton", "zip_code": "80123", "country": "US", "state": "CO", "display_address": ["8310 W Coal Mine Ave", "Littleton, CO 80123"]}, "phone": "+13039726200", "display_phone": "(303) 972-6200", "distance": 18716.50802436075}, {"id": "l-2ywes6P7v2aijp9VW5JQ", "alias": "front-range-boxing-academy-boulder", "name": "Front Range Boxing Academy", "image_url": "https://s3-media2.fl.yelpcdn.com/bphoto/JZLdBVjp3vY1yNZQgWcTNQ/o.jpg", "is_closed": false, "url": "https://www.yelp.com/biz/front-range-boxing-academy-boulder?adjust_creative=CSd6XTHR0DfUmDUFsIPk6g&utm_campaign=yelp_api_v3&utm_medium=api_v3_business_search&utm_source=CSd6XTHR0DfUmDUFsIPk6g", "review_count": 6, "categories": [{"alias": "gyms", "title": "Gyms"}, {"alias": "boxing", "title": "Boxing"}], "rating": 5.0, "coordinates": {"latitude": 40.0247383, "longitude": -105.2455673}, "transactions": [], "location": {"address1": "3801 Pearl St", "address2": "", "address3": "", "city": "Boulder", "zip_code": "80301", "country": "US", "state": "CO", "display_address": ["3801 Pearl St", "Boulder, CO 80301"]}, "phone": "+13035469747", "display_phone": "(303) 546-9747", "distance": 39834.617994518856}, {"id": "qSdxSnBhzuZmVUaL96mWEA", "alias": "destiny-dance-studio-littleton", "name": "Destiny Dance Studio", "image_url": "https://s3-media2.fl.yelpcdn.com/bphoto/UOvse-JVnu0mZ-XL-Bg2yQ/o.jpg", "is_closed": false, "url": "https://www.yelp.com/biz/destiny-dance-studio-littleton?adjust_creative=CSd6XTHR0DfUmDUFsIPk6g&utm_campaign=yelp_api_v3&utm_medium=api_v3_business_search&utm_source=CSd6XTHR0DfUmDUFsIPk6g", "review_count": 11, "categories": [{"alias": "dancestudio", "title": "Dance Studios"}], "rating": 5.0, "coordinates": {"latitude": 39.5662795, "longitude": -104.9916891}, "transactions": [], "location": {"address1": "213 W County Line Rd", "address2": "Ste 214", "address3": "", "city": "Littleton", "zip_code": "80129", "country": "US", "state": "CO", "display_address": ["213 W County Line Rd", "Ste 214", "Littleton, CO 80129"]}, "phone": "+13037385542", "display_phone": "(303) 738-5542", "distance": 18908.46942948003}, {"id": "HVDNGGTNI2rL07URayC8fg", "alias": "life-cycle-balloon-adventures-brighton", "name": "Life Cycle Balloon Adventures", "image_url": "https://s3-media3.fl.yelpcdn.com/bphoto/UGNCB3Z2SUkMaW4a_3D49w/o.jpg", "is_closed": false, "url": "https://www.yelp.com/biz/life-cycle-balloon-adventures-brighton?adjust_creative=CSd6XTHR0DfUmDUFsIPk6g&utm_campaign=yelp_api_v3&utm_medium=api_v3_business_search&utm_source=CSd6XTHR0DfUmDUFsIPk6g", "review_count": 10, "categories": [{"alias": "hot_air_balloons", "title": "Hot Air Balloons"}], "rating": 5.0, "coordinates": {"latitude": 39.97628784, "longitude": -104.79702759}, "transactions": [], "location": {"address1": "", "address2": "", "address3": "", "city": "Brighton", "zip_code": "80601", "country": "US", "state": "CO", "display_address": ["Brighton, CO 80601"]}, "phone": "+13032161990", "display_phone": "(303) 216-1990", "distance": 29689.075518449827}, {"id": "N321hKwg7PBv4qYXRJGFVw", "alias": "bodhi-pilates-highlands-ranch", "name": "Bodhi Pilates", "image_url": "https://s3-media2.fl.yelpcdn.com/bphoto/CqPzE_xGOEmFqO4L-vVjug/o.jpg", "is_closed": false, "url": "https://www.yelp.com/biz/bodhi-pilates-highlands-ranch?adjust_creative=CSd6XTHR0DfUmDUFsIPk6g&utm_campaign=yelp_api_v3&utm_medium=api_v3_business_search&utm_source=CSd6XTHR0DfUmDUFsIPk6g", "review_count": 5, "categories": [{"alias": "pilates", "title": "Pilates"}, {"alias": "barreclasses", "title": "Barre Classes"}], "rating": 5.0, "coordinates": {"latitude": 39.56479364153386, "longitude": -104.9645406294478}, "transactions": [], "location": {"address1": "1970 E County Line Rd", "address2": "Unit H", "address3": "", "city": "Highlands Ranch ", "zip_code": "80126", "country": "US", "state": "CO", "display_address": ["1970 E County Line Rd", "Unit H", "Highlands Ranch , CO 80126"]}, "phone": "+13035978483", "display_phone": "(303) 597-8483", "distance": 18990.633842832493}, {"id": "_2GDs7XeQbVgkrwabLKORQ", "alias": "persist-coaching-personal-training-and-nutrition-coaching-centennial-2", "name": "Persist Coaching-Personal Training and Nutrition Coaching", "image_url": "https://s3-media1.fl.yelpcdn.com/bphoto/pyEsjT_9JXwWFCp3sTANpQ/o.jpg", "is_closed": false, "url": "https://www.yelp.com/biz/persist-coaching-personal-training-and-nutrition-coaching-centennial-2?adjust_creative=CSd6XTHR0DfUmDUFsIPk6g&utm_campaign=yelp_api_v3&utm_medium=api_v3_business_search&utm_source=CSd6XTHR0DfUmDUFsIPk6g", "review_count": 5, "categories": [{"alias": "healthtrainers", "title": "Trainers"}], "rating": 5.0, "coordinates": {"latitude": 39.5633964538574, "longitude": -104.865493774414}, "transactions": [], "location": {"address1": "", "address2": "", "address3": "", "city": "Centennial", "zip_code": "80112", "country": "US", "state": "CO", "display_address": ["Centennial, CO 80112"]}, "phone": "+18083852278", "display_phone": "(808) 385-2278", "distance": 19473.327749543907}, {"id": "vbYyemmzgjppx9cWB4L4Sw", "alias": "chain-reaction-therapy-wheat-ridge", "name": "Chain Reaction Therapy", "image_url": "https://s3-media2.fl.yelpcdn.com/bphoto/koRaOEN87sue_s8rXG77Hg/o.jpg", "is_closed": false, "url": "https://www.yelp.com/biz/chain-reaction-therapy-wheat-ridge?adjust_creative=CSd6XTHR0DfUmDUFsIPk6g&utm_campaign=yelp_api_v3&utm_medium=api_v3_business_search&utm_source=CSd6XTHR0DfUmDUFsIPk6g", "review_count": 12, "categories": [{"alias": "massage_therapy", "title": "Massage Therapy"}, {"alias": "healthtrainers", "title": "Trainers"}, {"alias": "pilates", "title": "Pilates"}], "rating": 5.0, "coordinates": {"latitude": 39.769847902846706, "longitude": -105.0560611}, "transactions": [], "location": {"address1": "5455 W38th Ave", "address2": "Ste N", "address3": "", "city": "Wheat Ridge", "zip_code": "80212", "country": "US", "state": "CO", "display_address": ["5455 W38th Ave", "Ste N", "Wheat Ridge, CO 80212"]}, "phone": "+19705991213", "display_phone": "(970) 599-1213", "distance": 8269.61091349494}, {"id": "0K0TrxaZjf7JG1wstJ1M4Q", "alias": "alchemy-365-tennyson-denver", "name": "Alchemy 365 - Tennyson", "image_url": "https://s3-media3.fl.yelpcdn.com/bphoto/TZsu3PTll8jifGwQ-AhKKQ/o.jpg", "is_closed": false, "url": "https://www.yelp.com/biz/alchemy-365-tennyson-denver?adjust_creative=CSd6XTHR0DfUmDUFsIPk6g&utm_campaign=yelp_api_v3&utm_medium=api_v3_business_search&utm_source=CSd6XTHR0DfUmDUFsIPk6g", "review_count": 8, "categories": [{"alias": "intervaltraininggyms", "title": "Interval Training Gyms"}, {"alias": "yoga", "title": "Yoga"}], "rating": 5.0, "coordinates": {"latitude": 39.77315, "longitude": -105.043687}, "transactions": [], "location": {"address1": "4144 Tennyson St", "address2": null, "address3": "", "city": "Denver", "zip_code": "80212", "country": "US", "state": "CO", "display_address": ["4144 Tennyson St", "Denver, CO 80212"]}, "phone": "+16124446287", "display_phone": "(612) 444-6287", "distance": 7541.921942416568}, {"id": "i5KoBcb38g3RdU0a29E3Pw", "alias": "form-personal-training-denver", "name": "Form Personal Training", "image_url": "https://s3-media4.fl.yelpcdn.com/bphoto/OaVbZaQFftZBdO8_6uDE0g/o.jpg", "is_closed": false, "url": "https://www.yelp.com/biz/form-personal-training-denver?adjust_creative=CSd6XTHR0DfUmDUFsIPk6g&utm_campaign=yelp_api_v3&utm_medium=api_v3_business_search&utm_source=CSd6XTHR0DfUmDUFsIPk6g", "review_count": 9, "categories": [{"alias": "healthtrainers", "title": "Trainers"}, {"alias": "nutritionists", "title": "Nutritionists"}, {"alias": "weightlosscenters", "title": "Weight Loss Centers"}], "rating": 5.0, "coordinates": {"latitude": 39.72113, "longitude": -105.00042}, "transactions": [], "location": {"address1": "301 Kalamath St", "address2": "Ste 104", "address3": "", "city": "Denver", "zip_code": "80223", "country": "US", "state": "CO", "display_address": ["301 Kalamath St", "Ste 104", "Denver, CO 80223"]}, "phone": "+13036686598", "display_phone": "(303) 668-6598", "distance": 3016.9539533542966}, {"id": "V0jwQbcDkO3gomIpncmHwQ", "alias": "golden-mountain-guides-golden", "name": "Golden Mountain Guides", "image_url": "https://s3-media1.fl.yelpcdn.com/bphoto/n_a-1qWWDGBi58m91cccvw/o.jpg", "is_closed": false, "url": "https://www.yelp.com/biz/golden-mountain-guides-golden?adjust_creative=CSd6XTHR0DfUmDUFsIPk6g&utm_campaign=yelp_api_v3&utm_medium=api_v3_business_search&utm_source=CSd6XTHR0DfUmDUFsIPk6g", "review_count": 7, "categories": [{"alias": "rock_climbing", "title": "Rock Climbing"}, {"alias": "climbing", "title": "Climbing"}, {"alias": "challengecourses", "title": "Challenge Courses"}], "rating": 5.0, "coordinates": {"latitude": 39.75364, "longitude": -105.22126}, "transactions": [], "location": {"address1": "", "address2": null, "address3": "", "city": "Golden", "zip_code": "80401", "country": "US", "state": "CO", "display_address": ["Golden, CO 80401"]}, "phone": "+17205982864", "display_phone": "(720) 598-2864", "distance": 21562.432437832118}, {"id": "PRKVj-QNl0_7FbxV4n1EAw", "alias": "aero-cruise-balloon-adventures-broomfield-3", "name": "Aero-Cruise Balloon Adventures", "image_url": "https://s3-media2.fl.yelpcdn.com/bphoto/7cAKg-4xO7fi5Zss8grsCQ/o.jpg", "is_closed": false, "url": "https://www.yelp.com/biz/aero-cruise-balloon-adventures-broomfield-3?adjust_creative=CSd6XTHR0DfUmDUFsIPk6g&utm_campaign=yelp_api_v3&utm_medium=api_v3_business_search&utm_source=CSd6XTHR0DfUmDUFsIPk6g", "review_count": 5, "categories": [{"alias": "hot_air_balloons", "title": "Hot Air Balloons"}, {"alias": "aerialtours", "title": "Aerial Tours"}], "rating": 5.0, "coordinates": {"latitude": 39.927059, "longitude": -105.080493}, "transactions": [], "location": {"address1": "890 Hemlock Way", "address2": null, "address3": "", "city": "Broomfield", "zip_code": "80020", "country": "US", "state": "CO", "display_address": ["890 Hemlock Way", "Broomfield, CO 80020"]}, "phone": "+13034691243", "display_phone": "(303) 469-1243", "distance": 23285.51889040894}, {"id": "d65GTxLinVPK-crB28B3TA", "alias": "altitude-all-sports-denver", "name": "Altitude All Sports", "image_url": "https://s3-media4.fl.yelpcdn.com/bphoto/xIQYfkO_GWMPT_UDYxHTvg/o.jpg", "is_closed": false, "url": "https://www.yelp.com/biz/altitude-all-sports-denver?adjust_creative=CSd6XTHR0DfUmDUFsIPk6g&utm_campaign=yelp_api_v3&utm_medium=api_v3_business_search&utm_source=CSd6XTHR0DfUmDUFsIPk6g", "review_count": 11, "categories": [{"alias": "kids_activities", "title": "Kids Activities"}], "rating": 5.0, "coordinates": {"latitude": 39.7569923400879, "longitude": -104.866157531738}, "transactions": [], "location": {"address1": "2823 Havana St", "address2": "", "address3": "", "city": "Denver", "zip_code": "80238", "country": "US", "state": "CO", "display_address": ["2823 Havana St", "Denver, CO 80238"]}, "phone": "+17209856642", "display_phone": "(720) 985-6642", "distance": 9214.909506968817}, {"id": "HUMtcv58Lo57Rfy-dyD7eA", "alias": "peace-of-mind-pilates-denver", "name": "Peace Of Mind Pilates", "image_url": "https://s3-media2.fl.yelpcdn.com/bphoto/iQ8rKRuR6fYpipytogp4ig/o.jpg", "is_closed": false, "url": "https://www.yelp.com/biz/peace-of-mind-pilates-denver?adjust_creative=CSd6XTHR0DfUmDUFsIPk6g&utm_campaign=yelp_api_v3&utm_medium=api_v3_business_search&utm_source=CSd6XTHR0DfUmDUFsIPk6g", "review_count": 8, "categories": [{"alias": "pilates", "title": "Pilates"}], "rating": 5.0, "coordinates": {"latitude": 39.684625, "longitude": -104.937043}, "transactions": [], "location": {"address1": "1780 S Bellaire St", "address2": "Ste 275", "address3": "", "city": "Denver", "zip_code": "80222", "country": "US", "state": "CO", "display_address": ["1780 S Bellaire St", "Ste 275", "Denver, CO 80222"]}, "phone": "+13035257491", "display_phone": "(303) 525-7491", "distance": 6335.358841416203}, {"id": "jPma-uanD3VG9wK3bjRXyA", "alias": "core-progression-denver-2", "name": "Core Progression", "image_url": "https://s3-media4.fl.yelpcdn.com/bphoto/tiN1xvKl8j9MnELpxDuZIg/o.jpg", "is_closed": false, "url": "https://www.yelp.com/biz/core-progression-denver-2?adjust_creative=CSd6XTHR0DfUmDUFsIPk6g&utm_campaign=yelp_api_v3&utm_medium=api_v3_business_search&utm_source=CSd6XTHR0DfUmDUFsIPk6g", "review_count": 9, "categories": [{"alias": "gyms", "title": "Gyms"}, {"alias": "healthtrainers", "title": "Trainers"}], "rating": 5.0, "coordinates": {"latitude": 39.7652808744, "longitude": -104.976138935}, "transactions": [], "location": {"address1": "3330 Larimer St", "address2": "Ste 1A", "address3": "", "city": "Denver", "zip_code": "80205", "country": "US", "state": "CO", "display_address": ["3330 Larimer St", "Ste 1A", "Denver, CO 80205"]}, "phone": "+17207928968", "display_phone": "(720) 792-8968", "distance": 3346.9279542239974}, {"id": "i4FohDuFhp7Cjal7fghIPw", "alias": "strive-martial-arts-and-fitness-highlands-ranch", "name": "Strive Martial Arts & Fitness", "image_url": "https://s3-media2.fl.yelpcdn.com/bphoto/iDx5vUkjMYzuf5rjZ7KSFA/o.jpg", "is_closed": false, "url": "https://www.yelp.com/biz/strive-martial-arts-and-fitness-highlands-ranch?adjust_creative=CSd6XTHR0DfUmDUFsIPk6g&utm_campaign=yelp_api_v3&utm_medium=api_v3_business_search&utm_source=CSd6XTHR0DfUmDUFsIPk6g", "review_count": 5, "categories": [{"alias": "martialarts", "title": "Martial Arts"}], "rating": 5.0, "coordinates": {"latitude": 39.564945, "longitude": -104.956871}, "transactions": [], "location": {"address1": "2670 E County Line Rd", "address2": "Ste G", "address3": null, "city": "Highlands Ranch", "zip_code": "80126", "country": "US", "state": "CO", "display_address": ["2670 E County Line Rd", "Ste G", "Highlands Ranch, CO 80126"]}, "phone": "+13034744572", "display_phone": "(303) 474-4572", "distance": 19022.628053875185}, {"id": "0JjelYQ_TU2jE7ldTIZMdg", "alias": "avenge-jiu-jitsu-denver", "name": "Avenge Jiu Jitsu", "image_url": "https://s3-media4.fl.yelpcdn.com/bphoto/UuGoFIDJj1GezMtGxjZsrQ/o.jpg", "is_closed": false, "url": "https://www.yelp.com/biz/avenge-jiu-jitsu-denver?adjust_creative=CSd6XTHR0DfUmDUFsIPk6g&utm_campaign=yelp_api_v3&utm_medium=api_v3_business_search&utm_source=CSd6XTHR0DfUmDUFsIPk6g", "review_count": 7, "categories": [{"alias": "brazilianjiujitsu", "title": "Brazilian Jiu-jitsu"}], "rating": 5.0, "coordinates": {"latitude": 39.729584, "longitude": -105.0191207}, "transactions": [], "location": {"address1": "2595 W 8th Ave", "address2": null, "address3": "", "city": "Denver", "zip_code": "80204", "country": "US", "state": "CO", "display_address": ["2595 W 8th Ave", "Denver, CO 80204"]}, "phone": "+16266025796", "display_phone": "(626) 602-5796", "distance": 4231.34227580086}, {"id": "2zk_xM-1F9LgpulFRPdlHQ", "alias": "rocky-mountain-outdoor-center-buena-vista", "name": "Rocky Mountain Outdoor Center", "image_url": "https://s3-media4.fl.yelpcdn.com/bphoto/NdF0jWpcs11K72QjAIMBiA/o.jpg", "is_closed": false, "url": "https://www.yelp.com/biz/rocky-mountain-outdoor-center-buena-vista?adjust_creative=CSd6XTHR0DfUmDUFsIPk6g&utm_campaign=yelp_api_v3&utm_medium=api_v3_business_search&utm_source=CSd6XTHR0DfUmDUFsIPk6g", "review_count": 31, "categories": [{"alias": "rafting", "title": "Rafting/Kayaking"}, {"alias": "paddleboarding", "title": "Paddleboarding"}, {"alias": "bikerentals", "title": "Bike Rentals"}], "rating": 5.0, "coordinates": {"latitude": 38.76385, "longitude": -106.090998}, "transactions": [], "location": {"address1": "23850 US Hwy 285 S", "address2": "", "address3": "", "city": "Buena Vista", "zip_code": "81211", "country": "US", "state": "CO", "display_address": ["23850 US Hwy 285 S", "Buena Vista, CO 81211"]}, "phone": "+17193953335", "display_phone": "(719) 395-3335", "distance": 144867.18248420113}, {"id": "Zp3NYdcn63YivI2cd1EXnw", "alias": "rocky-mountain-escape-rooms-littleton-10", "name": "Rocky Mountain Escape Rooms", "image_url": "https://s3-media3.fl.yelpcdn.com/bphoto/NK2U2kRfpWjefo20oQIt8A/o.jpg", "is_closed": false, "url": "https://www.yelp.com/biz/rocky-mountain-escape-rooms-littleton-10?adjust_creative=CSd6XTHR0DfUmDUFsIPk6g&utm_campaign=yelp_api_v3&utm_medium=api_v3_business_search&utm_source=CSd6XTHR0DfUmDUFsIPk6g", "review_count": 5, "categories": [{"alias": "escapegames", "title": "Escape Games"}], "rating": 5.0, "coordinates": {"latitude": 39.61486, "longitude": -104.9953}, "transactions": [], "location": {"address1": "", "address2": null, "address3": "", "city": "Littleton", "zip_code": "80120", "country": "US", "state": "CO", "display_address": ["Littleton, CO 80120"]}, "phone": "+13038249201", "display_phone": "(303) 824-9201", "distance": 16454.544650478852}, {"id": "jNjQfYLJI_SDqE1b4Zb2dA", "alias": "superfly-golf-lounge-littleton", "name": "Superfly Golf Lounge", "image_url": "https://s3-media1.fl.yelpcdn.com/bphoto/2TVDkDaPS8TFrLCRp5HPqg/o.jpg", "is_closed": false, "url": "https://www.yelp.com/biz/superfly-golf-lounge-littleton?adjust_creative=CSd6XTHR0DfUmDUFsIPk6g&utm_campaign=yelp_api_v3&utm_medium=api_v3_business_search&utm_source=CSd6XTHR0DfUmDUFsIPk6g", "review_count": 5, "categories": [{"alias": "golf", "title": "Golf"}, {"alias": "cocktailbars", "title": "Cocktail Bars"}, {"alias": "sportsbars", "title": "Sports Bars"}], "rating": 5.0, "coordinates": {"latitude": 39.61295, "longitude": -105.01314}, "transactions": [], "location": {"address1": "2100 W Littleton Blvd", "address2": "Ste C", "address3": "", "city": "Littleton", "zip_code": "80120", "country": "US", "state": "CO", "display_address": ["2100 W Littleton Blvd", "Ste C", "Littleton, CO 80120"]}, "phone": "+13033864146", "display_phone": "(303) 386-4146", "distance": 14107.157509634675}, {"id": "tP2L9XJUi_rMYO4S8NkyXw", "alias": "golden-bike-library-golden", "name": "Golden Bike Library", "image_url": "https://s3-media2.fl.yelpcdn.com/bphoto/mci_6hS5HVUvxELOeJgOdQ/o.jpg", "is_closed": false, "url": "https://www.yelp.com/biz/golden-bike-library-golden?adjust_creative=CSd6XTHR0DfUmDUFsIPk6g&utm_campaign=yelp_api_v3&utm_medium=api_v3_business_search&utm_source=CSd6XTHR0DfUmDUFsIPk6g", "review_count": 6, "categories": [{"alias": "bikerentals", "title": "Bike Rentals"}, {"alias": "bikesharing", "title": "Bike Sharing"}], "rating": 5.0, "coordinates": {"latitude": 39.756713, "longitude": -105.223443}, "transactions": [], "location": {"address1": "1010 Washington St", "address2": null, "address3": "", "city": "Golden", "zip_code": "80401", "country": "US", "state": "CO", "display_address": ["1010 Washington St", "Golden, CO 80401"]}, "phone": "+13035973600", "display_phone": "(303) 597-3600", "distance": 21775.22559824788}, {"id": "3O49eha2axdtpGBOm1YjHA", "alias": "breathe-massage-and-fitness-littleton", "name": "Breathe Massage & Fitness", "image_url": "", "is_closed": false, "url": "https://www.yelp.com/biz/breathe-massage-and-fitness-littleton?adjust_creative=CSd6XTHR0DfUmDUFsIPk6g&utm_campaign=yelp_api_v3&utm_medium=api_v3_business_search&utm_source=CSd6XTHR0DfUmDUFsIPk6g", "review_count": 5, "categories": [{"alias": "massage_therapy", "title": "Massage Therapy"}, {"alias": "meditationcenters", "title": "Meditation Centers"}, {"alias": "healthtrainers", "title": "Trainers"}], "rating": 5.0, "coordinates": {"latitude": 39.589, "longitude": -104.98885}, "transactions": [], "location": {"address1": "7261 S Broadway", "address2": "Ste 14L", "address3": "", "city": "Littleton", "zip_code": "80122", "country": "US", "state": "CO", "display_address": ["7261 S Broadway", "Ste 14L", "Littleton, CO 80122"]}, "phone": "+17206896900", "display_phone": "(720) 689-6900", "distance": 16355.01387661019}, {"id": "nTNA_s9VBuNHEEmHcuAVRQ", "alias": "body-balance-strength-and-wellness-boulder", "name": "Body Balance Strength & Wellness", "image_url": "https://s3-media3.fl.yelpcdn.com/bphoto/PCf-KoVUDGZWryqGHqLfkg/o.jpg", "is_closed": false, "url": "https://www.yelp.com/biz/body-balance-strength-and-wellness-boulder?adjust_creative=CSd6XTHR0DfUmDUFsIPk6g&utm_campaign=yelp_api_v3&utm_medium=api_v3_business_search&utm_source=CSd6XTHR0DfUmDUFsIPk6g", "review_count": 6, "categories": [{"alias": "gyms", "title": "Gyms"}, {"alias": "chiropractors", "title": "Chiropractors"}, {"alias": "healthtrainers", "title": "Trainers"}], "rating": 5.0, "coordinates": {"latitude": 40.0198647, "longitude": -105.242018}, "transactions": [], "location": {"address1": "4735 Walnut St E", "address2": null, "address3": "", "city": "Boulder", "zip_code": "80301", "country": "US", "state": "CO", "display_address": ["4735 Walnut St E", "Boulder, CO 80301"]}, "phone": "+17208384009", "display_phone": "(720) 838-4009", "distance": 39210.55091895804}, {"id": "zStAtikdQGNetIBVeYq35g", "alias": "platinum-plates-fitness-denver", "name": "Platinum Plates Fitness", "image_url": "https://s3-media4.fl.yelpcdn.com/bphoto/BxfDYdfDzshgZXxI9YaphA/o.jpg", "is_closed": false, "url": "https://www.yelp.com/biz/platinum-plates-fitness-denver?adjust_creative=CSd6XTHR0DfUmDUFsIPk6g&utm_campaign=yelp_api_v3&utm_medium=api_v3_business_search&utm_source=CSd6XTHR0DfUmDUFsIPk6g", "review_count": 5, "categories": [{"alias": "healthtrainers", "title": "Trainers"}, {"alias": "nutritionists", "title": "Nutritionists"}], "rating": 5.0, "coordinates": {"latitude": 39.67387, "longitude": -104.83726}, "transactions": [], "location": {"address1": "", "address2": null, "address3": "", "city": "Denver", "zip_code": "80014", "country": "US", "state": "CO", "display_address": ["Denver, CO 80014"]}, "phone": "+17204295660", "display_phone": "(720) 429-5660", "distance": 14592.712780406897}, {"id": "agJLE7H7YVkyZYZb3lXhHg", "alias": "jrt-fit-littleton", "name": "JRT Fit", "image_url": "https://s3-media2.fl.yelpcdn.com/bphoto/GqKP93_abWMQ0-qjEXiCwg/o.jpg", "is_closed": false, "url": "https://www.yelp.com/biz/jrt-fit-littleton?adjust_creative=CSd6XTHR0DfUmDUFsIPk6g&utm_campaign=yelp_api_v3&utm_medium=api_v3_business_search&utm_source=CSd6XTHR0DfUmDUFsIPk6g", "review_count": 7, "categories": [{"alias": "healthtrainers", "title": "Trainers"}, {"alias": "nutritionists", "title": "Nutritionists"}], "rating": 5.0, "coordinates": {"latitude": 39.60930397412517, "longitude": -105.09789687029347}, "transactions": [], "location": {"address1": "8906 W Bowles Ave", "address2": "Unit G", "address3": "", "city": "Littleton", "zip_code": "80123", "country": "US", "state": "CO", "display_address": ["8906 W Bowles Ave", "Unit G", "Littleton, CO 80123"]}, "phone": "+17203361332", "display_phone": "(720) 336-1332", "distance": 17786.106632039937}, {"id": "mDt6xEGnJx8oguN7r2Evtw", "alias": "f45-training-north-arvada-westminster", "name": "F45 Training North Arvada", "image_url": "https://s3-media1.fl.yelpcdn.com/bphoto/-NwD5nv0gLZyc0_5-1zAUA/o.jpg", "is_closed": false, "url": "https://www.yelp.com/biz/f45-training-north-arvada-westminster?adjust_creative=CSd6XTHR0DfUmDUFsIPk6g&utm_campaign=yelp_api_v3&utm_medium=api_v3_business_search&utm_source=CSd6XTHR0DfUmDUFsIPk6g", "review_count": 5, "categories": [{"alias": "healthtrainers", "title": "Trainers"}, {"alias": "circuittraininggyms", "title": "Circuit Training Gyms"}], "rating": 5.0, "coordinates": {"latitude": 39.85651, "longitude": -105.05974}, "transactions": [], "location": {"address1": "7350 W 88th Ave", "address2": "", "address3": null, "city": "Westminster", "zip_code": "80021", "country": "US", "state": "CO", "display_address": ["7350 W 88th Ave", "Westminster, CO 80021"]}, "phone": "+13032099317", "display_phone": "(303) 209-9317", "distance": 16259.556347681222}, {"id": "JCvtaU6sFwU-VzW9fkRj-g", "alias": "golden-puzzle-room-lakewood-2", "name": "Golden Puzzle Room", "image_url": "https://s3-media2.fl.yelpcdn.com/bphoto/G1gXnQS7N2w7fPUMgs0mEg/o.jpg", "is_closed": false, "url": "https://www.yelp.com/biz/golden-puzzle-room-lakewood-2?adjust_creative=CSd6XTHR0DfUmDUFsIPk6g&utm_campaign=yelp_api_v3&utm_medium=api_v3_business_search&utm_source=CSd6XTHR0DfUmDUFsIPk6g", "review_count": 8, "categories": [{"alias": "escapegames", "title": "Escape Games"}, {"alias": "teambuilding", "title": "Team Building Activities"}], "rating": 5.0, "coordinates": {"latitude": 39.73773, "longitude": -105.10439}, "transactions": [], "location": {"address1": "1350 Independence St", "address2": "Ste 100", "address3": "", "city": "Lakewood", "zip_code": "80215", "country": "US", "state": "CO", "display_address": ["1350 Independence St", "Ste 100", "Lakewood, CO 80215"]}, "phone": "+13033967359", "display_phone": "(303) 396-7359", "distance": 11474.128539025729}, {"id": "FfAFrdYZmNbKCVv0dgUA2g", "alias": "vibe-wellness-aurora", "name": "Vibe Yoga + Wellness", "image_url": "https://s3-media2.fl.yelpcdn.com/bphoto/HgAi612NbOtX1cYpXdme1g/o.jpg", "is_closed": false, "url": "https://www.yelp.com/biz/vibe-wellness-aurora?adjust_creative=CSd6XTHR0DfUmDUFsIPk6g&utm_campaign=yelp_api_v3&utm_medium=api_v3_business_search&utm_source=CSd6XTHR0DfUmDUFsIPk6g", "review_count": 6, "categories": [{"alias": "massage", "title": "Massage"}, {"alias": "yoga", "title": "Yoga"}, {"alias": "reiki", "title": "Reiki"}], "rating": 5.0, "coordinates": {"latitude": 39.75314229679957, "longitude": -104.8771380254643}, "transactions": [], "location": {"address1": "2501 Dallas St", "address2": "Ste 124", "address3": null, "city": "Aurora", "zip_code": "80010", "country": "US", "state": "CO", "display_address": ["2501 Dallas St", "Ste 124", "Aurora, CO 80010"]}, "phone": "+17205831427", "display_phone": "(720) 583-1427", "distance": 8198.024954604965}, {"id": "n8Csseys7kI7zBDO-ThLBg", "alias": "colorado-fitness-and-strength-denver", "name": "Colorado Fitness and Strength", "image_url": "https://s3-media3.fl.yelpcdn.com/bphoto/awpSTcjkrXtWpgpyvPsGYA/o.jpg", "is_closed": false, "url": "https://www.yelp.com/biz/colorado-fitness-and-strength-denver?adjust_creative=CSd6XTHR0DfUmDUFsIPk6g&utm_campaign=yelp_api_v3&utm_medium=api_v3_business_search&utm_source=CSd6XTHR0DfUmDUFsIPk6g", "review_count": 5, "categories": [{"alias": "healthtrainers", "title": "Trainers"}, {"alias": "gyms", "title": "Gyms"}, {"alias": "nutritionists", "title": "Nutritionists"}], "rating": 5.0, "coordinates": {"latitude": 39.770237, "longitude": -104.86456}, "transactions": [], "location": {"address1": "3700 Havanna St", "address2": "Unit 218", "address3": "", "city": "Denver", "zip_code": "80239", "country": "US", "state": "CO", "display_address": ["3700 Havanna St", "Unit 218", "Denver, CO 80239"]}, "phone": "+13154897445", "display_phone": "(315) 489-7445", "distance": 9824.771772267804}, {"id": "VUbw3zSR_tbeIrY5BiCTVA", "alias": "pharonik-pilates-aurora-2", "name": "Pharonik Pilates", "image_url": "https://s3-media1.fl.yelpcdn.com/bphoto/GdNjsAiikLwHB4j6nAjLeg/o.jpg", "is_closed": false, "url": "https://www.yelp.com/biz/pharonik-pilates-aurora-2?adjust_creative=CSd6XTHR0DfUmDUFsIPk6g&utm_campaign=yelp_api_v3&utm_medium=api_v3_business_search&utm_source=CSd6XTHR0DfUmDUFsIPk6g", "review_count": 5, "categories": [{"alias": "pilates", "title": "Pilates"}, {"alias": "barreclasses", "title": "Barre Classes"}, {"alias": "healthcoach", "title": "Health Coach"}], "rating": 5.0, "coordinates": {"latitude": 39.600181, "longitude": -104.72078083}, "transactions": [], "location": {"address1": "22946 E Smoky Hill Rd", "address2": "", "address3": null, "city": "Aurora", "zip_code": "80016", "country": "US", "state": "CO", "display_address": ["22946 E Smoky Hill Rd", "Aurora, CO 80016"]}, "phone": "+13038471478", "display_phone": "(303) 847-1478", "distance": 26138.312325549414}, {"id": "22MmTxyZit_cUV8Ycs-5FQ", "alias": "anytime-fitness-littleton-2", "name": "Anytime Fitness", "image_url": "https://s3-media4.fl.yelpcdn.com/bphoto/zK7EOp5UwkDH4ZZS4XRhfQ/o.jpg", "is_closed": false, "url": "https://www.yelp.com/biz/anytime-fitness-littleton-2?adjust_creative=CSd6XTHR0DfUmDUFsIPk6g&utm_campaign=yelp_api_v3&utm_medium=api_v3_business_search&utm_source=CSd6XTHR0DfUmDUFsIPk6g", "review_count": 17, "categories": [{"alias": "healthtrainers", "title": "Trainers"}, {"alias": "gyms", "title": "Gyms"}], "rating": 5.0, "coordinates": {"latitude": 39.6116819, "longitude": -105.0058009}, "transactions": [], "location": {"address1": "1500 W Littleton Blvd", "address2": "Stes 100-100B", "address3": "Stes 100-100B", "city": "Littleton", "zip_code": "80120", "country": "US", "state": "CO", "display_address": ["1500 W Littleton Blvd", "Stes 100-100B", "Stes 100-100B", "Littleton, CO 80120"]}, "phone": "+13037944235", "display_phone": "(303) 794-4235", "distance": 14102.84322108008}, {"id": "BqCvIKXb106P8yOlwp49_w", "alias": "just-results-personal-training-westminster", "name": "Just Results Personal Training", "image_url": "https://s3-media1.fl.yelpcdn.com/bphoto/C0SqO8lM3_RrEM4WMhUL5w/o.jpg", "is_closed": false, "url": "https://www.yelp.com/biz/just-results-personal-training-westminster?adjust_creative=CSd6XTHR0DfUmDUFsIPk6g&utm_campaign=yelp_api_v3&utm_medium=api_v3_business_search&utm_source=CSd6XTHR0DfUmDUFsIPk6g", "review_count": 7, "categories": [{"alias": "healthtrainers", "title": "Trainers"}, {"alias": "gyms", "title": "Gyms"}], "rating": 5.0, "coordinates": {"latitude": 39.89377146660899, "longitude": -105.0950219009993}, "transactions": [], "location": {"address1": "10835 N Dover St", "address2": "Ste 1300", "address3": "", "city": "Westminster", "zip_code": "80021", "country": "US", "state": "CO", "display_address": ["10835 N Dover St", "Ste 1300", "Westminster, CO 80021"]}, "phone": "+17205566154", "display_phone": "(720) 556-6154", "distance": 20571.97603112052}, {"id": "vnqzi8kUNhu5hUpKS4uCNA", "alias": "denver-climbing-company-denver", "name": "Denver Climbing Company", "image_url": "https://s3-media3.fl.yelpcdn.com/bphoto/unJoDzAQNAlAXJ-M0Uf8EA/o.jpg", "is_closed": false, "url": "https://www.yelp.com/biz/denver-climbing-company-denver?adjust_creative=CSd6XTHR0DfUmDUFsIPk6g&utm_campaign=yelp_api_v3&utm_medium=api_v3_business_search&utm_source=CSd6XTHR0DfUmDUFsIPk6g", "review_count": 20, "categories": [{"alias": "rock_climbing", "title": "Rock Climbing"}], "rating": 5.0, "coordinates": {"latitude": 39.6710401188651, "longitude": -104.92790668417163}, "transactions": [], "location": {"address1": null, "address2": null, "address3": null, "city": "Denver", "zip_code": "80222", "country": "US", "state": "CO", "display_address": ["Denver, CO 80222"]}, "phone": "+17193543332", "display_phone": "(719) 354-3332", "distance": 8033.200080014473}, {"id": "no72lxi14fhkc91c8LsoTQ", "alias": "ceremony-westminster", "name": "Ceremony", "image_url": "https://s3-media3.fl.yelpcdn.com/bphoto/-W_8UeJG03E7pZ1lPotCHQ/o.jpg", "is_closed": false, "url": "https://www.yelp.com/biz/ceremony-westminster?adjust_creative=CSd6XTHR0DfUmDUFsIPk6g&utm_campaign=yelp_api_v3&utm_medium=api_v3_business_search&utm_source=CSd6XTHR0DfUmDUFsIPk6g", "review_count": 12, "categories": [{"alias": "yoga", "title": "Yoga"}, {"alias": "kombucha", "title": "Kombucha"}], "rating": 5.0, "coordinates": {"latitude": 39.8286001, "longitude": -105.0344749}, "transactions": [], "price": "$$", "location": {"address1": "7269 Lowell Blvd", "address2": null, "address3": "", "city": "Westminster", "zip_code": "80030", "country": "US", "state": "CO", "display_address": ["7269 Lowell Blvd", "Westminster, CO 80030"]}, "phone": "+17206892879", "display_phone": "(720) 689-2879", "distance": 11720.806987003174}, {"id": "jKVQUY4AbE6I4C1Fs8VIBw", "alias": "mixed-combat-sports-arvada", "name": "Mixed Combat Sports", "image_url": "https://s3-media4.fl.yelpcdn.com/bphoto/_yIMLLPGWIwaVIGZYjHExw/o.jpg", "is_closed": false, "url": "https://www.yelp.com/biz/mixed-combat-sports-arvada?adjust_creative=CSd6XTHR0DfUmDUFsIPk6g&utm_campaign=yelp_api_v3&utm_medium=api_v3_business_search&utm_source=CSd6XTHR0DfUmDUFsIPk6g", "review_count": 5, "categories": [{"alias": "kickboxing", "title": "Kickboxing"}, {"alias": "brazilianjiujitsu", "title": "Brazilian Jiu-jitsu"}], "rating": 5.0, "coordinates": {"latitude": 39.80958, "longitude": -105.06731}, "transactions": [], "location": {"address1": null, "address2": null, "address3": null, "city": "Arvada", "zip_code": "80003", "country": "US", "state": "CO", "display_address": ["Arvada, CO 80003"]}, "phone": "+18183106266", "display_phone": "(818) 310-6266", "distance": 12393.263687724077}, {"id": "rYC4gCNA7gt_81FEveUZNQ", "alias": "adventure-colorado-tours-aurora-2", "name": "Adventure Colorado Tours", "image_url": "https://s3-media4.fl.yelpcdn.com/bphoto/aP_JjN_S15leKBqqEaO1Ow/o.jpg", "is_closed": false, "url": "https://www.yelp.com/biz/adventure-colorado-tours-aurora-2?adjust_creative=CSd6XTHR0DfUmDUFsIPk6g&utm_campaign=yelp_api_v3&utm_medium=api_v3_business_search&utm_source=CSd6XTHR0DfUmDUFsIPk6g", "review_count": 7, "categories": [{"alias": "walkingtours", "title": "Walking Tours"}, {"alias": "hiking", "title": "Hiking"}, {"alias": "mountainbiking", "title": "Mountain Biking"}], "rating": 5.0, "coordinates": {"latitude": 39.74924087524414, "longitude": -104.99501037597656}, "transactions": [], "location": {"address1": null, "address2": null, "address3": null, "city": "Aurora", "zip_code": "80202", "country": "US", "state": "CO", "display_address": ["Aurora, CO 80202"]}, "phone": "+17207080567", "display_phone": "(720) 708-0567", "distance": 3292.031921569482}, {"id": "nw01pEJvXBIErhJ-urAAdw", "alias": "go-paint-evergreen", "name": "Go Paint!", "image_url": "https://s3-media3.fl.yelpcdn.com/bphoto/MNIEBHrEjcvosTSHzlxGyQ/o.jpg", "is_closed": false, "url": "https://www.yelp.com/biz/go-paint-evergreen?adjust_creative=CSd6XTHR0DfUmDUFsIPk6g&utm_campaign=yelp_api_v3&utm_medium=api_v3_business_search&utm_source=CSd6XTHR0DfUmDUFsIPk6g", "review_count": 7, "categories": [{"alias": "homeandgarden", "title": "Home & Garden"}, {"alias": "artclasses", "title": "Art Classes"}, {"alias": "summer_camps", "title": "Summer Camps"}], "rating": 5.0, "coordinates": {"latitude": 39.63218, "longitude": -105.31996}, "transactions": [], "location": {"address1": "4602 Plettner Ln", "address2": "", "address3": "", "city": "Evergreen", "zip_code": "80439", "country": "US", "state": "CO", "display_address": ["4602 Plettner Ln", "Evergreen, CO 80439"]}, "phone": "+13036793089", "display_phone": "(303) 679-3089", "distance": 32076.494162170547}, {"id": "RyZ4mwPN_3XGLIFyhGU4gA", "alias": "fight-gravity-fitness-denver", "name": "Fight Gravity Fitness", "image_url": "https://s3-media4.fl.yelpcdn.com/bphoto/MmBhvb_O_6D1lXk__ecePA/o.jpg", "is_closed": false, "url": "https://www.yelp.com/biz/fight-gravity-fitness-denver?adjust_creative=CSd6XTHR0DfUmDUFsIPk6g&utm_campaign=yelp_api_v3&utm_medium=api_v3_business_search&utm_source=CSd6XTHR0DfUmDUFsIPk6g", "review_count": 23, "categories": [{"alias": "healthtrainers", "title": "Trainers"}, {"alias": "gyms", "title": "Gyms"}], "rating": 5.0, "coordinates": {"latitude": 39.7657192, "longitude": -104.9773157}, "transactions": [], "location": {"address1": "3300 Walnut St", "address2": "Ste 128", "address3": "", "city": "Denver", "zip_code": "80205", "country": "US", "state": "CO", "display_address": ["3300 Walnut St", "Ste 128", "Denver, CO 80205"]}, "phone": "+13033512846", "display_phone": "(303) 351-2846", "distance": 3411.5003216956484}, {"id": "IwQH2NNkwkV7jL4BtFvLyg", "alias": "denver-mountain-guiding-golden", "name": "Denver Mountain Guiding", "image_url": "https://s3-media2.fl.yelpcdn.com/bphoto/0EZT-NWqh7wqVtDFqax4rw/o.jpg", "is_closed": false, "url": "https://www.yelp.com/biz/denver-mountain-guiding-golden?adjust_creative=CSd6XTHR0DfUmDUFsIPk6g&utm_campaign=yelp_api_v3&utm_medium=api_v3_business_search&utm_source=CSd6XTHR0DfUmDUFsIPk6g", "review_count": 19, "categories": [{"alias": "climbing", "title": "Climbing"}, {"alias": "rock_climbing", "title": "Rock Climbing"}], "rating": 5.0, "coordinates": {"latitude": 39.7866074, "longitude": -105.2421082}, "transactions": [], "location": {"address1": "5070 Pine Ridge Dr", "address2": "", "address3": "", "city": "Golden", "zip_code": "80403", "country": "US", "state": "CO", "display_address": ["5070 Pine Ridge Dr", "Golden, CO 80403"]}, "phone": "+13038842755", "display_phone": "(303) 884-2755", "distance": 23922.283322914358}, {"id": "IaPb61-o9PhyFepC0rma4A", "alias": "the-local-drive-denver", "name": "The Local Drive", "image_url": "https://s3-media3.fl.yelpcdn.com/bphoto/fU63yno4_exGejrtkAQAiQ/o.jpg", "is_closed": false, "url": "https://www.yelp.com/biz/the-local-drive-denver?adjust_creative=CSd6XTHR0DfUmDUFsIPk6g&utm_campaign=yelp_api_v3&utm_medium=api_v3_business_search&utm_source=CSd6XTHR0DfUmDUFsIPk6g", "review_count": 13, "categories": [{"alias": "golf", "title": "Golf"}, {"alias": "cocktailbars", "title": "Cocktail Bars"}], "rating": 5.0, "coordinates": {"latitude": 39.77071588506139, "longitude": -104.9788822082762}, "transactions": [], "location": {"address1": "3503 Brighton Blvd", "address2": "", "address3": null, "city": "Denver", "zip_code": "80216", "country": "US", "state": "CO", "display_address": ["3503 Brighton Blvd", "Denver, CO 80216"]}, "phone": "+17206722802", "display_phone": "(720) 672-2802", "distance": 3982.178157001205}, {"id": "x485HuPl5baGzwT7YpOEgw", "alias": "koko-fitclub-of-westminster-co-westminster", "name": "Koko FitClub of Westminster CO", "image_url": "https://s3-media2.fl.yelpcdn.com/bphoto/0z6OVI5IElRa_W5WOVjjsQ/o.jpg", "is_closed": false, "url": "https://www.yelp.com/biz/koko-fitclub-of-westminster-co-westminster?adjust_creative=CSd6XTHR0DfUmDUFsIPk6g&utm_campaign=yelp_api_v3&utm_medium=api_v3_business_search&utm_source=CSd6XTHR0DfUmDUFsIPk6g", "review_count": 5, "categories": [{"alias": "healthtrainers", "title": "Trainers"}, {"alias": "gyms", "title": "Gyms"}], "rating": 5.0, "coordinates": {"latitude": 39.886066, "longitude": -105.026062}, "transactions": [], "location": {"address1": "3003 W 104th Ave", "address2": "Ste 500", "address3": "", "city": "Westminster", "zip_code": "80031", "country": "US", "state": "CO", "display_address": ["3003 W 104th Ave", "Ste 500", "Westminster, CO 80031"]}, "phone": "+13035522607", "display_phone": "(303) 552-2607", "distance": 17371.683630291693}], "total": 1200, "region": {"center": {"longitude": -104.97024536132812, "latitude": 39.73552421220229}}}