{"businesses": [{"id": "A5Agg5CwZWeto_F5p5gwRg", "alias": "molly-brown-summer-house-denver", "name": "Molly Brown Summer House", "image_url": "https://s3-media1.fl.yelpcdn.com/bphoto/9GG96ROlLY8gxJtk_NBoEg/o.jpg", "is_closed": false, "url": "https://www.yelp.com/biz/molly-brown-summer-house-denver?adjust_creative=OD45_sigUUSBobJ_eVs01w&utm_campaign=yelp_api_v3&utm_medium=api_v3_business_search&utm_source=OD45_sigUUSBobJ_eVs01w", "review_count": 6, "categories": [{"alias": "museums", "title": "Museums"}, {"alias": "venues", "title": "Venues & Event Spaces"}], "rating": 5.0, "coordinates": {"latitude": 39.6681480407715, "longitude": -105.081100463867}, "transactions": [], "location": {"address1": "2690 S Wadsworth Blvd", "address2": "", "address3": "", "city": "Denver", "zip_code": "80227", "country": "US", "state": "CO", "display_address": ["2690 S Wadsworth Blvd", "Denver, CO 80227"]}, "phone": "+17202538349", "display_phone": "(720) 253-8349", "distance": 12087.762825993468}, {"id": "z1yRf2NzhH1P7JHp907Kqg", "alias": "colorado-sports-hall-of-fame-denver", "name": "Colorado Sports Hall of Fame", "image_url": "https://s3-media3.fl.yelpcdn.com/bphoto/CULDqQ7BaQ8fcZjoPNJrXQ/o.jpg", "is_closed": false, "url": "https://www.yelp.com/biz/colorado-sports-hall-of-fame-denver?adjust_creative=OD45_sigUUSBobJ_eVs01w&utm_campaign=yelp_api_v3&utm_medium=api_v3_business_search&utm_source=OD45_sigUUSBobJ_eVs01w", "review_count": 14, "categories": [{"alias": "museums", "title": "Museums"}, {"alias": "nonprofit", "title": "Community Service/Non-Profit"}], "rating": 5.0, "coordinates": {"latitude": 39.7439848, "longitude": -105.0213316}, "transactions": [], "location": {"address1": "1701 Mile High Stadium Cir", "address2": "", "address3": "Se 500", "city": "Denver", "zip_code": "80204", "country": "US", "state": "CO", "display_address": ["1701 Mile High Stadium Cir", "Se 500", "Denver, CO 80204"]}, "phone": "+17202583888", "display_phone": "(720) 258-3888", "distance": 4468.2351815463335}, {"id": "rCMneoRzqXU-jJ3331sFgw", "alias": "national-ballpark-museum-denver", "name": "National Ballpark Museum", "image_url": "https://s3-media3.fl.yelpcdn.com/bphoto/hzG7CMnVaSlGSIRgnUZ85g/o.jpg", "is_closed": false, "url": "https://www.yelp.com/biz/national-ballpark-museum-denver?adjust_creative=OD45_sigUUSBobJ_eVs01w&utm_campaign=yelp_api_v3&utm_medium=api_v3_business_search&utm_source=OD45_sigUUSBobJ_eVs01w", "review_count": 54, "categories": [{"alias": "museums", "title": "Museums"}], "rating": 5.0, "coordinates": {"latitude": 39.75376, "longitude": -104.99448}, "transactions": [], "location": {"address1": "1940 Blake St", "address2": "", "address3": "", "city": "Denver", "zip_code": "80202", "country": "US", "state": "CO", "display_address": ["1940 Blake St", "Denver, CO 80202"]}, "phone": "+13039745835", "display_phone": "(303) 974-5835", "distance": 2904.1333860040418}, {"id": "NPVRul4eApPVqzguDwFhlw", "alias": "shelby-american-collection-boulder", "name": "Shelby American Collection", "image_url": "https://s3-media1.fl.yelpcdn.com/bphoto/wEyN1QrznhBgxvRMNpyYNg/o.jpg", "is_closed": false, "url": "https://www.yelp.com/biz/shelby-american-collection-boulder?adjust_creative=OD45_sigUUSBobJ_eVs01w&utm_campaign=yelp_api_v3&utm_medium=api_v3_business_search&utm_source=OD45_sigUUSBobJ_eVs01w", "review_count": 11, "categories": [{"alias": "museums", "title": "Museums"}], "rating": 5.0, "coordinates": {"latitude": 40.065788269043, "longitude": -105.202461242676}, "transactions": [], "location": {"address1": "5020 Chaparral Ct", "address2": "", "address3": "", "city": "Boulder", "zip_code": "80301", "country": "US", "state": "CO", "display_address": ["5020 Chaparral Ct", "Boulder, CO 80301"]}, "phone": "+13035169565", "display_phone": "(303) 516-9565", "distance": 41729.02548402251}, {"id": "1uURhB2cwBJXJEb9FF0NGw", "alias": "morrison-natural-history-museum-morrison", "name": "Morrison Natural History Museum", "image_url": "https://s3-media3.fl.yelpcdn.com/bphoto/gKJY1zyBRaLV0TiZH3RKNQ/o.jpg", "is_closed": false, "url": "https://www.yelp.com/biz/morrison-natural-history-museum-morrison?adjust_creative=OD45_sigUUSBobJ_eVs01w&utm_campaign=yelp_api_v3&utm_medium=api_v3_business_search&utm_source=OD45_sigUUSBobJ_eVs01w", "review_count": 37, "categories": [{"alias": "museums", "title": "Museums"}], "rating": 5.0, "coordinates": {"latitude": 39.6489396, "longitude": -105.1937449}, "transactions": [], "location": {"address1": "501 Hwy 8", "address2": "", "address3": "", "city": "Morrison", "zip_code": "80465", "country": "US", "state": "CO", "display_address": ["501 Hwy 8", "Morrison, CO 80465"]}, "phone": "+13036971873", "display_phone": "(303) 697-1873", "distance": 21438.025969829003}, {"id": "xR-VI0fHHZvLxMD8nMMZfg", "alias": "colorado-school-of-mines-geology-museum-golden", "name": "Colorado School of Mines Geology Museum", "image_url": "https://s3-media2.fl.yelpcdn.com/bphoto/ikraPax4ewH5Pv8dLR4opw/o.jpg", "is_closed": false, "url": "https://www.yelp.com/biz/colorado-school-of-mines-geology-museum-golden?adjust_creative=OD45_sigUUSBobJ_eVs01w&utm_campaign=yelp_api_v3&utm_medium=api_v3_business_search&utm_source=OD45_sigUUSBobJ_eVs01w", "review_count": 27, "categories": [{"alias": "museums", "title": "Museums"}], "rating": 5.0, "coordinates": {"latitude": 39.751832816426, "longitude": -105.224804235157}, "transactions": [], "location": {"address1": "1310 Maple St", "address2": "", "address3": "", "city": "Golden", "zip_code": "80401", "country": "US", "state": "CO", "display_address": ["1310 Maple St", "Golden, CO 80401"]}, "phone": "+13032733815", "display_phone": "(303) 273-3815", "distance": 21839.954386522262}, {"id": "2X5ONuPLC4EIGTkAXOxaLw", "alias": "kirkland-museum-of-fine-and-decorative-art-denver", "name": "Kirkland Museum of Fine & Decorative Art", "image_url": "https://s3-media1.fl.yelpcdn.com/bphoto/jguZmzuY-JOyKFMNWxL8Dg/o.jpg", "is_closed": false, "url": "https://www.yelp.com/biz/kirkland-museum-of-fine-and-decorative-art-denver?adjust_creative=OD45_sigUUSBobJ_eVs01w&utm_campaign=yelp_api_v3&utm_medium=api_v3_business_search&utm_source=OD45_sigUUSBobJ_eVs01w", "review_count": 88, "categories": [{"alias": "artmuseums", "title": "Art Museums"}], "rating": 4.5, "coordinates": {"latitude": 39.735638, "longitude": -104.990532}, "transactions": [], "location": {"address1": "1201 Bannock St", "address2": "", "address3": "", "city": "Denver", "zip_code": "80204", "country": "US", "state": "CO", "display_address": ["1201 Bannock St", "Denver, CO 80204"]}, "phone": "+13038328576", "display_phone": "(303) 832-8576", "distance": 1734.7384956706792}, {"id": "wvdEY6XWwVAKUehFaY6Ewg", "alias": "red-rocks-amphitheatre-morrison-5", "name": "Red Rocks Amphitheatre", "image_url": "https://s3-media2.fl.yelpcdn.com/bphoto/wxqVFjXTM9ZCqzXzhRitBQ/o.jpg", "is_closed": false, "url": "https://www.yelp.com/biz/red-rocks-amphitheatre-morrison-5?adjust_creative=OD45_sigUUSBobJ_eVs01w&utm_campaign=yelp_api_v3&utm_medium=api_v3_business_search&utm_source=OD45_sigUUSBobJ_eVs01w", "review_count": 1350, "categories": [{"alias": "musicvenues", "title": "Music Venues"}, {"alias": "hiking", "title": "Hiking"}, {"alias": "museums", "title": "Museums"}], "rating": 4.5, "coordinates": {"latitude": 39.66648418167865, "longitude": -105.20485286988556}, "transactions": [], "price": "$$", "location": {"address1": "18300 W Alameda Pkwy", "address2": null, "address3": "", "city": "Morrison", "zip_code": "80401", "country": "US", "state": "CO", "display_address": ["18300 W Alameda Pkwy", "Morrison, CO 80401"]}, "phone": "+17208652494", "display_phone": "(720) 865-2494", "distance": 21489.181127880714}, {"id": "WMA6tF5fdAAKuLFehgcIMQ", "alias": "golden-history-museum-and-park-golden", "name": "Golden History Museum & Park", "image_url": "https://s3-media3.fl.yelpcdn.com/bphoto/x_Ck8xDq7NJ2Oxt4nWlM5w/o.jpg", "is_closed": false, "url": "https://www.yelp.com/biz/golden-history-museum-and-park-golden?adjust_creative=OD45_sigUUSBobJ_eVs01w&utm_campaign=yelp_api_v3&utm_medium=api_v3_business_search&utm_source=OD45_sigUUSBobJ_eVs01w", "review_count": 10, "categories": [{"alias": "museums", "title": "Museums"}], "rating": 4.5, "coordinates": {"latitude": 39.756641, "longitude": -105.2246741}, "transactions": [], "location": {"address1": "923 10th St", "address2": "", "address3": "", "city": "Golden", "zip_code": "80401", "country": "US", "state": "CO", "display_address": ["923 10th St", "Golden, CO 80401"]}, "phone": "+13032783557", "display_phone": "(303) 278-3557", "distance": 21878.299168480436}, {"id": "d7Tl6xLu1SdtK41jlp4nag", "alias": "american-mountaineering-museum-golden", "name": "American Mountaineering Museum", "image_url": "https://s3-media4.fl.yelpcdn.com/bphoto/Bcu69hnlO7idhOwZKb6ojQ/o.jpg", "is_closed": false, "url": "https://www.yelp.com/biz/american-mountaineering-museum-golden?adjust_creative=OD45_sigUUSBobJ_eVs01w&utm_campaign=yelp_api_v3&utm_medium=api_v3_business_search&utm_source=OD45_sigUUSBobJ_eVs01w", "review_count": 9, "categories": [{"alias": "museums", "title": "Museums"}], "rating": 4.5, "coordinates": {"latitude": 39.7582397, "longitude": -105.2231216}, "transactions": [], "location": {"address1": "710 Tenth St", "address2": "", "address3": "", "city": "Golden", "zip_code": "80401", "country": "US", "state": "CO", "display_address": ["710 Tenth St", "Golden, CO 80401"]}, "phone": "+13039962755", "display_phone": "(303) 996-2755", "distance": 21758.71953591432}, {"id": "yT7sHZZo2IEWpsS0SzL1fg", "alias": "vehicle-vault-parker", "name": "Vehicle Vault", "image_url": "https://s3-media4.fl.yelpcdn.com/bphoto/Nj3dRGqjA2VuN8MxXmbNlg/o.jpg", "is_closed": false, "url": "https://www.yelp.com/biz/vehicle-vault-parker?adjust_creative=OD45_sigUUSBobJ_eVs01w&utm_campaign=yelp_api_v3&utm_medium=api_v3_business_search&utm_source=OD45_sigUUSBobJ_eVs01w", "review_count": 11, "categories": [{"alias": "museums", "title": "Museums"}], "rating": 4.5, "coordinates": {"latitude": 39.533456, "longitude": -104.776781}, "transactions": [], "location": {"address1": "18301 Lincoln Meadows Pkwy", "address2": "", "address3": "", "city": "Parker", "zip_code": "80134", "country": "US", "state": "CO", "display_address": ["18301 Lincoln Meadows Pkwy", "Parker, CO 80134"]}, "phone": "+13036268920", "display_phone": "(303) 626-8920", "distance": 27916.37957658302}, {"id": "57uolAyk2Rsommc-lbJONQ", "alias": "lookout-mountain-park-golden", "name": "Lookout Mountain Park", "image_url": "https://s3-media1.fl.yelpcdn.com/bphoto/mX1BLHBZmbJ5o1BTrrFLJw/o.jpg", "is_closed": false, "url": "https://www.yelp.com/biz/lookout-mountain-park-golden?adjust_creative=OD45_sigUUSBobJ_eVs01w&utm_campaign=yelp_api_v3&utm_medium=api_v3_business_search&utm_source=OD45_sigUUSBobJ_eVs01w", "review_count": 92, "categories": [{"alias": "parks", "title": "Parks"}, {"alias": "landmarks", "title": "Landmarks & Historical Buildings"}, {"alias": "museums", "title": "Museums"}], "rating": 4.5, "coordinates": {"latitude": 39.733361, "longitude": -105.238584}, "transactions": [], "location": {"address1": "987 Lookout Mountain Rd", "address2": "", "address3": "Golden", "city": "Golden", "zip_code": "80401", "country": "US", "state": "CO", "display_address": ["987 Lookout Mountain Rd", "Golden", "Golden, CO 80401"]}, "phone": "+17208650900", "display_phone": "(720) 865-0900", "distance": 22947.028525017453}, {"id": "jo3GifFZDf-vKnzgSdE39A", "alias": "clyfford-still-museum-denver", "name": "Clyfford Still Museum", "image_url": "https://s3-media1.fl.yelpcdn.com/bphoto/qZbljGEgK7rBECijKgzKhw/o.jpg", "is_closed": false, "url": "https://www.yelp.com/biz/clyfford-still-museum-denver?adjust_creative=OD45_sigUUSBobJ_eVs01w&utm_campaign=yelp_api_v3&utm_medium=api_v3_business_search&utm_source=OD45_sigUUSBobJ_eVs01w", "review_count": 115, "categories": [{"alias": "artmuseums", "title": "Art Museums"}], "rating": 4.5, "coordinates": {"latitude": 39.7362594604492, "longitude": -104.98983001709}, "transactions": [], "location": {"address1": "1250 Bannock St", "address2": "", "address3": "", "city": "Denver", "zip_code": "80204", "country": "US", "state": "CO", "display_address": ["1250 Bannock St", "Denver, CO 80204"]}, "phone": "+17203544880", "display_phone": "(720) 354-4880", "distance": 1663.7224610384958}, {"id": "FaaGYhjQ6dMSN34OtD01pg", "alias": "university-of-colorado-museum-of-natural-history-boulder", "name": "University of Colorado Museum of Natural History", "image_url": "https://s3-media1.fl.yelpcdn.com/bphoto/FBP7tvlB2CC2YYW8V4jizA/o.jpg", "is_closed": false, "url": "https://www.yelp.com/biz/university-of-colorado-museum-of-natural-history-boulder?adjust_creative=OD45_sigUUSBobJ_eVs01w&utm_campaign=yelp_api_v3&utm_medium=api_v3_business_search&utm_source=OD45_sigUUSBobJ_eVs01w", "review_count": 10, "categories": [{"alias": "museums", "title": "Museums"}], "rating": 4.5, "coordinates": {"latitude": 40.0064291427328, "longitude": -105.273249161939}, "transactions": [], "location": {"address1": "1035 Broadway St", "address2": "", "address3": "Henderson Building", "city": "Boulder", "zip_code": "80309", "country": "US", "state": "CO", "display_address": ["1035 Broadway St", "Henderson Building", "Boulder, CO 80309"]}, "phone": "+13034926892", "display_phone": "(303) 492-6892", "distance": 39714.8386888863}, {"id": "0Cv_y9I_K2bUQDDIbf8kfQ", "alias": "castle-rock-museum-and-historical-society-castle-rock", "name": "Castle Rock Museum & Historical Society", "image_url": "https://s3-media2.fl.yelpcdn.com/bphoto/lF0Ng3iOqvVrPRn3PYIhtQ/o.jpg", "is_closed": false, "url": "https://www.yelp.com/biz/castle-rock-museum-and-historical-society-castle-rock?adjust_creative=OD45_sigUUSBobJ_eVs01w&utm_campaign=yelp_api_v3&utm_medium=api_v3_business_search&utm_source=OD45_sigUUSBobJ_eVs01w", "review_count": 3, "categories": [{"alias": "museums", "title": "Museums"}], "rating": 5.0, "coordinates": {"latitude": 39.3740616, "longitude": -104.8623199}, "transactions": [], "location": {"address1": "420 Elbert St", "address2": "", "address3": "", "city": "Castle Rock", "zip_code": "80104", "country": "US", "state": "CO", "display_address": ["420 Elbert St", "Castle Rock, CO 80104"]}, "phone": "+13038143164", "display_phone": "(303) 814-3164", "distance": 41244.29235468223}, {"id": "Ux0CuxI6U41DadI0dQkmNw", "alias": "louisville-historical-museum-louisville", "name": "Louisville Historical Museum", "image_url": "https://s3-media4.fl.yelpcdn.com/bphoto/NLhHRjInkIl470vEOqGM3w/o.jpg", "is_closed": false, "url": "https://www.yelp.com/biz/louisville-historical-museum-louisville?adjust_creative=OD45_sigUUSBobJ_eVs01w&utm_campaign=yelp_api_v3&utm_medium=api_v3_business_search&utm_source=OD45_sigUUSBobJ_eVs01w", "review_count": 3, "categories": [{"alias": "museums", "title": "Museums"}], "rating": 5.0, "coordinates": {"latitude": 39.97987, "longitude": -105.1324999}, "transactions": [], "location": {"address1": "1001 Main St", "address2": "", "address3": "", "city": "Louisville", "zip_code": "80027", "country": "US", "state": "CO", "display_address": ["1001 Main St", "Louisville, CO 80027"]}, "phone": "+13033354850", "display_phone": "(303) 335-4850", "distance": 30481.112968639365}, {"id": "XyexFIUr56tFwUgmbLDcpg", "alias": "forney-museum-of-transportation-denver", "name": "Forney Museum Of Transportation", "image_url": "https://s3-media1.fl.yelpcdn.com/bphoto/majicejUB0TN8b8fBQLu4A/o.jpg", "is_closed": false, "url": "https://www.yelp.com/biz/forney-museum-of-transportation-denver?adjust_creative=OD45_sigUUSBobJ_eVs01w&utm_campaign=yelp_api_v3&utm_medium=api_v3_business_search&utm_source=OD45_sigUUSBobJ_eVs01w", "review_count": 75, "categories": [{"alias": "museums", "title": "Museums"}], "rating": 4.5, "coordinates": {"latitude": 39.777838, "longitude": -104.970671}, "transactions": [], "location": {"address1": "4303 Brighton Blvd", "address2": "", "address3": "", "city": "Denver", "zip_code": "80216", "country": "US", "state": "CO", "display_address": ["4303 Brighton Blvd", "Denver, CO 80216"]}, "phone": "+13032971113", "display_phone": "(303) 297-1113", "distance": 4705.2139936287585}, {"id": "yj2Eop2Ev1qeRwemgm5dFA", "alias": "museum-of-outdoor-arts-greenwood-village", "name": "Museum of Outdoor Arts", "image_url": "https://s3-media3.fl.yelpcdn.com/bphoto/a29zCpLYDUIAWFNQ7E5Mbw/o.jpg", "is_closed": false, "url": "https://www.yelp.com/biz/museum-of-outdoor-arts-greenwood-village?adjust_creative=OD45_sigUUSBobJ_eVs01w&utm_campaign=yelp_api_v3&utm_medium=api_v3_business_search&utm_source=OD45_sigUUSBobJ_eVs01w", "review_count": 19, "categories": [{"alias": "museums", "title": "Museums"}, {"alias": "galleries", "title": "Art Galleries"}], "rating": 4.5, "coordinates": {"latitude": 39.60156, "longitude": -104.89397}, "transactions": [], "price": "$", "location": {"address1": "6331 S Fiddler's Green Cir", "address2": "", "address3": "", "city": "Greenwood Village", "zip_code": "80111", "country": "US", "state": "CO", "display_address": ["6331 S Fiddler's Green Cir", "Greenwood Village, CO 80111"]}, "phone": "+13038060444", "display_phone": "(303) 806-0444", "distance": 16241.580764964032}, {"id": "oOe5L4tg1uBO0knaQ-3J9g", "alias": "littleton-museum-littleton", "name": "Littleton Museum", "image_url": "https://s3-media2.fl.yelpcdn.com/bphoto/fBkYfVOK0ehfH2sks7DLvA/o.jpg", "is_closed": false, "url": "https://www.yelp.com/biz/littleton-museum-littleton?adjust_creative=OD45_sigUUSBobJ_eVs01w&utm_campaign=yelp_api_v3&utm_medium=api_v3_business_search&utm_source=OD45_sigUUSBobJ_eVs01w", "review_count": 41, "categories": [{"alias": "museums", "title": "Museums"}], "rating": 4.5, "coordinates": {"latitude": 39.606601, "longitude": -105.001483}, "transactions": [], "location": {"address1": "6028 S Gallup St", "address2": "", "address3": "", "city": "Littleton", "zip_code": "80120", "country": "US", "state": "CO", "display_address": ["6028 S Gallup St", "Littleton, CO 80120"]}, "phone": "+13037953950", "display_phone": "(303) 795-3950", "distance": 14582.774419406323}, {"id": "QHPsTwHaz_uqMV2Re5GiLw", "alias": "ncar-mesa-lab-visitor-center-boulder-2", "name": "NCAR Mesa Lab Visitor Center", "image_url": "https://s3-media3.fl.yelpcdn.com/bphoto/ZQomnyiEfDegFhvMK_3-8g/o.jpg", "is_closed": false, "url": "https://www.yelp.com/biz/ncar-mesa-lab-visitor-center-boulder-2?adjust_creative=OD45_sigUUSBobJ_eVs01w&utm_campaign=yelp_api_v3&utm_medium=api_v3_business_search&utm_source=OD45_sigUUSBobJ_eVs01w", "review_count": 35, "categories": [{"alias": "tours", "title": "Tours"}, {"alias": "hiking", "title": "Hiking"}, {"alias": "museums", "title": "Museums"}], "rating": 4.5, "coordinates": {"latitude": 39.9794004983718, "longitude": -105.274628138669}, "transactions": [], "location": {"address1": "1850 Table Mesa Dr", "address2": "", "address3": "", "city": "Boulder", "zip_code": "80305", "country": "US", "state": "CO", "display_address": ["1850 Table Mesa Dr", "Boulder, CO 80305"]}, "phone": "+13034971000", "display_phone": "(303) 497-1000", "distance": 37555.34519981902}, {"id": "3tLnZTmtgNbmvnHZeLGumQ", "alias": "denver-firefighters-museum-denver", "name": "Denver Firefighters Museum", "image_url": "https://s3-media1.fl.yelpcdn.com/bphoto/2LfftCGpo_KMJmHs2vl9AA/o.jpg", "is_closed": false, "url": "https://www.yelp.com/biz/denver-firefighters-museum-denver?adjust_creative=OD45_sigUUSBobJ_eVs01w&utm_campaign=yelp_api_v3&utm_medium=api_v3_business_search&utm_source=OD45_sigUUSBobJ_eVs01w", "review_count": 42, "categories": [{"alias": "venues", "title": "Venues & Event Spaces"}, {"alias": "museums", "title": "Museums"}], "rating": 4.5, "coordinates": {"latitude": 39.7406, "longitude": -104.99238}, "transactions": [], "location": {"address1": "1326 Tremont Pl", "address2": "", "address3": "", "city": "Denver", "zip_code": "80204", "country": "US", "state": "CO", "display_address": ["1326 Tremont Pl", "Denver, CO 80204"]}, "phone": "+13038921436", "display_phone": "(303) 892-1436", "distance": 1978.2547874926092}, {"id": "Zd_IyS0Z8eL0RRQZ9LCwfw", "alias": "denver-selfie-museum-denver", "name": "Denver Selfie Museum", "image_url": "https://s3-media3.fl.yelpcdn.com/bphoto/xs4asVu5Dltg7Wv_1B4gYg/o.jpg", "is_closed": false, "url": "https://www.yelp.com/biz/denver-selfie-museum-denver?adjust_creative=OD45_sigUUSBobJ_eVs01w&utm_campaign=yelp_api_v3&utm_medium=api_v3_business_search&utm_source=OD45_sigUUSBobJ_eVs01w", "review_count": 98, "categories": [{"alias": "artmuseums", "title": "Art Museums"}], "rating": 4.5, "coordinates": {"latitude": 39.7456745, "longitude": -104.9939706}, "transactions": [], "location": {"address1": "1531 Stout St", "address2": null, "address3": "", "city": "Denver", "zip_code": "80202", "country": "US", "state": "CO", "display_address": ["1531 Stout St", "Denver, CO 80202"]}, "phone": "+13033280104", "display_phone": "(303) 328-0104", "distance": 2321.4205351593605}, {"id": "djifObyXGJZANiHo_V8s-Q", "alias": "phoenix-gold-mine-idaho-springs", "name": "Phoenix Gold Mine", "image_url": "https://s3-media3.fl.yelpcdn.com/bphoto/H1tbpZLRUKIBaH8cHTM1VQ/o.jpg", "is_closed": false, "url": "https://www.yelp.com/biz/phoenix-gold-mine-idaho-springs?adjust_creative=OD45_sigUUSBobJ_eVs01w&utm_campaign=yelp_api_v3&utm_medium=api_v3_business_search&utm_source=OD45_sigUUSBobJ_eVs01w", "review_count": 101, "categories": [{"alias": "museums", "title": "Museums"}, {"alias": "historicaltours", "title": "Historical Tours"}], "rating": 4.5, "coordinates": {"latitude": 39.748613, "longitude": -105.5655139}, "transactions": [], "location": {"address1": "830 Trl Creek Rd", "address2": "", "address3": "", "city": "Idaho Springs", "zip_code": "80452", "country": "US", "state": "CO", "display_address": ["830 Trl Creek Rd", "Idaho Springs, CO 80452"]}, "phone": "+13035670422", "display_phone": "(303) 567-0422", "distance": 50916.80089541354}, {"id": "Ws3AtOnsCh-y5Dy5vRZTTA", "alias": "colorado-music-hall-of-fame-morrison", "name": "Colorado Music Hall of Fame", "image_url": "https://s3-media2.fl.yelpcdn.com/bphoto/Y8jrYZo7NTv71eHMrQXZLA/o.jpg", "is_closed": false, "url": "https://www.yelp.com/biz/colorado-music-hall-of-fame-morrison?adjust_creative=OD45_sigUUSBobJ_eVs01w&utm_campaign=yelp_api_v3&utm_medium=api_v3_business_search&utm_source=OD45_sigUUSBobJ_eVs01w", "review_count": 6, "categories": [{"alias": "nonprofit", "title": "Community Service/Non-Profit"}, {"alias": "artmuseums", "title": "Art Museums"}], "rating": 4.5, "coordinates": {"latitude": 39.66398476, "longitude": -105.20298857}, "transactions": [], "location": {"address1": "17900 Trading Post Rd", "address2": null, "address3": null, "city": "Morrison", "zip_code": "80465", "country": "US", "state": "CO", "display_address": ["17900 Trading Post Rd", "Morrison, CO 80465"]}, "phone": "+13033207599", "display_phone": "(303) 320-7599", "distance": 21442.169522926535}, {"id": "KIGtdgy_AVn8qzDP1lqQQQ", "alias": "denver-museum-of-miniatures-dolls-and-toys-lakewood", "name": "Denver Museum of Miniatures Dolls & Toys", "image_url": "https://s3-media3.fl.yelpcdn.com/bphoto/5mK75dXv4c3SR5N3S1b22g/o.jpg", "is_closed": false, "url": "https://www.yelp.com/biz/denver-museum-of-miniatures-dolls-and-toys-lakewood?adjust_creative=OD45_sigUUSBobJ_eVs01w&utm_campaign=yelp_api_v3&utm_medium=api_v3_business_search&utm_source=OD45_sigUUSBobJ_eVs01w", "review_count": 24, "categories": [{"alias": "museums", "title": "Museums"}], "rating": 4.5, "coordinates": {"latitude": 39.7299118, "longitude": -105.1090394}, "transactions": [], "location": {"address1": "830 Kipling St", "address2": "", "address3": "", "city": "Lakewood", "zip_code": "80215", "country": "US", "state": "CO", "display_address": ["830 Kipling St", "Lakewood, CO 80215"]}, "phone": "+13033221053", "display_phone": "(303) 322-1053", "distance": 11885.042044231648}, {"id": "bQF2O3iQwPcRTv2MfXl4Sw", "alias": "center-for-colorado-womens-history-denver-3", "name": "Center for Colorado Women's History", "image_url": "https://s3-media2.fl.yelpcdn.com/bphoto/54b6qXCboLvhAGtn5d6yFg/o.jpg", "is_closed": false, "url": "https://www.yelp.com/biz/center-for-colorado-womens-history-denver-3?adjust_creative=OD45_sigUUSBobJ_eVs01w&utm_campaign=yelp_api_v3&utm_medium=api_v3_business_search&utm_source=OD45_sigUUSBobJ_eVs01w", "review_count": 42, "categories": [{"alias": "museums", "title": "Museums"}], "rating": 4.5, "coordinates": {"latitude": 39.73709, "longitude": -104.98983}, "transactions": [], "location": {"address1": "1310 Bannock St", "address2": "", "address3": "", "city": "Denver", "zip_code": "80204", "country": "US", "state": "CO", "display_address": ["1310 Bannock St", "Denver, CO 80204"]}, "phone": "+13036204933", "display_phone": "(303) 620-4933", "distance": 1678.707427537309}, {"id": "fMI4403oZ3nzKw6_vZIkdQ", "alias": "butterfly-pavilion-westminster", "name": "Butterfly Pavilion", "image_url": "https://s3-media2.fl.yelpcdn.com/bphoto/RMiWCw3Js1iD5CAX5wQh4A/o.jpg", "is_closed": false, "url": "https://www.yelp.com/biz/butterfly-pavilion-westminster?adjust_creative=OD45_sigUUSBobJ_eVs01w&utm_campaign=yelp_api_v3&utm_medium=api_v3_business_search&utm_source=OD45_sigUUSBobJ_eVs01w", "review_count": 255, "categories": [{"alias": "museums", "title": "Museums"}, {"alias": "zoos", "title": "Zoos"}, {"alias": "venues", "title": "Venues & Event Spaces"}], "rating": 4.5, "coordinates": {"latitude": 39.8870234, "longitude": -105.0664741}, "transactions": [], "location": {"address1": "6252 W 104th Ave", "address2": "", "address3": "", "city": "Westminster", "zip_code": "80020", "country": "US", "state": "CO", "display_address": ["6252 W 104th Ave", "Westminster, CO 80020"]}, "phone": "+13034695441", "display_phone": "(303) 469-5441", "distance": 18744.15499760433}, {"id": "CQLtgY6Vm0sddZHSm9Q_cw", "alias": "golden-triangle-denver-2", "name": "Golden Triangle", "image_url": "https://s3-media3.fl.yelpcdn.com/bphoto/voJOFxLZUVuP_6rUrzHJ0w/o.jpg", "is_closed": false, "url": "https://www.yelp.com/biz/golden-triangle-denver-2?adjust_creative=OD45_sigUUSBobJ_eVs01w&utm_campaign=yelp_api_v3&utm_medium=api_v3_business_search&utm_source=OD45_sigUUSBobJ_eVs01w", "review_count": 2, "categories": [{"alias": "museums", "title": "Museums"}], "rating": 5.0, "coordinates": {"latitude": 39.73283, "longitude": -104.99129}, "transactions": [], "location": {"address1": "1050 Cherokee St", "address2": "", "address3": null, "city": "Denver", "zip_code": "80204", "country": "US", "state": "CO", "display_address": ["1050 Cherokee St", "Denver, CO 80204"]}, "phone": "+17203615732", "display_phone": "(720) 361-5732", "distance": 1807.8838872271153}, {"id": "3N5T77Arwrl8yxu8z-uIkA", "alias": "black-american-west-museum-denver", "name": "Black American West Museum", "image_url": "https://s3-media1.fl.yelpcdn.com/bphoto/fLnjgHD8LW1Qu2p-SzR2bg/o.jpg", "is_closed": false, "url": "https://www.yelp.com/biz/black-american-west-museum-denver?adjust_creative=OD45_sigUUSBobJ_eVs01w&utm_campaign=yelp_api_v3&utm_medium=api_v3_business_search&utm_source=OD45_sigUUSBobJ_eVs01w", "review_count": 14, "categories": [{"alias": "museums", "title": "Museums"}], "rating": 4.0, "coordinates": {"latitude": 39.7592544555664, "longitude": -104.974464416504}, "transactions": [], "location": {"address1": "3091 California St", "address2": "", "address3": "", "city": "Denver", "zip_code": "80205", "country": "US", "state": "CO", "display_address": ["3091 California St", "Denver, CO 80205"]}, "phone": "+17202427428", "display_phone": "(720) 242-7428", "distance": 2661.221791320506}, {"id": "egVDaN9V5rpVpz0lj5F6kw", "alias": "denver-museum-of-nature-and-science-denver-5", "name": "Denver Museum of Nature and Science", "image_url": "https://s3-media3.fl.yelpcdn.com/bphoto/NNQxyjgk8Mu5v04xEtvL9Q/o.jpg", "is_closed": false, "url": "https://www.yelp.com/biz/denver-museum-of-nature-and-science-denver-5?adjust_creative=OD45_sigUUSBobJ_eVs01w&utm_campaign=yelp_api_v3&utm_medium=api_v3_business_search&utm_source=OD45_sigUUSBobJ_eVs01w", "review_count": 648, "categories": [{"alias": "movietheaters", "title": "Cinema"}, {"alias": "museums", "title": "Museums"}, {"alias": "planetarium", "title": "Planetarium"}], "rating": 4.0, "coordinates": {"latitude": 39.747532, "longitude": -104.942805}, "transactions": [], "location": {"address1": "2001 Colorado Blvd", "address2": "", "address3": "", "city": "Denver", "zip_code": "80205", "country": "US", "state": "CO", "display_address": ["2001 Colorado Blvd", "Denver, CO 80205"]}, "phone": "+13033706000", "display_phone": "(303) 370-6000", "distance": 2699.521283586222}, {"id": "qSdkrcKJQTg0oV5ahaGk7w", "alias": "molly-brown-house-museum-denver", "name": "Molly Brown House Museum", "image_url": "https://s3-media4.fl.yelpcdn.com/bphoto/t72gvAY-BQQpjV1KTp9mqw/o.jpg", "is_closed": false, "url": "https://www.yelp.com/biz/molly-brown-house-museum-denver?adjust_creative=OD45_sigUUSBobJ_eVs01w&utm_campaign=yelp_api_v3&utm_medium=api_v3_business_search&utm_source=OD45_sigUUSBobJ_eVs01w", "review_count": 204, "categories": [{"alias": "museums", "title": "Museums"}], "rating": 4.0, "coordinates": {"latitude": 39.73749, "longitude": -104.98073}, "transactions": [], "location": {"address1": "1340 Pennsylvania St", "address2": "", "address3": "", "city": "Denver", "zip_code": "80203", "country": "US", "state": "CO", "display_address": ["1340 Pennsylvania St", "Denver, CO 80203"]}, "phone": "+13038324092", "display_phone": "(303) 832-4092", "distance": 923.1852432479245}, {"id": "uqcLw69ap0IVjPDqjtB-iw", "alias": "buffalo-bill-museum-and-grave-golden-2", "name": "Buffalo Bill Museum and Grave", "image_url": "https://s3-media1.fl.yelpcdn.com/bphoto/Y-ppbrvegDBPh5D92-pPKg/o.jpg", "is_closed": false, "url": "https://www.yelp.com/biz/buffalo-bill-museum-and-grave-golden-2?adjust_creative=OD45_sigUUSBobJ_eVs01w&utm_campaign=yelp_api_v3&utm_medium=api_v3_business_search&utm_source=OD45_sigUUSBobJ_eVs01w", "review_count": 118, "categories": [{"alias": "museums", "title": "Museums"}], "rating": 4.0, "coordinates": {"latitude": 39.733342, "longitude": -105.2385}, "transactions": [], "location": {"address1": "987 Lookout Mountain Rd", "address2": "", "address3": "", "city": "Golden", "zip_code": "80401", "country": "US", "state": "CO", "display_address": ["987 Lookout Mountain Rd", "Golden, CO 80401"]}, "phone": "+17208652160", "display_phone": "(720) 865-2160", "distance": 22939.871455627974}, {"id": "P_jFGrrz_aOYEmakW3NKjQ", "alias": "denver-art-museum-denver-2", "name": "Denver Art Museum", "image_url": "https://s3-media4.fl.yelpcdn.com/bphoto/6-xtg80GlR1Fqtr2esy7TA/o.jpg", "is_closed": false, "url": "https://www.yelp.com/biz/denver-art-museum-denver-2?adjust_creative=OD45_sigUUSBobJ_eVs01w&utm_campaign=yelp_api_v3&utm_medium=api_v3_business_search&utm_source=OD45_sigUUSBobJ_eVs01w", "review_count": 596, "categories": [{"alias": "galleries", "title": "Art Galleries"}, {"alias": "artmuseums", "title": "Art Museums"}, {"alias": "venues", "title": "Venues & Event Spaces"}], "rating": 4.0, "coordinates": {"latitude": 39.73747, "longitude": -104.98952}, "transactions": [], "price": "$$", "location": {"address1": "100 W 14th Ave Pkwy", "address2": "", "address3": "", "city": "Denver", "zip_code": "80204", "country": "US", "state": "CO", "display_address": ["100 W 14th Ave Pkwy", "Denver, CO 80204"]}, "phone": "+17208655000", "display_phone": "(720) 865-5000", "distance": 1636.055960388378}, {"id": "uJVxkg9KMfWrQlbvT_sncQ", "alias": "distortions-monster-world-denver", "name": "Distortions Monster World", "image_url": "https://s3-media2.fl.yelpcdn.com/bphoto/KstXH5M6VXxTARJ71lzYPQ/o.jpg", "is_closed": false, "url": "https://www.yelp.com/biz/distortions-monster-world-denver?adjust_creative=OD45_sigUUSBobJ_eVs01w&utm_campaign=yelp_api_v3&utm_medium=api_v3_business_search&utm_source=OD45_sigUUSBobJ_eVs01w", "review_count": 6, "categories": [{"alias": "artmuseums", "title": "Art Museums"}], "rating": 4.0, "coordinates": {"latitude": 39.743455, "longitude": -104.990968}, "transactions": [], "location": {"address1": "500 16th St Mall", "address2": "Ste 180", "address3": null, "city": "Denver", "zip_code": "80202", "country": "US", "state": "CO", "display_address": ["500 16th St Mall", "Ste 180", "Denver, CO 80202"]}, "phone": "+17208971230", "display_phone": "(720) 897-1230", "distance": 2013.9213500303706}, {"id": "zaSoUAmPkxqrZsBlAwA11Q", "alias": "manitou-springs-heritage-center-and-museum-manitou-springs", "name": "Manitou Springs Heritage Center and Museum", "image_url": "https://s3-media3.fl.yelpcdn.com/bphoto/bVveaxsIn-I8g-nyZ0HGtw/o.jpg", "is_closed": false, "url": "https://www.yelp.com/biz/manitou-springs-heritage-center-and-museum-manitou-springs?adjust_creative=OD45_sigUUSBobJ_eVs01w&utm_campaign=yelp_api_v3&utm_medium=api_v3_business_search&utm_source=OD45_sigUUSBobJ_eVs01w", "review_count": 6, "categories": [{"alias": "museums", "title": "Museums"}, {"alias": "nonprofit", "title": "Community Service/Non-Profit"}, {"alias": "landmarks", "title": "Landmarks & Historical Buildings"}], "rating": 4.0, "coordinates": {"latitude": 38.8573361, "longitude": -104.9118517}, "transactions": [], "location": {"address1": "517 Manitou Ave", "address2": "", "address3": null, "city": "Manitou Springs", "zip_code": "80829", "country": "US", "state": "CO", "display_address": ["517 Manitou Ave", "Manitou Springs, CO 80829"]}, "phone": "+17196851454", "display_phone": "(719) 685-1454", "distance": 97779.14546603833}, {"id": "NqkblxIwviVB17Qscv8v8A", "alias": "childrens-museum-of-denver-at-marsico-campus-denver-2", "name": "Children's Museum of Denver at Marsico Campus", "image_url": "https://s3-media2.fl.yelpcdn.com/bphoto/Fc5eyZM2fMZndt07kojaZA/o.jpg", "is_closed": false, "url": "https://www.yelp.com/biz/childrens-museum-of-denver-at-marsico-campus-denver-2?adjust_creative=OD45_sigUUSBobJ_eVs01w&utm_campaign=yelp_api_v3&utm_medium=api_v3_business_search&utm_source=OD45_sigUUSBobJ_eVs01w", "review_count": 290, "categories": [{"alias": "childrensmuseums", "title": "Children's Museums"}], "rating": 4.0, "coordinates": {"latitude": 39.7486275227114, "longitude": -105.017103623078}, "transactions": [], "location": {"address1": "2121 Childrens Museum Dr", "address2": "", "address3": "", "city": "Denver", "zip_code": "80211", "country": "US", "state": "CO", "display_address": ["2121 Childrens Museum Dr", "Denver, CO 80211"]}, "phone": "+13034337444", "display_phone": "(303) 433-7444", "distance": 4263.143494768439}, {"id": "c99BNHTsMgWlQ7PxLNB9ZA", "alias": "four-mile-historic-park-denver", "name": "Four Mile Historic Park", "image_url": "https://s3-media4.fl.yelpcdn.com/bphoto/LoibhwtfYNlOoBJf-QwZVw/o.jpg", "is_closed": false, "url": "https://www.yelp.com/biz/four-mile-historic-park-denver?adjust_creative=OD45_sigUUSBobJ_eVs01w&utm_campaign=yelp_api_v3&utm_medium=api_v3_business_search&utm_source=OD45_sigUUSBobJ_eVs01w", "review_count": 33, "categories": [{"alias": "museums", "title": "Museums"}, {"alias": "venues", "title": "Venues & Event Spaces"}, {"alias": "historicaltours", "title": "Historical Tours"}], "rating": 4.0, "coordinates": {"latitude": 39.703553, "longitude": -104.929233}, "transactions": [], "location": {"address1": "715 S Forest St", "address2": "", "address3": "", "city": "Denver", "zip_code": "80246", "country": "US", "state": "CO", "display_address": ["715 S Forest St", "Denver, CO 80246"]}, "phone": "+17208650800", "display_phone": "(720) 865-0800", "distance": 4994.250837027915}, {"id": "GvIOuA7C1E9zphBrJBrGtQ", "alias": "dinosaur-ridge-morrison", "name": "Dinosaur Ridge", "image_url": "https://s3-media3.fl.yelpcdn.com/bphoto/9o45rv1bcn4r-UM-fRI15A/o.jpg", "is_closed": false, "url": "https://www.yelp.com/biz/dinosaur-ridge-morrison?adjust_creative=OD45_sigUUSBobJ_eVs01w&utm_campaign=yelp_api_v3&utm_medium=api_v3_business_search&utm_source=OD45_sigUUSBobJ_eVs01w", "review_count": 160, "categories": [{"alias": "museums", "title": "Museums"}, {"alias": "hiking", "title": "Hiking"}, {"alias": "mountainbiking", "title": "Mountain Biking"}], "rating": 4.0, "coordinates": {"latitude": 39.689003, "longitude": -105.190566}, "transactions": [], "location": {"address1": "16831 W Alameda Pkwy", "address2": "", "address3": "", "city": "Morrison", "zip_code": "80465", "country": "US", "state": "CO", "display_address": ["16831 W Alameda Pkwy", "Morrison, CO 80465"]}, "phone": "+13036973466", "display_phone": "(303) 697-3466", "distance": 19542.843700719866}, {"id": "aIa0T3ciTqE8wyRQ5o5Dew", "alias": "neptune-mountaineering-boulder", "name": "Neptune Mountaineering", "image_url": "https://s3-media4.fl.yelpcdn.com/bphoto/ByqBSJZEI1ivKyRA7YBAEw/o.jpg", "is_closed": false, "url": "https://www.yelp.com/biz/neptune-mountaineering-boulder?adjust_creative=OD45_sigUUSBobJ_eVs01w&utm_campaign=yelp_api_v3&utm_medium=api_v3_business_search&utm_source=OD45_sigUUSBobJ_eVs01w", "review_count": 43, "categories": [{"alias": "outdoorgear", "title": "Outdoor Gear"}, {"alias": "museums", "title": "Museums"}], "rating": 4.0, "coordinates": {"latitude": 39.9841395, "longitude": -105.2497177}, "transactions": [], "price": "$$", "location": {"address1": "633 S Broadway", "address2": "Unit A", "address3": "", "city": "Boulder", "zip_code": "80305", "country": "US", "state": "CO", "display_address": ["633 S Broadway", "Unit A", "Boulder, CO 80305"]}, "phone": "+13034998866", "display_phone": "(303) 499-8866", "distance": 36513.76649390299}, {"id": "Ke3jmzoAN6LhuwoIoTys9Q", "alias": "wings-over-the-rockies-air-and-space-museum-denver", "name": "Wings Over the Rockies Air & Space Museum", "image_url": "https://s3-media4.fl.yelpcdn.com/bphoto/W2sjj_mNrpDBASgz2OmMYg/o.jpg", "is_closed": false, "url": "https://www.yelp.com/biz/wings-over-the-rockies-air-and-space-museum-denver?adjust_creative=OD45_sigUUSBobJ_eVs01w&utm_campaign=yelp_api_v3&utm_medium=api_v3_business_search&utm_source=OD45_sigUUSBobJ_eVs01w", "review_count": 151, "categories": [{"alias": "museums", "title": "Museums"}, {"alias": "venues", "title": "Venues & Event Spaces"}], "rating": 4.0, "coordinates": {"latitude": 39.72098, "longitude": -104.8953}, "transactions": [], "location": {"address1": "7711 E Academy Blvd", "address2": "", "address3": "", "city": "Denver", "zip_code": "80230", "country": "US", "state": "CO", "display_address": ["7711 E Academy Blvd", "Denver, CO 80230"]}, "phone": "+13033605360", "display_phone": "(303) 360-5360", "distance": 6609.750494881229}, {"id": "hUriO2DETBTHgGdPFQQrHg", "alias": "selfie-stanley-aurora", "name": "Selfie@Stanley", "image_url": "https://s3-media1.fl.yelpcdn.com/bphoto/esksdj6uQ21XacJRqbQQcw/o.jpg", "is_closed": false, "url": "https://www.yelp.com/biz/selfie-stanley-aurora?adjust_creative=OD45_sigUUSBobJ_eVs01w&utm_campaign=yelp_api_v3&utm_medium=api_v3_business_search&utm_source=OD45_sigUUSBobJ_eVs01w", "review_count": 1, "categories": [{"alias": "sessionphotography", "title": "Session Photography"}, {"alias": "museums", "title": "Museums"}], "rating": 5.0, "coordinates": {"latitude": 39.75305821051875, "longitude": -104.8773876}, "transactions": [], "location": {"address1": "2501 Dallas St", "address2": null, "address3": "", "city": "Aurora", "zip_code": "80010", "country": "US", "state": "CO", "display_address": ["2501 Dallas St", "Aurora, CO 80010"]}, "phone": "+19703316905", "display_phone": "(970) 331-6905", "distance": 8175.076340448451}, {"id": "w1uM0Up0iGyX0Lps_VqLUw", "alias": "cu-art-museum-boulder", "name": "CU Art Museum", "image_url": "https://s3-media2.fl.yelpcdn.com/bphoto/hcIIrnBU_YLwfO_5pvZ5zQ/o.jpg", "is_closed": false, "url": "https://www.yelp.com/biz/cu-art-museum-boulder?adjust_creative=OD45_sigUUSBobJ_eVs01w&utm_campaign=yelp_api_v3&utm_medium=api_v3_business_search&utm_source=OD45_sigUUSBobJ_eVs01w", "review_count": 10, "categories": [{"alias": "artmuseums", "title": "Art Museums"}], "rating": 4.0, "coordinates": {"latitude": 40.007251, "longitude": -105.269804}, "transactions": [], "location": {"address1": "1085 18th St", "address2": "", "address3": "", "city": "Boulder", "zip_code": "80309", "country": "US", "state": "CO", "display_address": ["1085 18th St", "Boulder, CO 80309"]}, "phone": "+13034928300", "display_phone": "(303) 492-8300", "distance": 39636.58004738878}, {"id": "MBW4gtykSR-lnEdev2H43w", "alias": "history-colorado-center-denver-2", "name": "History Colorado Center", "image_url": "https://s3-media2.fl.yelpcdn.com/bphoto/DO2I7AovBypPXitwpRFjfA/o.jpg", "is_closed": false, "url": "https://www.yelp.com/biz/history-colorado-center-denver-2?adjust_creative=OD45_sigUUSBobJ_eVs01w&utm_campaign=yelp_api_v3&utm_medium=api_v3_business_search&utm_source=OD45_sigUUSBobJ_eVs01w", "review_count": 154, "categories": [{"alias": "museums", "title": "Museums"}], "rating": 4.0, "coordinates": {"latitude": 39.73585492735678, "longitude": -104.98711384321327}, "transactions": [], "location": {"address1": "1200 Broadway", "address2": "", "address3": "", "city": "Denver", "zip_code": "80203", "country": "US", "state": "CO", "display_address": ["1200 Broadway", "Denver, CO 80203"]}, "phone": "+13034478679", "display_phone": "(303) 447-8679", "distance": 1442.8752439236425}, {"id": "iGR2YpMfqFtSKrAchXcl8Q", "alias": "wow-childrens-museum-lafayette", "name": "WOW! Children's Museum", "image_url": "https://s3-media3.fl.yelpcdn.com/bphoto/GAaxfOCljUeP6VjL3zeEUA/o.jpg", "is_closed": false, "url": "https://www.yelp.com/biz/wow-childrens-museum-lafayette?adjust_creative=OD45_sigUUSBobJ_eVs01w&utm_campaign=yelp_api_v3&utm_medium=api_v3_business_search&utm_source=OD45_sigUUSBobJ_eVs01w", "review_count": 44, "categories": [{"alias": "childrensmuseums", "title": "Children's Museums"}], "rating": 4.0, "coordinates": {"latitude": 39.99894, "longitude": -105.08899}, "transactions": [], "location": {"address1": "110 N Harrison Ave", "address2": "", "address3": "", "city": "Lafayette", "zip_code": "80026", "country": "US", "state": "CO", "display_address": ["110 N Harrison Ave", "Lafayette, CO 80026"]}, "phone": "+13036042424", "display_phone": "(303) 604-2424", "distance": 30994.25054459543}, {"id": "6kTNkT-fqTzmdnFMNOtQEg", "alias": "museum-of-boulder-boulder", "name": "Museum of Boulder", "image_url": "https://s3-media2.fl.yelpcdn.com/bphoto/_BlfcBbIrYRt-09L8KRznw/o.jpg", "is_closed": false, "url": "https://www.yelp.com/biz/museum-of-boulder-boulder?adjust_creative=OD45_sigUUSBobJ_eVs01w&utm_campaign=yelp_api_v3&utm_medium=api_v3_business_search&utm_source=OD45_sigUUSBobJ_eVs01w", "review_count": 10, "categories": [{"alias": "museums", "title": "Museums"}], "rating": 4.0, "coordinates": {"latitude": 40.02012, "longitude": -105.28115}, "transactions": [], "location": {"address1": "2205 Broadway", "address2": "", "address3": "", "city": "Boulder", "zip_code": "80302", "country": "US", "state": "CO", "display_address": ["2205 Broadway", "Boulder, CO 80302"]}, "phone": "+13034493464", "display_phone": "(303) 449-3464", "distance": 41295.33101583266}, {"id": "wT1JgF1ZUEsHfnV_JV8Qpw", "alias": "museo-de-las-americas-denver", "name": "Museo De Las Americas", "image_url": "https://s3-media4.fl.yelpcdn.com/bphoto/UtsBXCxYeAo6XViqvseCTA/o.jpg", "is_closed": false, "url": "https://www.yelp.com/biz/museo-de-las-americas-denver?adjust_creative=OD45_sigUUSBobJ_eVs01w&utm_campaign=yelp_api_v3&utm_medium=api_v3_business_search&utm_source=OD45_sigUUSBobJ_eVs01w", "review_count": 18, "categories": [{"alias": "museums", "title": "Museums"}], "rating": 4.0, "coordinates": {"latitude": 39.7300415039062, "longitude": -104.999053955078}, "transactions": [], "location": {"address1": "861 Santa Fe Dr", "address2": "", "address3": "", "city": "Denver", "zip_code": "80204", "country": "US", "state": "CO", "display_address": ["861 Santa Fe Dr", "Denver, CO 80204"]}, "phone": "+13035714401", "display_phone": "(303) 571-4401", "distance": 2532.44956448368}, {"id": "oiYPGEobUpdAgrjpYT2Sew", "alias": "heritage-lakewood-belmar-park-lakewood", "name": "Heritage Lakewood Belmar Park", "image_url": "https://s3-media4.fl.yelpcdn.com/bphoto/d7vc_1iUBoBC1Mq-QGdLJQ/o.jpg", "is_closed": false, "url": "https://www.yelp.com/biz/heritage-lakewood-belmar-park-lakewood?adjust_creative=OD45_sigUUSBobJ_eVs01w&utm_campaign=yelp_api_v3&utm_medium=api_v3_business_search&utm_source=OD45_sigUUSBobJ_eVs01w", "review_count": 8, "categories": [{"alias": "museums", "title": "Museums"}, {"alias": "venues", "title": "Venues & Event Spaces"}], "rating": 4.0, "coordinates": {"latitude": 39.703242, "longitude": -105.083733}, "transactions": [], "location": {"address1": "801 S Yarrow St", "address2": "", "address3": "", "city": "Lakewood", "zip_code": "80226", "country": "US", "state": "CO", "display_address": ["801 S Yarrow St", "Lakewood, CO 80226"]}, "phone": "+13039877850", "display_phone": "(303) 987-7850", "distance": 10348.989534358801}, {"id": "oOu78qNPZT8H1vKuzjTHLQ", "alias": "so-many-roads-museum-and-brewery-denver", "name": "So Many Roads Museum and Brewery", "image_url": "https://s3-media4.fl.yelpcdn.com/bphoto/2hAgdxeygWpJhKwsIbG38A/o.jpg", "is_closed": false, "url": "https://www.yelp.com/biz/so-many-roads-museum-and-brewery-denver?adjust_creative=OD45_sigUUSBobJ_eVs01w&utm_campaign=yelp_api_v3&utm_medium=api_v3_business_search&utm_source=OD45_sigUUSBobJ_eVs01w", "review_count": 15, "categories": [{"alias": "musicvenues", "title": "Music Venues"}, {"alias": "breweries", "title": "Breweries"}, {"alias": "museums", "title": "Museums"}], "rating": 4.0, "coordinates": {"latitude": 39.7176452, "longitude": -104.9992656}, "transactions": [], "location": {"address1": "918 W 1st Ave", "address2": "", "address3": null, "city": "Denver", "zip_code": "80223", "country": "US", "state": "CO", "display_address": ["918 W 1st Ave", "Denver, CO 80223"]}, "phone": "+17202773211", "display_phone": "(720) 277-3211", "distance": 3179.9023311489286}, {"id": "_sttCXFlfZOe3W1OLIxVoA", "alias": "earth-illuminated-denver", "name": "Earth Illuminated", "image_url": "https://s3-media4.fl.yelpcdn.com/bphoto/fMsvmav_luFd-2mNIAbuhw/o.jpg", "is_closed": false, "url": "https://www.yelp.com/biz/earth-illuminated-denver?adjust_creative=OD45_sigUUSBobJ_eVs01w&utm_campaign=yelp_api_v3&utm_medium=api_v3_business_search&utm_source=OD45_sigUUSBobJ_eVs01w", "review_count": 2, "categories": [{"alias": "artmuseums", "title": "Art Museums"}], "rating": 4.5, "coordinates": {"latitude": 39.74388, "longitude": -104.99082}, "transactions": [], "location": {"address1": "500 16th St Mall", "address2": null, "address3": "", "city": "Denver", "zip_code": "80202", "country": "US", "state": "CO", "display_address": ["500 16th St Mall", "Denver, CO 80202"]}, "phone": "+17208973855", "display_phone": "(720) 897-3855", "distance": 2013.9213500303706}, {"id": "BczcIIFJnOak5wr07I64nA", "alias": "astor-house-museum-golden", "name": "Astor House Museum", "image_url": "https://s3-media4.fl.yelpcdn.com/bphoto/_WpqEH-lxuhOun06ql5_PQ/o.jpg", "is_closed": false, "url": "https://www.yelp.com/biz/astor-house-museum-golden?adjust_creative=OD45_sigUUSBobJ_eVs01w&utm_campaign=yelp_api_v3&utm_medium=api_v3_business_search&utm_source=OD45_sigUUSBobJ_eVs01w", "review_count": 4, "categories": [{"alias": "museums", "title": "Museums"}], "rating": 4.0, "coordinates": {"latitude": 39.7550488963357, "longitude": -105.222372936023}, "transactions": [], "location": {"address1": "822 12th St", "address2": "", "address3": "", "city": "Golden", "zip_code": "80401", "country": "US", "state": "CO", "display_address": ["822 12th St", "Golden, CO 80401"]}, "phone": "+13032783557", "display_phone": "(303) 278-3557", "distance": 21665.21348357529}, {"id": "zrNMK2i6pwHeqp5Hngx4Eg", "alias": "colorado-railroad-museum-golden", "name": "Colorado Railroad Museum", "image_url": "https://s3-media2.fl.yelpcdn.com/bphoto/NkfD_QDiDSSQkUsahdWDDw/o.jpg", "is_closed": false, "url": "https://www.yelp.com/biz/colorado-railroad-museum-golden?adjust_creative=OD45_sigUUSBobJ_eVs01w&utm_campaign=yelp_api_v3&utm_medium=api_v3_business_search&utm_source=OD45_sigUUSBobJ_eVs01w", "review_count": 102, "categories": [{"alias": "bookstores", "title": "Bookstores"}, {"alias": "museums", "title": "Museums"}], "rating": 3.5, "coordinates": {"latitude": 39.771452, "longitude": -105.193389}, "transactions": [], "price": "$", "location": {"address1": "17155 W 44th Ave", "address2": "", "address3": "", "city": "Golden", "zip_code": "80403", "country": "US", "state": "CO", "display_address": ["17155 W 44th Ave", "Golden, CO 80403"]}, "phone": "+13032794591", "display_phone": "(303) 279-4591", "distance": 19489.687427401444}, {"id": "DOfOW45MuuX5LVsAXebRSQ", "alias": "camp-christmas-aurora", "name": "Camp Christmas", "image_url": "https://s3-media2.fl.yelpcdn.com/bphoto/Xq8S6D6mfGY0dIZQ2lnlmA/o.jpg", "is_closed": false, "url": "https://www.yelp.com/biz/camp-christmas-aurora?adjust_creative=OD45_sigUUSBobJ_eVs01w&utm_campaign=yelp_api_v3&utm_medium=api_v3_business_search&utm_source=OD45_sigUUSBobJ_eVs01w", "review_count": 27, "categories": [{"alias": "artmuseums", "title": "Art Museums"}], "rating": 3.5, "coordinates": {"latitude": 39.7532726060615, "longitude": -104.877027871922}, "transactions": [], "location": {"address1": "2501 Dallas St", "address2": "", "address3": null, "city": "Aurora", "zip_code": "80010", "country": "US", "state": "CO", "display_address": ["2501 Dallas St", "Aurora, CO 80010"]}, "phone": "", "display_phone": "", "distance": 8210.633755754765}, {"id": "GlI_cFeXKtsI6qqUJobOpg", "alias": "boulder-museum-of-contemporary-art-boulder", "name": "Boulder Museum of Contemporary Art", "image_url": "https://s3-media1.fl.yelpcdn.com/bphoto/eX7aSPvHcexqhzwxwHe_jw/o.jpg", "is_closed": false, "url": "https://www.yelp.com/biz/boulder-museum-of-contemporary-art-boulder?adjust_creative=OD45_sigUUSBobJ_eVs01w&utm_campaign=yelp_api_v3&utm_medium=api_v3_business_search&utm_source=OD45_sigUUSBobJ_eVs01w", "review_count": 25, "categories": [{"alias": "theater", "title": "Performing Arts"}, {"alias": "venues", "title": "Venues & Event Spaces"}, {"alias": "artmuseums", "title": "Art Museums"}], "rating": 3.5, "coordinates": {"latitude": 40.0151665725714, "longitude": -105.277316076583}, "transactions": [], "location": {"address1": "1750 13th St", "address2": "", "address3": "", "city": "Boulder", "zip_code": "80302", "country": "US", "state": "CO", "display_address": ["1750 13th St", "Boulder, CO 80302"]}, "phone": "+13034432122", "display_phone": "(303) 443-2122", "distance": 40663.632607376094}, {"id": "XUpN5vpUfSJPi8ijGNgNSA", "alias": "broomfield-veterans-museum-broomfield", "name": "Broomfield Veterans Museum", "image_url": "https://s3-media4.fl.yelpcdn.com/bphoto/qeDCuxT69VGNZefCzHvflg/o.jpg", "is_closed": false, "url": "https://www.yelp.com/biz/broomfield-veterans-museum-broomfield?adjust_creative=OD45_sigUUSBobJ_eVs01w&utm_campaign=yelp_api_v3&utm_medium=api_v3_business_search&utm_source=OD45_sigUUSBobJ_eVs01w", "review_count": 2, "categories": [{"alias": "museums", "title": "Museums"}], "rating": 4.0, "coordinates": {"latitude": 39.9231415, "longitude": -105.08564}, "transactions": [], "location": {"address1": "12 Garden Ctr", "address2": "", "address3": "", "city": "Broomfield", "zip_code": "80020", "country": "US", "state": "CO", "display_address": ["12 Garden Ctr", "Broomfield, CO 80020"]}, "phone": "+13034606801", "display_phone": "(303) 460-6801", "distance": 23071.79505779487}, {"id": "2cr9Rq39KiE_KA4YqpTk5g", "alias": "hiwan-homestead-museum-evergreen", "name": "Hiwan Homestead Museum", "image_url": "https://s3-media3.fl.yelpcdn.com/bphoto/Y_Jr0duNSr_cRd5upjPX_Q/o.jpg", "is_closed": false, "url": "https://www.yelp.com/biz/hiwan-homestead-museum-evergreen?adjust_creative=OD45_sigUUSBobJ_eVs01w&utm_campaign=yelp_api_v3&utm_medium=api_v3_business_search&utm_source=OD45_sigUUSBobJ_eVs01w", "review_count": 2, "categories": [{"alias": "museums", "title": "Museums"}], "rating": 4.0, "coordinates": {"latitude": 39.6387641, "longitude": -105.3234034}, "transactions": [], "location": {"address1": "4208 Timbervale Dr", "address2": "", "address3": "", "city": "Evergreen", "zip_code": "80439", "country": "US", "state": "CO", "display_address": ["4208 Timbervale Dr", "Evergreen, CO 80439"]}, "phone": "+17204977650", "display_phone": "(720) 497-7650", "distance": 32071.912874700934}, {"id": "PHU1wvYVGJBmuHZ-srmQpw", "alias": "clear-creek-history-park-golden", "name": "Clear Creek History Park", "image_url": "https://s3-media4.fl.yelpcdn.com/bphoto/u_o8ia25J-_JJAXOrVsF7g/o.jpg", "is_closed": false, "url": "https://www.yelp.com/biz/clear-creek-history-park-golden?adjust_creative=OD45_sigUUSBobJ_eVs01w&utm_campaign=yelp_api_v3&utm_medium=api_v3_business_search&utm_source=OD45_sigUUSBobJ_eVs01w", "review_count": 3, "categories": [{"alias": "museums", "title": "Museums"}], "rating": 3.5, "coordinates": {"latitude": 39.754709, "longitude": -105.225699}, "transactions": [], "location": {"address1": "1020 11th St", "address2": "", "address3": "", "city": "Golden", "zip_code": "80401", "country": "US", "state": "CO", "display_address": ["1020 11th St", "Golden, CO 80401"]}, "phone": "+13032783557", "display_phone": "(303) 278-3557", "distance": 21944.516337219906}, {"id": "i3w2z950AmxtymYJNURspQ", "alias": "downtown-aquarium-denver-2", "name": "Downtown Aquarium", "image_url": "https://s3-media4.fl.yelpcdn.com/bphoto/5KT3HLi5hDuv5lH8IaTSww/o.jpg", "is_closed": false, "url": "https://www.yelp.com/biz/downtown-aquarium-denver-2?adjust_creative=OD45_sigUUSBobJ_eVs01w&utm_campaign=yelp_api_v3&utm_medium=api_v3_business_search&utm_source=OD45_sigUUSBobJ_eVs01w", "review_count": 914, "categories": [{"alias": "museums", "title": "Museums"}, {"alias": "aquariums", "title": "Aquariums"}], "rating": 3.0, "coordinates": {"latitude": 39.7518486, "longitude": -105.0140113}, "transactions": ["pickup", "delivery"], "location": {"address1": "700 Water St", "address2": "", "address3": "", "city": "Denver", "zip_code": "80211", "country": "US", "state": "CO", "display_address": ["700 Water St", "Denver, CO 80211"]}, "phone": "+13035614450", "display_phone": "(303) 561-4450", "distance": 4158.97403895098}, {"id": "SCyZS250Hcmhw87nXJ6geg", "alias": "broomfield-depot-museum-broomfield", "name": "Broomfield Depot Museum", "image_url": "https://s3-media1.fl.yelpcdn.com/bphoto/nEBQYQJJjgVriS35LWpzbg/o.jpg", "is_closed": false, "url": "https://www.yelp.com/biz/broomfield-depot-museum-broomfield?adjust_creative=OD45_sigUUSBobJ_eVs01w&utm_campaign=yelp_api_v3&utm_medium=api_v3_business_search&utm_source=OD45_sigUUSBobJ_eVs01w", "review_count": 1, "categories": [{"alias": "museums", "title": "Museums"}], "rating": 4.0, "coordinates": {"latitude": 39.9308547973633, "longitude": -105.09294128418}, "transactions": [], "location": {"address1": "2201 W 10th Ave", "address2": "", "address3": "", "city": "Broomfield", "zip_code": "80020", "country": "US", "state": "CO", "display_address": ["2201 W 10th Ave", "Broomfield, CO 80020"]}, "phone": "+13034609014", "display_phone": "(303) 460-9014", "distance": 24092.801748668157}, {"id": "XqCyJYK5tt4FuBXJ1bUlxg", "alias": "immersive-van-gogh-exhibit-denver-denver", "name": "Immersive Van Gogh Exhibit Denver", "image_url": "https://s3-media2.fl.yelpcdn.com/bphoto/TCOH7Cy8NRXCKcFl3KXTWw/o.jpg", "is_closed": false, "url": "https://www.yelp.com/biz/immersive-van-gogh-exhibit-denver-denver?adjust_creative=OD45_sigUUSBobJ_eVs01w&utm_campaign=yelp_api_v3&utm_medium=api_v3_business_search&utm_source=OD45_sigUUSBobJ_eVs01w", "review_count": 69, "categories": [{"alias": "artmuseums", "title": "Art Museums"}, {"alias": "galleries", "title": "Art Galleries"}], "rating": 3.0, "coordinates": {"latitude": 39.77146, "longitude": -104.99228}, "transactions": [], "location": {"address1": "3900 Elati St", "address2": "", "address3": null, "city": "Denver", "zip_code": "80216", "country": "US", "state": "CO", "display_address": ["3900 Elati St", "Denver, CO 80216"]}, "phone": "", "display_phone": "", "distance": 4408.136877057301}, {"id": "4wXpq2_cRnT-XAmW7Cps4A", "alias": "wings-over-the-rockies-exploration-of-flight-englewood-2", "name": "Wings Over The Rockies Exploration Of Flight", "image_url": "https://s3-media3.fl.yelpcdn.com/bphoto/rFDVpEyMXn7LvOU9OfPH-Q/o.jpg", "is_closed": false, "url": "https://www.yelp.com/biz/wings-over-the-rockies-exploration-of-flight-englewood-2?adjust_creative=OD45_sigUUSBobJ_eVs01w&utm_campaign=yelp_api_v3&utm_medium=api_v3_business_search&utm_source=OD45_sigUUSBobJ_eVs01w", "review_count": 8, "categories": [{"alias": "museums", "title": "Museums"}, {"alias": "venues", "title": "Venues & Event Spaces"}], "rating": 3.0, "coordinates": {"latitude": 39.5677864822237, "longitude": -104.837405746696}, "transactions": [], "location": {"address1": "13005 Wings Way", "address2": "", "address3": null, "city": "Englewood", "zip_code": "80112", "country": "US", "state": "CO", "display_address": ["13005 Wings Way", "Englewood, CO 80112"]}, "phone": "+13033605360", "display_phone": "(303) 360-5360", "distance": 21845.399146534888}]}