{"businesses": [{"id": "i3utuWDbliMnZ00ObjiSGA", "alias": "barrels-and-bottles-brewery-at-camp-george-west-golden", "name": "Barrels & Bottles Brewery at Camp George West", "image_url": "https://s3-media3.fl.yelpcdn.com/bphoto/Jk7y0STiFM2TYnqSLYLCDw/o.jpg", "is_closed": false, "url": "https://www.yelp.com/biz/barrels-and-bottles-brewery-at-camp-george-west-golden?adjust_creative=OD45_sigUUSBobJ_eVs01w&utm_campaign=yelp_api_v3&utm_medium=api_v3_business_search&utm_source=OD45_sigUUSBobJ_eVs01w", "review_count": 14, "categories": [{"alias": "wine_bars", "title": "Wine Bars"}, {"alias": "brewpubs", "title": "Brewpubs"}], "rating": 5.0, "coordinates": {"latitude": 39.73470783, "longitude": -105.18000833}, "transactions": [], "location": {"address1": "1055 Orchard St", "address2": null, "address3": "", "city": "Golden", "zip_code": "80401", "country": "US", "state": "CO", "display_address": ["1055 Orchard St", "Golden, CO 80401"]}, "phone": "+13033539832", "display_phone": "(303) 353-9832", "distance": 17938.468127671455}, {"id": "TRzMYmhWTB9CfAuYrjHLVg", "alias": "6-and-40-brewery-lakewood", "name": "6 and 40 Brewery", "image_url": "https://s3-media1.fl.yelpcdn.com/bphoto/32D9RG5-NeNGL8cABslXxg/o.jpg", "is_closed": false, "url": "https://www.yelp.com/biz/6-and-40-brewery-lakewood?adjust_creative=OD45_sigUUSBobJ_eVs01w&utm_campaign=yelp_api_v3&utm_medium=api_v3_business_search&utm_source=OD45_sigUUSBobJ_eVs01w", "review_count": 9, "categories": [{"alias": "brewpubs", "title": "Brewpubs"}], "rating": 5.0, "coordinates": {"latitude": 39.73057776894488, "longitude": -105.1219424391852}, "transactions": [], "location": {"address1": "883 Parfet St", "address2": "Unit J", "address3": null, "city": "Lakewood", "zip_code": "80215", "country": "US", "state": "CO", "display_address": ["883 Parfet St", "Unit J", "Lakewood, CO 80215"]}, "phone": "+13032383272", "display_phone": "(303) 238-3272", "distance": 12983.611570172485}, {"id": "TPxvztA3p_ZQOxV50bMQnw", "alias": "alpine-dog-brewing-company-denver-3", "name": "Alpine Dog Brewing Company", "image_url": "https://s3-media1.fl.yelpcdn.com/bphoto/m4XXsqqooKcRrYqiLaAijQ/o.jpg", "is_closed": false, "url": "https://www.yelp.com/biz/alpine-dog-brewing-company-denver-3?adjust_creative=OD45_sigUUSBobJ_eVs01w&utm_campaign=yelp_api_v3&utm_medium=api_v3_business_search&utm_source=OD45_sigUUSBobJ_eVs01w", "review_count": 8, "categories": [{"alias": "breweries", "title": "Breweries"}], "rating": 5.0, "coordinates": {"latitude": 39.743055, "longitude": -104.970526}, "transactions": [], "location": {"address1": "1308 E 17th Ave", "address2": null, "address3": "", "city": "Denver", "zip_code": "80218", "country": "US", "state": "CO", "display_address": ["1308 E 17th Ave", "Denver, CO 80218"]}, "phone": "+17202429862", "display_phone": "(720) 242-9862", "distance": 840.7447653746417}, {"id": "fP-SLQxZa8dV6Vs_AmgOug", "alias": "jade-mountain-brewing-company-aurora", "name": "Jade Mountain Brewing Company", "image_url": "https://s3-media3.fl.yelpcdn.com/bphoto/QZm5VQ29MOk6h8wjtO4vxQ/o.jpg", "is_closed": false, "url": "https://www.yelp.com/biz/jade-mountain-brewing-company-aurora?adjust_creative=OD45_sigUUSBobJ_eVs01w&utm_campaign=yelp_api_v3&utm_medium=api_v3_business_search&utm_source=OD45_sigUUSBobJ_eVs01w", "review_count": 48, "categories": [{"alias": "breweries", "title": "Breweries"}, {"alias": "tea", "title": "Tea Rooms"}], "rating": 5.0, "coordinates": {"latitude": 39.640271, "longitude": -104.793037}, "transactions": [], "location": {"address1": "4233 S Buckley Rd", "address2": null, "address3": "", "city": "Aurora", "zip_code": "80013", "country": "US", "state": "CO", "display_address": ["4233 S Buckley Rd", "Aurora, CO 80013"]}, "phone": "+17202893612", "display_phone": "(720) 289-3612", "distance": 18496.5335778009}, {"id": "zer-0JgqiMp07DBcY2G39w", "alias": "brewability-and-pizzability-englewood", "name": "Brewability & Pizzability ", "image_url": "https://s3-media2.fl.yelpcdn.com/bphoto/NNNBwoVbyhS2ngJWZothMA/o.jpg", "is_closed": false, "url": "https://www.yelp.com/biz/brewability-and-pizzability-englewood?adjust_creative=OD45_sigUUSBobJ_eVs01w&utm_campaign=yelp_api_v3&utm_medium=api_v3_business_search&utm_source=OD45_sigUUSBobJ_eVs01w", "review_count": 99, "categories": [{"alias": "breweries", "title": "Breweries"}, {"alias": "specialed", "title": "Special Education"}, {"alias": "pizza", "title": "Pizza"}], "rating": 5.0, "coordinates": {"latitude": 39.654158, "longitude": -104.987951}, "transactions": ["pickup", "delivery"], "price": "$", "location": {"address1": "3445 S Broadway", "address2": "", "address3": null, "city": "Englewood", "zip_code": "80113", "country": "US", "state": "CO", "display_address": ["3445 S Broadway", "Englewood, CO 80113"]}, "phone": "+13035980809", "display_phone": "(303) 598-0809", "distance": 9173.447528631901}, {"id": "frbKoW8oTqqftDRqmdss1w", "alias": "holidaily-brewing-company-greenwood-village", "name": "Holidaily Brewing Company", "image_url": "https://s3-media2.fl.yelpcdn.com/bphoto/ScUSP7NVCI4MmRkopmFEzA/o.jpg", "is_closed": false, "url": "https://www.yelp.com/biz/holidaily-brewing-company-greenwood-village?adjust_creative=OD45_sigUUSBobJ_eVs01w&utm_campaign=yelp_api_v3&utm_medium=api_v3_business_search&utm_source=OD45_sigUUSBobJ_eVs01w", "review_count": 13, "categories": [{"alias": "breweries", "title": "Breweries"}, {"alias": "beerbar", "title": "Beer Bar"}], "rating": 5.0, "coordinates": {"latitude": 39.61925, "longitude": -104.90066}, "transactions": [], "location": {"address1": "5370 Greenwood Plaza Blvd", "address2": "Ste 107", "address3": "", "city": "Greenwood Village", "zip_code": "80111", "country": "US", "state": "CO", "display_address": ["5370 Greenwood Plaza Blvd", "Ste 107", "Greenwood Village, CO 80111"]}, "phone": "+17203356507", "display_phone": "(720) 335-6507", "distance": 14252.812036594145}, {"id": "jP32hGzaCi__x2HPRu8H7g", "alias": "the-brew-hut-aurora-2", "name": "The Brew Hut", "image_url": "https://s3-media2.fl.yelpcdn.com/bphoto/FMd2VZGvPGut5lpSEMgnzw/o.jpg", "is_closed": false, "url": "https://www.yelp.com/biz/the-brew-hut-aurora-2?adjust_creative=OD45_sigUUSBobJ_eVs01w&utm_campaign=yelp_api_v3&utm_medium=api_v3_business_search&utm_source=OD45_sigUUSBobJ_eVs01w", "review_count": 121, "categories": [{"alias": "brewingsupplies", "title": "Brewing Supplies"}, {"alias": "brewpubs", "title": "Brewpubs"}], "rating": 5.0, "coordinates": {"latitude": 39.65267, "longitude": -104.812142}, "transactions": [], "price": "$$", "location": {"address1": "15120 E Hampden Ave", "address2": "", "address3": "", "city": "Aurora", "zip_code": "80014", "country": "US", "state": "CO", "display_address": ["15120 E Hampden Ave", "Aurora, CO 80014"]}, "phone": "+13036808898", "display_phone": "(303) 680-8898", "distance": 16366.71256942296}, {"id": "0-MqY9sbiQFguqx-97E7Kg", "alias": "mile-high-tap-tours-englewood", "name": "Mile High Tap Tours", "image_url": "https://s3-media1.fl.yelpcdn.com/bphoto/dOHBpHG7dzT-5Au19-MY0g/o.jpg", "is_closed": false, "url": "https://www.yelp.com/biz/mile-high-tap-tours-englewood?adjust_creative=OD45_sigUUSBobJ_eVs01w&utm_campaign=yelp_api_v3&utm_medium=api_v3_business_search&utm_source=OD45_sigUUSBobJ_eVs01w", "review_count": 5, "categories": [{"alias": "breweries", "title": "Breweries"}, {"alias": "winetours", "title": "Wine Tours"}], "rating": 5.0, "coordinates": {"latitude": 39.654156, "longitude": -104.988047}, "transactions": [], "location": {"address1": "3445 S Bdwy", "address2": null, "address3": "", "city": "Englewood", "zip_code": "80113", "country": "US", "state": "CO", "display_address": ["3445 S Bdwy", "Englewood, CO 80113"]}, "phone": "+17203188727", "display_phone": "(720) 318-8727", "distance": 9179.292111146397}, {"id": "Durz0pvT-0bwhDAo1rOeKw", "alias": "reverence-brewing-company-denver-2", "name": "Reverence Brewing Company", "image_url": "https://s3-media3.fl.yelpcdn.com/bphoto/TRxd_MmsZpRkHe7NKhc4GA/o.jpg", "is_closed": false, "url": "https://www.yelp.com/biz/reverence-brewing-company-denver-2?adjust_creative=OD45_sigUUSBobJ_eVs01w&utm_campaign=yelp_api_v3&utm_medium=api_v3_business_search&utm_source=OD45_sigUUSBobJ_eVs01w", "review_count": 22, "categories": [{"alias": "breweries", "title": "Breweries"}], "rating": 5.0, "coordinates": {"latitude": 39.74314719928984, "longitude": -104.9681378863346}, "transactions": [], "location": {"address1": "1604 E 17th Ave", "address2": "", "address3": null, "city": "Denver", "zip_code": "80218", "country": "US", "state": "CO", "display_address": ["1604 E 17th Ave", "Denver, CO 80218"]}, "phone": "", "display_phone": "", "distance": 866.5790302068701}, {"id": "5tA4eOibTnEULzozi_iujw", "alias": "boombox-brew-bar-no-title", "name": "Boombox Brew Bar", "image_url": "https://s3-media1.fl.yelpcdn.com/bphoto/FH_09bIBplRLbNtexkEKLA/o.jpg", "is_closed": false, "url": "https://www.yelp.com/biz/boombox-brew-bar-no-title?adjust_creative=OD45_sigUUSBobJ_eVs01w&utm_campaign=yelp_api_v3&utm_medium=api_v3_business_search&utm_source=OD45_sigUUSBobJ_eVs01w", "review_count": 21, "categories": [{"alias": "brewpubs", "title": "Brewpubs"}], "rating": 5.0, "coordinates": {"latitude": 39.80025, "longitude": -105.00598}, "transactions": [], "price": "$$", "location": {"address1": "5686 N Pecos St", "address2": null, "address3": "", "city": "Denver", "zip_code": "80221", "country": "US", "state": "CO", "display_address": ["5686 N Pecos St", "Denver, CO 80221"]}, "phone": "+13038625387", "display_phone": "(303) 862-5387", "distance": 7821.190925115293}, {"id": "etewEqkUCLlUznW_NP7k_A", "alias": "launch-pad-brewery-aurora", "name": "Launch Pad Brewery", "image_url": "https://s3-media1.fl.yelpcdn.com/bphoto/2_q2Sqt4rKezqYlL2hbRug/o.jpg", "is_closed": false, "url": "https://www.yelp.com/biz/launch-pad-brewery-aurora?adjust_creative=OD45_sigUUSBobJ_eVs01w&utm_campaign=yelp_api_v3&utm_medium=api_v3_business_search&utm_source=OD45_sigUUSBobJ_eVs01w", "review_count": 165, "categories": [{"alias": "breweries", "title": "Breweries"}], "rating": 5.0, "coordinates": {"latitude": 39.70073, "longitude": -104.78983}, "transactions": [], "price": "$$", "location": {"address1": "884 S Buckley Rd", "address2": "", "address3": "", "city": "Aurora", "zip_code": "80017", "country": "US", "state": "CO", "display_address": ["884 S Buckley Rd", "Aurora, CO 80017"]}, "phone": "+13037454599", "display_phone": "(303) 745-4599", "distance": 15899.748235114786}, {"id": "pnOTUgMS25But3Bjh3ssfA", "alias": "cohesion-brewing-company-denver", "name": "Cohesion Brewing Company", "image_url": "https://s3-media3.fl.yelpcdn.com/bphoto/HNAQkeoApS0AD0v0aVa6ww/o.jpg", "is_closed": false, "url": "https://www.yelp.com/biz/cohesion-brewing-company-denver?adjust_creative=OD45_sigUUSBobJ_eVs01w&utm_campaign=yelp_api_v3&utm_medium=api_v3_business_search&utm_source=OD45_sigUUSBobJ_eVs01w", "review_count": 24, "categories": [{"alias": "breweries", "title": "Breweries"}], "rating": 5.0, "coordinates": {"latitude": 39.76969, "longitude": -104.95752}, "transactions": [], "location": {"address1": "3851 Steele St", "address2": "Unit 1388", "address3": null, "city": "Denver", "zip_code": "80205", "country": "US", "state": "CO", "display_address": ["3851 Steele St", "Unit 1388", "Denver, CO 80205"]}, "phone": "+13039977016", "display_phone": "(303) 997-7016", "distance": 3954.0259582000854}, {"id": "kpIdpW3jKUoKPNvKOU151g", "alias": "cerveceria-colorado-denver", "name": "Cerveceria Colorado", "image_url": "https://s3-media1.fl.yelpcdn.com/bphoto/7eHxykFaTVRiApvYn82FwQ/o.jpg", "is_closed": false, "url": "https://www.yelp.com/biz/cerveceria-colorado-denver?adjust_creative=OD45_sigUUSBobJ_eVs01w&utm_campaign=yelp_api_v3&utm_medium=api_v3_business_search&utm_source=OD45_sigUUSBobJ_eVs01w", "review_count": 83, "categories": [{"alias": "breweries", "title": "Breweries"}, {"alias": "beerbar", "title": "Beer Bar"}], "rating": 4.5, "coordinates": {"latitude": 39.75802, "longitude": -105.00748}, "transactions": [], "location": {"address1": "1635 Platte St", "address2": null, "address3": "", "city": "Denver", "zip_code": "80202", "country": "US", "state": "CO", "display_address": ["1635 Platte St", "Denver, CO 80202"]}, "phone": "+17202798248", "display_phone": "(720) 279-8248", "distance": 4054.6457049246806}, {"id": "wzJU7lF6lXUE7ZPEB4c8IA", "alias": "lady-justice-brewing-aurora-2", "name": "Lady Justice Brewing", "image_url": "https://s3-media4.fl.yelpcdn.com/bphoto/_K2u7juA4VcXU6CUsf89Ew/o.jpg", "is_closed": false, "url": "https://www.yelp.com/biz/lady-justice-brewing-aurora-2?adjust_creative=OD45_sigUUSBobJ_eVs01w&utm_campaign=yelp_api_v3&utm_medium=api_v3_business_search&utm_source=OD45_sigUUSBobJ_eVs01w", "review_count": 24, "categories": [{"alias": "breweries", "title": "Breweries"}], "rating": 4.5, "coordinates": {"latitude": 39.7404187, "longitude": -104.8746394}, "transactions": [], "location": {"address1": "9735 E Colfax Ave", "address2": "", "address3": null, "city": "Aurora", "zip_code": "80010", "country": "US", "state": "CO", "display_address": ["9735 E Colfax Ave", "Aurora, CO 80010"]}, "phone": "+13038563809", "display_phone": "(303) 856-3809", "distance": 8192.992801632066}, {"id": "9jlTFXa3Pcr14BneTHCtyw", "alias": "colorado-sake-denver-5", "name": "Colorado Sake", "image_url": "https://s3-media3.fl.yelpcdn.com/bphoto/2KloncDfMfBzmwuBrOwxvA/o.jpg", "is_closed": false, "url": "https://www.yelp.com/biz/colorado-sake-denver-5?adjust_creative=OD45_sigUUSBobJ_eVs01w&utm_campaign=yelp_api_v3&utm_medium=api_v3_business_search&utm_source=OD45_sigUUSBobJ_eVs01w", "review_count": 197, "categories": [{"alias": "breweries", "title": "Breweries"}], "rating": 4.5, "coordinates": {"latitude": 39.7676181, "longitude": -104.9739106}, "transactions": ["pickup", "delivery"], "price": "$$", "location": {"address1": "3559 Larimer St", "address2": null, "address3": "", "city": "Denver", "zip_code": "80205", "country": "US", "state": "CO", "display_address": ["3559 Larimer St", "Denver, CO 80205"]}, "phone": "+17204496963", "display_phone": "(720) 449-6963", "distance": 3613.434128548426}, {"id": "Oi93n-GTVKE1nLe8j6_mJg", "alias": "the-empourium-brewing-company-denver", "name": "The Empourium Brewing Company", "image_url": "https://s3-media3.fl.yelpcdn.com/bphoto/DefzOk_dXpy43S5ZjSSUyQ/o.jpg", "is_closed": false, "url": "https://www.yelp.com/biz/the-empourium-brewing-company-denver?adjust_creative=OD45_sigUUSBobJ_eVs01w&utm_campaign=yelp_api_v3&utm_medium=api_v3_business_search&utm_source=OD45_sigUUSBobJ_eVs01w", "review_count": 47, "categories": [{"alias": "brewpubs", "title": "Brewpubs"}], "rating": 4.5, "coordinates": {"latitude": 39.773876, "longitude": -105.0438248}, "transactions": [], "price": "$$", "location": {"address1": "4385 W 42nd Ave", "address2": "", "address3": null, "city": "Denver", "zip_code": "80212", "country": "US", "state": "CO", "display_address": ["4385 W 42nd Ave", "Denver, CO 80212"]}, "phone": "+17203612973", "display_phone": "(720) 361-2973", "distance": 7599.328827442535}, {"id": "85bAYo8DlQzSTIg5EMEddw", "alias": "peak-view-brewing-greenwood-village", "name": "Peak View Brewing", "image_url": "https://s3-media1.fl.yelpcdn.com/bphoto/9UPgHvtqkJq92BtYRrERzw/o.jpg", "is_closed": false, "url": "https://www.yelp.com/biz/peak-view-brewing-greenwood-village?adjust_creative=OD45_sigUUSBobJ_eVs01w&utm_campaign=yelp_api_v3&utm_medium=api_v3_business_search&utm_source=OD45_sigUUSBobJ_eVs01w", "review_count": 103, "categories": [{"alias": "breweries", "title": "Breweries"}, {"alias": "beerbar", "title": "Beer Bar"}], "rating": 4.5, "coordinates": {"latitude": 39.59443, "longitude": -104.87683}, "transactions": ["delivery"], "price": "$$", "location": {"address1": "9672 E Arapahoe Rd", "address2": "", "address3": null, "city": "Greenwood Village", "zip_code": "80112", "country": "US", "state": "CO", "display_address": ["9672 E Arapahoe Rd", "Greenwood Village, CO 80112"]}, "phone": "+13033534309", "display_phone": "(303) 353-4309", "distance": 17578.160113804206}, {"id": "9spYSJq96luJao66h54ExA", "alias": "altimeter-coffee-co-denver", "name": "Altimeter Coffee Co.", "image_url": "https://s3-media4.fl.yelpcdn.com/bphoto/TtI5hhOJ5tmqrLHdomGkkA/o.jpg", "is_closed": false, "url": "https://www.yelp.com/biz/altimeter-coffee-co-denver?adjust_creative=OD45_sigUUSBobJ_eVs01w&utm_campaign=yelp_api_v3&utm_medium=api_v3_business_search&utm_source=OD45_sigUUSBobJ_eVs01w", "review_count": 44, "categories": [{"alias": "coffee", "title": "Coffee & Tea"}, {"alias": "brewpubs", "title": "Brewpubs"}, {"alias": "bagels", "title": "Bagels"}], "rating": 4.5, "coordinates": {"latitude": 39.76962, "longitude": -105.044861}, "transactions": [], "location": {"address1": "4499 W 38th Ave", "address2": "Ste 101", "address3": null, "city": "Denver", "zip_code": "80212", "country": "US", "state": "CO", "display_address": ["4499 W 38th Ave", "Ste 101", "Denver, CO 80212"]}, "phone": "+17206880044", "display_phone": "(720) 688-0044", "distance": 7419.939215508824}, {"id": "ZMurwSQSfrXq_uRq1-vA9w", "alias": "satire-brewing-company-thornton", "name": "Satire Brewing Company", "image_url": "https://s3-media2.fl.yelpcdn.com/bphoto/_DxN7r3NzA0PQYYWPtpa7A/o.jpg", "is_closed": false, "url": "https://www.yelp.com/biz/satire-brewing-company-thornton?adjust_creative=OD45_sigUUSBobJ_eVs01w&utm_campaign=yelp_api_v3&utm_medium=api_v3_business_search&utm_source=OD45_sigUUSBobJ_eVs01w", "review_count": 88, "categories": [{"alias": "brewpubs", "title": "Brewpubs"}, {"alias": "beergardens", "title": "Beer Gardens"}], "rating": 4.5, "coordinates": {"latitude": 39.91715, "longitude": -104.98314}, "transactions": ["delivery"], "price": "$$", "location": {"address1": "12136 Grant Cir", "address2": "", "address3": null, "city": "Thornton", "zip_code": "80241", "country": "US", "state": "CO", "display_address": ["12136 Grant Cir", "Thornton, CO 80241"]}, "phone": "+17202750667", "display_phone": "(720) 275-0667", "distance": 20222.13883773232}, {"id": "6ZZzpD0_KGmT7biI352lIA", "alias": "public-offering-brewing-company-denver", "name": "Public Offering Brewing Company", "image_url": "https://s3-media1.fl.yelpcdn.com/bphoto/3G3iv9xmqlJnS6hFLSDtzA/o.jpg", "is_closed": false, "url": "https://www.yelp.com/biz/public-offering-brewing-company-denver?adjust_creative=OD45_sigUUSBobJ_eVs01w&utm_campaign=yelp_api_v3&utm_medium=api_v3_business_search&utm_source=OD45_sigUUSBobJ_eVs01w", "review_count": 12, "categories": [{"alias": "breweries", "title": "Breweries"}], "rating": 4.5, "coordinates": {"latitude": 39.6850295, "longitude": -104.987349}, "transactions": [], "location": {"address1": "1736 S Broadway", "address2": "", "address3": null, "city": "Denver", "zip_code": "80210", "country": "US", "state": "CO", "display_address": ["1736 S Broadway", "Denver, CO 80210"]}, "phone": "+17203989522", "display_phone": "(720) 398-9522", "distance": 5799.666499529942}, {"id": "KCYk6YrQKzJIJQMHsx5JYw", "alias": "bent-barley-brewing-company-aurora", "name": "Bent Barley Brewing Company", "image_url": "https://s3-media4.fl.yelpcdn.com/bphoto/fd3poIDJ_O_4x9Hy-NbRZQ/o.jpg", "is_closed": false, "url": "https://www.yelp.com/biz/bent-barley-brewing-company-aurora?adjust_creative=OD45_sigUUSBobJ_eVs01w&utm_campaign=yelp_api_v3&utm_medium=api_v3_business_search&utm_source=OD45_sigUUSBobJ_eVs01w", "review_count": 48, "categories": [{"alias": "brewpubs", "title": "Brewpubs"}, {"alias": "beerbar", "title": "Beer Bar"}], "rating": 4.5, "coordinates": {"latitude": 39.604406, "longitude": -104.708197}, "transactions": ["delivery"], "location": {"address1": "6200 South Main St", "address2": "Ste J-110", "address3": "", "city": "Aurora", "zip_code": "80016", "country": "US", "state": "CO", "display_address": ["6200 South Main St", "Ste J-110", "Aurora, CO 80016"]}, "phone": "+13036275799", "display_phone": "(303) 627-5799", "distance": 26751.043853809097}, {"id": "bdaoytWs95J_kqIwHnvNhw", "alias": "a-bit-twisted-brewpub-and-bbq-aurora", "name": "A Bit Twisted Brewpub & BBQ", "image_url": "https://s3-media3.fl.yelpcdn.com/bphoto/LGa5zXMLfK3fA6Uh0ZDg2w/o.jpg", "is_closed": false, "url": "https://www.yelp.com/biz/a-bit-twisted-brewpub-and-bbq-aurora?adjust_creative=OD45_sigUUSBobJ_eVs01w&utm_campaign=yelp_api_v3&utm_medium=api_v3_business_search&utm_source=OD45_sigUUSBobJ_eVs01w", "review_count": 52, "categories": [{"alias": "brewpubs", "title": "Brewpubs"}, {"alias": "bbq", "title": "Barbeque"}, {"alias": "sportsbars", "title": "Sports Bars"}], "rating": 4.5, "coordinates": {"latitude": 39.66075, "longitude": -104.84791}, "transactions": [], "price": "$$", "location": {"address1": "3095 South Peoria St", "address2": "Unit 8", "address3": "", "city": "Aurora", "zip_code": "80014", "country": "US", "state": "CO", "display_address": ["3095 South Peoria St", "Unit 8", "Aurora, CO 80014"]}, "phone": "+17203504905", "display_phone": "(720) 350-4905", "distance": 13345.778918657577}, {"id": "Z5KUWgfuuiQI3dRrdsagYA", "alias": "danico-brewing-company-denver-2", "name": "Danico Brewing Company", "image_url": "https://s3-media4.fl.yelpcdn.com/bphoto/FJrfeqbDAi41X3i5EUr_Kg/o.jpg", "is_closed": false, "url": "https://www.yelp.com/biz/danico-brewing-company-denver-2?adjust_creative=OD45_sigUUSBobJ_eVs01w&utm_campaign=yelp_api_v3&utm_medium=api_v3_business_search&utm_source=OD45_sigUUSBobJ_eVs01w", "review_count": 22, "categories": [{"alias": "breweries", "title": "Breweries"}], "rating": 4.5, "coordinates": {"latitude": 39.81614539556143, "longitude": -104.772688}, "transactions": [], "location": {"address1": "18490 E 66th Ave", "address2": "", "address3": null, "city": "Denver", "zip_code": "80249", "country": "US", "state": "CO", "display_address": ["18490 E 66th Ave", "Denver, CO 80249"]}, "phone": "+13035312739", "display_phone": "(303) 531-2739", "distance": 19115.525681464747}, {"id": "e-iHfrp40Rvn4bP5JsgM4g", "alias": "woods-boss-brewing-company-denver", "name": "Woods Boss Brewing Company", "image_url": "https://s3-media3.fl.yelpcdn.com/bphoto/EpB20YV_9l_ezRVjRHIPDQ/o.jpg", "is_closed": false, "url": "https://www.yelp.com/biz/woods-boss-brewing-company-denver?adjust_creative=OD45_sigUUSBobJ_eVs01w&utm_campaign=yelp_api_v3&utm_medium=api_v3_business_search&utm_source=OD45_sigUUSBobJ_eVs01w", "review_count": 177, "categories": [{"alias": "breweries", "title": "Breweries"}, {"alias": "beerbar", "title": "Beer Bar"}], "rating": 4.5, "coordinates": {"latitude": 39.75094, "longitude": -104.98454}, "transactions": [], "price": "$$", "location": {"address1": "2210 California St", "address2": null, "address3": "", "city": "Denver", "zip_code": "80205", "country": "US", "state": "CO", "display_address": ["2210 California St", "Denver, CO 80205"]}, "phone": "+17206427177", "display_phone": "(720) 642-7177", "distance": 2084.419094307419}, {"id": "gurJ0AXpBgTJ3Z84FBubDg", "alias": "105-west-brewing-company-castle-rock", "name": "105 West Brewing Company", "image_url": "https://s3-media2.fl.yelpcdn.com/bphoto/HiCczKsDWdC1n7MrHiH8Kg/o.jpg", "is_closed": false, "url": "https://www.yelp.com/biz/105-west-brewing-company-castle-rock?adjust_creative=OD45_sigUUSBobJ_eVs01w&utm_campaign=yelp_api_v3&utm_medium=api_v3_business_search&utm_source=OD45_sigUUSBobJ_eVs01w", "review_count": 164, "categories": [{"alias": "breweries", "title": "Breweries"}], "rating": 4.5, "coordinates": {"latitude": 39.380957, "longitude": -104.867618}, "transactions": [], "price": "$$", "location": {"address1": "1043 Park St", "address2": "", "address3": "", "city": "Castle Rock", "zip_code": "80109", "country": "US", "state": "CO", "display_address": ["1043 Park St", "Castle Rock, CO 80109"]}, "phone": "+13033257321", "display_phone": "(303) 325-7321", "distance": 40395.76642759293}, {"id": "hiqEWdO8q0crXCIJWZHlOw", "alias": "altitude-brewing-and-supply-denver-6", "name": "Altitude Brewing & Supply", "image_url": "https://s3-media4.fl.yelpcdn.com/bphoto/MwgrRyFs-edb7gNn4M3j7g/o.jpg", "is_closed": false, "url": "https://www.yelp.com/biz/altitude-brewing-and-supply-denver-6?adjust_creative=OD45_sigUUSBobJ_eVs01w&utm_campaign=yelp_api_v3&utm_medium=api_v3_business_search&utm_source=OD45_sigUUSBobJ_eVs01w", "review_count": 16, "categories": [{"alias": "brewingsupplies", "title": "Brewing Supplies"}, {"alias": "breweries", "title": "Breweries"}], "rating": 4.5, "coordinates": {"latitude": 39.77966432185841, "longitude": -105.006752}, "transactions": [], "price": "$$", "location": {"address1": "4577 N Pecos St", "address2": null, "address3": "", "city": "Denver", "zip_code": "80211", "country": "US", "state": "CO", "display_address": ["4577 N Pecos St", "Denver, CO 80211"]}, "phone": "+13032922739", "display_phone": "(303) 292-2739", "distance": 5816.220172568381}, {"id": "Dm-N5RJWaVZ2UlZzLefYXw", "alias": "goldspot-brewing-denver", "name": "Goldspot Brewing", "image_url": "https://s3-media3.fl.yelpcdn.com/bphoto/LFc996CeS0RXFnOh-igpag/o.jpg", "is_closed": false, "url": "https://www.yelp.com/biz/goldspot-brewing-denver?adjust_creative=OD45_sigUUSBobJ_eVs01w&utm_campaign=yelp_api_v3&utm_medium=api_v3_business_search&utm_source=OD45_sigUUSBobJ_eVs01w", "review_count": 74, "categories": [{"alias": "breweries", "title": "Breweries"}], "rating": 4.5, "coordinates": {"latitude": 39.786869, "longitude": -105.034225}, "transactions": [], "price": "$$", "location": {"address1": "4970 Lowell Blvd", "address2": "", "address3": "", "city": "Denver", "zip_code": "80221", "country": "US", "state": "CO", "display_address": ["4970 Lowell Blvd", "Denver, CO 80221"]}, "phone": "+13039555657", "display_phone": "(303) 955-5657", "distance": 7914.733726132157}, {"id": "6D80u-nziOANvO1KI_O_xg", "alias": "dos-luces-brewery-denver", "name": "Dos Luces Brewery", "image_url": "https://s3-media3.fl.yelpcdn.com/bphoto/JAjaf6fKNCLqZRImij_veA/o.jpg", "is_closed": false, "url": "https://www.yelp.com/biz/dos-luces-brewery-denver?adjust_creative=OD45_sigUUSBobJ_eVs01w&utm_campaign=yelp_api_v3&utm_medium=api_v3_business_search&utm_source=OD45_sigUUSBobJ_eVs01w", "review_count": 69, "categories": [{"alias": "breweries", "title": "Breweries"}], "rating": 4.5, "coordinates": {"latitude": 39.69404, "longitude": -104.98706}, "transactions": [], "price": "$$", "location": {"address1": "1236 S Broadway", "address2": "", "address3": null, "city": "Denver", "zip_code": "80210", "country": "US", "state": "CO", "display_address": ["1236 S Broadway", "Denver, CO 80210"]}, "phone": "+17203797763", "display_phone": "(720) 379-7763", "distance": 4830.018055525129}, {"id": "ljUUALr2IGIaGhPTMCy8SQ", "alias": "old-121-brewhouse-lakewood-2", "name": "Old 121 Brewhouse", "image_url": "https://s3-media4.fl.yelpcdn.com/bphoto/2RdwzSdS2j7Rr3xbNE_Qnw/o.jpg", "is_closed": false, "url": "https://www.yelp.com/biz/old-121-brewhouse-lakewood-2?adjust_creative=OD45_sigUUSBobJ_eVs01w&utm_campaign=yelp_api_v3&utm_medium=api_v3_business_search&utm_source=OD45_sigUUSBobJ_eVs01w", "review_count": 21, "categories": [{"alias": "breweries", "title": "Breweries"}], "rating": 4.5, "coordinates": {"latitude": 39.698134, "longitude": -105.082397}, "transactions": [], "location": {"address1": "1057 S Wadsworth Blvd", "address2": "Ste 60", "address3": "", "city": "Lakewood", "zip_code": "80226", "country": "US", "state": "CO", "display_address": ["1057 S Wadsworth Blvd", "Ste 60", "Lakewood, CO 80226"]}, "phone": "+13039860311", "display_phone": "(303) 986-0311", "distance": 10454.83009100911}, {"id": "l7HwBvSRqwnTBnDYXQ2Img", "alias": "something-brewery-brighton", "name": "Something Brewery", "image_url": "https://s3-media1.fl.yelpcdn.com/bphoto/KF9JtcXHbRFHn0lEpRrzFw/o.jpg", "is_closed": false, "url": "https://www.yelp.com/biz/something-brewery-brighton?adjust_creative=OD45_sigUUSBobJ_eVs01w&utm_campaign=yelp_api_v3&utm_medium=api_v3_business_search&utm_source=OD45_sigUUSBobJ_eVs01w", "review_count": 91, "categories": [{"alias": "breweries", "title": "Breweries"}], "rating": 4.5, "coordinates": {"latitude": 39.9883409, "longitude": -104.8214146}, "transactions": ["delivery"], "price": "$", "location": {"address1": "117 N Main St", "address2": "Unit A", "address3": "", "city": "Brighton", "zip_code": "80601", "country": "US", "state": "CO", "display_address": ["117 N Main St", "Unit A", "Brighton, CO 80601"]}, "phone": "+17203983998", "display_phone": "(720) 398-3998", "distance": 30848.74438680973}, {"id": "lSVfRuuzyKFNNlGLd1PIrA", "alias": "flyteco-brewing-denver-2", "name": "FlyteCo Brewing", "image_url": "https://s3-media4.fl.yelpcdn.com/bphoto/9fTtvo9pySnz5TL2Z5-wcQ/o.jpg", "is_closed": false, "url": "https://www.yelp.com/biz/flyteco-brewing-denver-2?adjust_creative=OD45_sigUUSBobJ_eVs01w&utm_campaign=yelp_api_v3&utm_medium=api_v3_business_search&utm_source=OD45_sigUUSBobJ_eVs01w", "review_count": 98, "categories": [{"alias": "breweries", "title": "Breweries"}, {"alias": "beerbar", "title": "Beer Bar"}, {"alias": "beergardens", "title": "Beer Gardens"}], "rating": 4.5, "coordinates": {"latitude": 39.7695249, "longitude": -105.0449898}, "transactions": ["delivery"], "price": "$", "location": {"address1": "4499 W 38th Ave", "address2": "Ste 101", "address3": null, "city": "Denver", "zip_code": "80212", "country": "US", "state": "CO", "display_address": ["4499 W 38th Ave", "Ste 101", "Denver, CO 80212"]}, "phone": "+17207727319", "display_phone": "(720) 772-7319", "distance": 7419.939215508824}, {"id": "R0mEfSdg2UHASQFB2xJAXQ", "alias": "spangalang-brewery-denver-2", "name": "Spangalang Brewery", "image_url": "https://s3-media4.fl.yelpcdn.com/bphoto/z5uWVmQSp39t0CO-gW_DHg/o.jpg", "is_closed": false, "url": "https://www.yelp.com/biz/spangalang-brewery-denver-2?adjust_creative=OD45_sigUUSBobJ_eVs01w&utm_campaign=yelp_api_v3&utm_medium=api_v3_business_search&utm_source=OD45_sigUUSBobJ_eVs01w", "review_count": 155, "categories": [{"alias": "breweries", "title": "Breweries"}], "rating": 4.5, "coordinates": {"latitude": 39.755069732666, "longitude": -104.977111816406}, "transactions": [], "price": "$", "location": {"address1": "2736 Welton Ave", "address2": "", "address3": "", "city": "Denver", "zip_code": "80205", "country": "US", "state": "CO", "display_address": ["2736 Welton Ave", "Denver, CO 80205"]}, "phone": "+13032971276", "display_phone": "(303) 297-1276", "distance": 2258.720428255566}, {"id": "DsDCIyFLy02RUSiM4x9jrg", "alias": "raices-brewing-company-denver", "name": "Raices Brewing Company", "image_url": "https://s3-media1.fl.yelpcdn.com/bphoto/CJImUTZjkRm6Mv1pHyID4Q/o.jpg", "is_closed": false, "url": "https://www.yelp.com/biz/raices-brewing-company-denver?adjust_creative=OD45_sigUUSBobJ_eVs01w&utm_campaign=yelp_api_v3&utm_medium=api_v3_business_search&utm_source=OD45_sigUUSBobJ_eVs01w", "review_count": 83, "categories": [{"alias": "breweries", "title": "Breweries"}], "rating": 4.5, "coordinates": {"latitude": 39.73877839, "longitude": -105.01733544}, "transactions": ["pickup", "delivery"], "price": "$$", "location": {"address1": "2060 W Colfax Ave", "address2": "", "address3": null, "city": "Denver", "zip_code": "80204", "country": "US", "state": "CO", "display_address": ["2060 W Colfax Ave", "Denver, CO 80204"]}, "phone": "+17203248550", "display_phone": "(720) 324-8550", "distance": 4042.7649453750346}, {"id": "n6DRKS10rktplnR69bej0A", "alias": "new-terrain-brewing-golden-2", "name": "New Terrain Brewing", "image_url": "https://s3-media2.fl.yelpcdn.com/bphoto/TjPi8Ynaj3P4UsP4U6yI_g/o.jpg", "is_closed": false, "url": "https://www.yelp.com/biz/new-terrain-brewing-golden-2?adjust_creative=OD45_sigUUSBobJ_eVs01w&utm_campaign=yelp_api_v3&utm_medium=api_v3_business_search&utm_source=OD45_sigUUSBobJ_eVs01w", "review_count": 370, "categories": [{"alias": "breweries", "title": "Breweries"}], "rating": 4.5, "coordinates": {"latitude": 39.77961690935539, "longitude": -105.18593189863294}, "transactions": [], "price": "$$", "location": {"address1": "16401 Table Mountain Pkwy", "address2": "", "address3": null, "city": "Golden", "zip_code": "80403", "country": "US", "state": "CO", "display_address": ["16401 Table Mountain Pkwy", "Golden, CO 80403"]}, "phone": "+17206977848", "display_phone": "(720) 697-7848", "distance": 19078.029811393717}, {"id": "K_dcF9vmz5qnlxc2hOHvog", "alias": "holidaily-brewing-golden-2", "name": "Holidaily Brewing", "image_url": "https://s3-media1.fl.yelpcdn.com/bphoto/XeU4-G4IVX2YSmWcS7sewA/o.jpg", "is_closed": false, "url": "https://www.yelp.com/biz/holidaily-brewing-golden-2?adjust_creative=OD45_sigUUSBobJ_eVs01w&utm_campaign=yelp_api_v3&utm_medium=api_v3_business_search&utm_source=OD45_sigUUSBobJ_eVs01w", "review_count": 133, "categories": [{"alias": "breweries", "title": "Breweries"}], "rating": 4.5, "coordinates": {"latitude": 39.78005, "longitude": -105.2331}, "transactions": [], "price": "$$", "location": {"address1": "801 Brickyard Cir", "address2": "Unit B", "address3": "", "city": "Golden", "zip_code": "80403", "country": "US", "state": "CO", "display_address": ["801 Brickyard Cir", "Unit B", "Golden, CO 80403"]}, "phone": "+13032782337", "display_phone": "(303) 278-2337", "distance": 23011.584049781475}, {"id": "V2prnyb54ugztJnVaIRIRQ", "alias": "seedstock-brewery-denver", "name": "Seedstock Brewery", "image_url": "https://s3-media3.fl.yelpcdn.com/bphoto/z9iyQkMwcwbOkjV-DZChEw/o.jpg", "is_closed": false, "url": "https://www.yelp.com/biz/seedstock-brewery-denver?adjust_creative=OD45_sigUUSBobJ_eVs01w&utm_campaign=yelp_api_v3&utm_medium=api_v3_business_search&utm_source=OD45_sigUUSBobJ_eVs01w", "review_count": 82, "categories": [{"alias": "breweries", "title": "Breweries"}, {"alias": "beerbar", "title": "Beer Bar"}], "rating": 4.5, "coordinates": {"latitude": 39.7400817871094, "longitude": -105.035110473633}, "transactions": [], "price": "$", "location": {"address1": "3610 W Colfax Ave", "address2": null, "address3": "", "city": "Denver", "zip_code": "80204", "country": "US", "state": "CO", "display_address": ["3610 W Colfax Ave", "Denver, CO 80204"]}, "phone": "+17204767831", "display_phone": "(720) 476-7831", "distance": 5569.540280208798}, {"id": "LR5Hbb0kn_pInuTMsMws5A", "alias": "mockery-brewing-denver", "name": "Mockery Brewing", "image_url": "https://s3-media4.fl.yelpcdn.com/bphoto/UVxpXp_jiQ9f7SOMAmZ3lA/o.jpg", "is_closed": false, "url": "https://www.yelp.com/biz/mockery-brewing-denver?adjust_creative=OD45_sigUUSBobJ_eVs01w&utm_campaign=yelp_api_v3&utm_medium=api_v3_business_search&utm_source=OD45_sigUUSBobJ_eVs01w", "review_count": 216, "categories": [{"alias": "breweries", "title": "Breweries"}], "rating": 4.5, "coordinates": {"latitude": 39.771191, "longitude": -104.979773}, "transactions": [], "price": "$", "location": {"address1": "3501 Delgany St", "address2": "", "address3": "", "city": "Denver", "zip_code": "80216", "country": "US", "state": "CO", "display_address": ["3501 Delgany St", "Denver, CO 80216"]}, "phone": "+13039532058", "display_phone": "(303) 953-2058", "distance": 4048.7335909921603}, {"id": "bdzW0Ctra4fxaQz9gYcIbg", "alias": "six-capital-brewing-and-bbq-aurora", "name": "Six Capital Brewing & BBQ", "image_url": "https://s3-media4.fl.yelpcdn.com/bphoto/Daobc8KszAnxiaNcgTj_aQ/o.jpg", "is_closed": false, "url": "https://www.yelp.com/biz/six-capital-brewing-and-bbq-aurora?adjust_creative=OD45_sigUUSBobJ_eVs01w&utm_campaign=yelp_api_v3&utm_medium=api_v3_business_search&utm_source=OD45_sigUUSBobJ_eVs01w", "review_count": 75, "categories": [{"alias": "bbq", "title": "Barbeque"}, {"alias": "breweries", "title": "Breweries"}], "rating": 4.5, "coordinates": {"latitude": 39.67427961479788, "longitude": -104.7937856067469}, "transactions": [], "price": "$$", "location": {"address1": "16701 E Iliff Ave", "address2": "Ste B", "address3": null, "city": "Aurora", "zip_code": "80013", "country": "US", "state": "CO", "display_address": ["16701 E Iliff Ave", "Ste B", "Aurora, CO 80013"]}, "phone": "+17205986816", "display_phone": "(720) 598-6816", "distance": 16560.649377022863}, {"id": "eg7Vph1NuTzgKhwOn3ad9Q", "alias": "iron-mule-brewery-castle-rock", "name": "Iron Mule Brewery", "image_url": "https://s3-media2.fl.yelpcdn.com/bphoto/wE2NMN8ecDKxGv7iAxEpSA/o.jpg", "is_closed": false, "url": "https://www.yelp.com/biz/iron-mule-brewery-castle-rock?adjust_creative=OD45_sigUUSBobJ_eVs01w&utm_campaign=yelp_api_v3&utm_medium=api_v3_business_search&utm_source=OD45_sigUUSBobJ_eVs01w", "review_count": 43, "categories": [{"alias": "breweries", "title": "Breweries"}, {"alias": "foodtrucks", "title": "Food Trucks"}], "rating": 4.5, "coordinates": {"latitude": 39.374965510741625, "longitude": -104.8583896674873}, "transactions": [], "price": "$", "location": {"address1": "514 N Perry St", "address2": "C106", "address3": null, "city": "Castle Rock", "zip_code": "80104", "country": "US", "state": "CO", "display_address": ["514 N Perry St", "C106", "Castle Rock, CO 80104"]}, "phone": "+17203289008", "display_phone": "(720) 328-9008", "distance": 41223.16610880701}, {"id": "Rqt8hZ-7SkOyiNEBJtwFGg", "alias": "rails-end-beer-company-broomfield-2", "name": "Rails End Beer Company", "image_url": "https://s3-media4.fl.yelpcdn.com/bphoto/N4hQgozcb1WTswI5zZkjHQ/o.jpg", "is_closed": false, "url": "https://www.yelp.com/biz/rails-end-beer-company-broomfield-2?adjust_creative=OD45_sigUUSBobJ_eVs01w&utm_campaign=yelp_api_v3&utm_medium=api_v3_business_search&utm_source=OD45_sigUUSBobJ_eVs01w", "review_count": 140, "categories": [{"alias": "breweries", "title": "Breweries"}], "rating": 4.5, "coordinates": {"latitude": 39.9083270409931, "longitude": -105.07525666667}, "transactions": [], "price": "$$", "location": {"address1": "11625 Reed Ct", "address2": "Unit B", "address3": null, "city": "Broomfield", "zip_code": "80020", "country": "US", "state": "CO", "display_address": ["11625 Reed Ct", "Unit B", "Broomfield, CO 80020"]}, "phone": "+13033538121", "display_phone": "(303) 353-8121", "distance": 21204.608184981582}, {"id": "d-3XiaSGa59pFM0t23b6Dg", "alias": "second-dawn-brewing-aurora", "name": "Second Dawn Brewing", "image_url": "https://s3-media3.fl.yelpcdn.com/bphoto/O8MzfHGAUM6J0j1CFToD1g/o.jpg", "is_closed": false, "url": "https://www.yelp.com/biz/second-dawn-brewing-aurora?adjust_creative=OD45_sigUUSBobJ_eVs01w&utm_campaign=yelp_api_v3&utm_medium=api_v3_business_search&utm_source=OD45_sigUUSBobJ_eVs01w", "review_count": 6, "categories": [{"alias": "breweries", "title": "Breweries"}], "rating": 4.5, "coordinates": {"latitude": 39.751476594224435, "longitude": -104.8749688}, "transactions": [], "location": {"address1": "2302 Dayton St", "address2": "", "address3": null, "city": "Aurora", "zip_code": "80010", "country": "US", "state": "CO", "display_address": ["2302 Dayton St", "Aurora, CO 80010"]}, "phone": "", "display_phone": "", "distance": 8336.966844964672}, {"id": "fC3XcLuMTWzgj7RO-KWbxQ", "alias": "comet-brews-littleton", "name": "Comet Brews", "image_url": "https://s3-media3.fl.yelpcdn.com/bphoto/aFrzLssdmPJsUEFQYP4VKQ/o.jpg", "is_closed": false, "url": "https://www.yelp.com/biz/comet-brews-littleton?adjust_creative=OD45_sigUUSBobJ_eVs01w&utm_campaign=yelp_api_v3&utm_medium=api_v3_business_search&utm_source=OD45_sigUUSBobJ_eVs01w", "review_count": 14, "categories": [{"alias": "beerbar", "title": "Beer Bar"}, {"alias": "brewpubs", "title": "Brewpubs"}], "rating": 4.5, "coordinates": {"latitude": 39.61447103578241, "longitude": -105.0148286966184}, "transactions": [], "location": {"address1": "5642 S Sycamore St", "address2": "", "address3": null, "city": "Littleton", "zip_code": "80120", "country": "US", "state": "CO", "display_address": ["5642 S Sycamore St", "Littleton, CO 80120"]}, "phone": "+13039548714", "display_phone": "(303) 954-8714", "distance": 13990.841580399358}, {"id": "lHPyFTcvSnyz5c7XKEYf-g", "alias": "odell-brewing-co-five-points-brewhouse-denver", "name": "Odell Brewing Co - Five Points Brewhouse", "image_url": "https://s3-media2.fl.yelpcdn.com/bphoto/_s8XAX3jNBy9NgkDkeODSw/o.jpg", "is_closed": false, "url": "https://www.yelp.com/biz/odell-brewing-co-five-points-brewhouse-denver?adjust_creative=OD45_sigUUSBobJ_eVs01w&utm_campaign=yelp_api_v3&utm_medium=api_v3_business_search&utm_source=OD45_sigUUSBobJ_eVs01w", "review_count": 116, "categories": [{"alias": "breweries", "title": "Breweries"}], "rating": 4.5, "coordinates": {"latitude": 39.76214601919595, "longitude": -104.98091354227502}, "transactions": [], "price": "$$", "location": {"address1": "2945 Larimer St", "address2": "", "address3": null, "city": "Denver", "zip_code": "80205", "country": "US", "state": "CO", "display_address": ["2945 Larimer St", "Denver, CO 80205"]}, "phone": "+17207957862", "display_phone": "(720) 795-7862", "distance": 3097.5248813799517}, {"id": "FJo2jznp56MU_IdDcX038A", "alias": "avery-brewing-boulder-2", "name": "Avery Brewing", "image_url": "https://s3-media3.fl.yelpcdn.com/bphoto/SiHSdJimtyM3R2xsNIKKeA/o.jpg", "is_closed": false, "url": "https://www.yelp.com/biz/avery-brewing-boulder-2?adjust_creative=OD45_sigUUSBobJ_eVs01w&utm_campaign=yelp_api_v3&utm_medium=api_v3_business_search&utm_source=OD45_sigUUSBobJ_eVs01w", "review_count": 1111, "categories": [{"alias": "breweries", "title": "Breweries"}, {"alias": "bbq", "title": "Barbeque"}, {"alias": "tradamerican", "title": "American (Traditional)"}], "rating": 4.5, "coordinates": {"latitude": 40.062575, "longitude": -105.204776}, "transactions": ["delivery"], "price": "$$", "location": {"address1": "4910 Nautilus Ct N", "address2": "", "address3": "", "city": "Boulder", "zip_code": "80301", "country": "US", "state": "CO", "display_address": ["4910 Nautilus Ct N", "Boulder, CO 80301"]}, "phone": "+13034404324", "display_phone": "(303) 440-4324", "distance": 41507.19934118001}, {"id": "PqxZYyaNT_AQH_ozsCeriw", "alias": "cheluna-brewing-co-aurora", "name": "Cheluna Brewing Co.", "image_url": "https://s3-media1.fl.yelpcdn.com/bphoto/w_y257LuRdih5vxX4ifg9w/o.jpg", "is_closed": false, "url": "https://www.yelp.com/biz/cheluna-brewing-co-aurora?adjust_creative=OD45_sigUUSBobJ_eVs01w&utm_campaign=yelp_api_v3&utm_medium=api_v3_business_search&utm_source=OD45_sigUUSBobJ_eVs01w", "review_count": 140, "categories": [{"alias": "breweries", "title": "Breweries"}, {"alias": "beerbar", "title": "Beer Bar"}], "rating": 4.5, "coordinates": {"latitude": 39.75223, "longitude": -104.87738}, "transactions": [], "price": "$$", "location": {"address1": "2501 Dallas St", "address2": "", "address3": null, "city": "Aurora", "zip_code": "80010", "country": "US", "state": "CO", "display_address": ["2501 Dallas St", "Aurora, CO 80010"]}, "phone": "+17206000020", "display_phone": "(720) 600-0020", "distance": 8174.803567980656}, {"id": "FHQa15bXraU1R4BFBwrLxw", "alias": "congress-park-taproom-denver", "name": "Congress Park Taproom", "image_url": "https://s3-media4.fl.yelpcdn.com/bphoto/CZQSDL6BWYQoVP1zRor_4A/o.jpg", "is_closed": false, "url": "https://www.yelp.com/biz/congress-park-taproom-denver?adjust_creative=OD45_sigUUSBobJ_eVs01w&utm_campaign=yelp_api_v3&utm_medium=api_v3_business_search&utm_source=OD45_sigUUSBobJ_eVs01w", "review_count": 63, "categories": [{"alias": "pubs", "title": "Pubs"}, {"alias": "sportsbars", "title": "Sports Bars"}, {"alias": "brewpubs", "title": "Brewpubs"}], "rating": 4.5, "coordinates": {"latitude": 39.72984, "longitude": -104.94107}, "transactions": [], "price": "$", "location": {"address1": "833 Colorado Blvd", "address2": null, "address3": "", "city": "Denver", "zip_code": "80206", "country": "US", "state": "CO", "display_address": ["833 Colorado Blvd", "Denver, CO 80206"]}, "phone": "+13039977469", "display_phone": "(303) 997-7469", "distance": 2572.381595974517}, {"id": "Wt1aHYnMzmcA2ZZ0nmr7pA", "alias": "barrels-and-bottles-brewery-golden", "name": "Barrels & Bottles Brewery", "image_url": "https://s3-media3.fl.yelpcdn.com/bphoto/vddsndJ7_In9p5naFOYhZA/o.jpg", "is_closed": false, "url": "https://www.yelp.com/biz/barrels-and-bottles-brewery-golden?adjust_creative=OD45_sigUUSBobJ_eVs01w&utm_campaign=yelp_api_v3&utm_medium=api_v3_business_search&utm_source=OD45_sigUUSBobJ_eVs01w", "review_count": 202, "categories": [{"alias": "breweries", "title": "Breweries"}], "rating": 4.5, "coordinates": {"latitude": 39.756512, "longitude": -105.219641}, "transactions": ["delivery"], "price": "$$", "location": {"address1": "600 12th St", "address2": "Ste 180", "address3": "", "city": "Golden", "zip_code": "80401", "country": "US", "state": "CO", "display_address": ["600 12th St", "Ste 180", "Golden, CO 80401"]}, "phone": "+17203283643", "display_phone": "(720) 328-3643", "distance": 21449.694910237493}, {"id": "Wbt5xgDa080HMkiAuxJxDA", "alias": "beyond-the-mountain-brewing-boulder", "name": "Beyond the Mountain Brewing", "image_url": "https://s3-media3.fl.yelpcdn.com/bphoto/j2ADjpK-rVfCj9bg4UYL8w/o.jpg", "is_closed": false, "url": "https://www.yelp.com/biz/beyond-the-mountain-brewing-boulder?adjust_creative=OD45_sigUUSBobJ_eVs01w&utm_campaign=yelp_api_v3&utm_medium=api_v3_business_search&utm_source=OD45_sigUUSBobJ_eVs01w", "review_count": 28, "categories": [{"alias": "breweries", "title": "Breweries"}], "rating": 4.5, "coordinates": {"latitude": 40.064636, "longitude": -105.214652}, "transactions": [], "price": "$$", "location": {"address1": "6035 Longbow Dr", "address2": "Unit 9", "address3": "", "city": "Boulder", "zip_code": "80301", "country": "US", "state": "CO", "display_address": ["6035 Longbow Dr", "Unit 9", "Boulder, CO 80301"]}, "phone": "+13035306981", "display_phone": "(303) 530-6981", "distance": 42117.81320229449}, {"id": "vlgVt0V7w-GQq4jvdxeh3w", "alias": "new-image-brewing-wheat-ridge-wheat-ridge", "name": "New Image Brewing - Wheat Ridge", "image_url": "https://s3-media1.fl.yelpcdn.com/bphoto/Kg0rMGCmMj6ZVVHeGrWKjA/o.jpg", "is_closed": false, "url": "https://www.yelp.com/biz/new-image-brewing-wheat-ridge-wheat-ridge?adjust_creative=OD45_sigUUSBobJ_eVs01w&utm_campaign=yelp_api_v3&utm_medium=api_v3_business_search&utm_source=OD45_sigUUSBobJ_eVs01w", "review_count": 13, "categories": [{"alias": "breweries", "title": "Breweries"}, {"alias": "beerbar", "title": "Beer Bar"}], "rating": 4.5, "coordinates": {"latitude": 39.77878, "longitude": -105.10405}, "transactions": [], "price": "$$", "location": {"address1": "9505 W 44th Ave", "address2": "", "address3": null, "city": "Wheat Ridge", "zip_code": "80033", "country": "US", "state": "CO", "display_address": ["9505 W 44th Ave", "Wheat Ridge, CO 80033"]}, "phone": "+17209005622", "display_phone": "(720) 900-5622", "distance": 12414.474742154534}, {"id": "aAovS15pYL41z_Wvd7WcSg", "alias": "mestizo-brew-cantina-wheat-ridge", "name": "Mestizo Brew Cantina", "image_url": "https://s3-media4.fl.yelpcdn.com/bphoto/kYgYro0sLypHuh5nkfU3qw/o.jpg", "is_closed": false, "url": "https://www.yelp.com/biz/mestizo-brew-cantina-wheat-ridge?adjust_creative=OD45_sigUUSBobJ_eVs01w&utm_campaign=yelp_api_v3&utm_medium=api_v3_business_search&utm_source=OD45_sigUUSBobJ_eVs01w", "review_count": 13, "categories": [{"alias": "breweries", "title": "Breweries"}, {"alias": "latin", "title": "Latin American"}, {"alias": "tacos", "title": "Tacos"}], "rating": 4.5, "coordinates": {"latitude": 39.769144, "longitude": -105.072461}, "transactions": [], "location": {"address1": "6800 W 38th Ave", "address2": "", "address3": null, "city": "Wheat Ridge", "zip_code": "80033", "country": "US", "state": "CO", "display_address": ["6800 W 38th Ave", "Wheat Ridge, CO 80033"]}, "phone": "", "display_phone": "", "distance": 9503.775412440064}, {"id": "ofPa6i98oFCiq0zoWj1cvw", "alias": "black-shirt-brewing-denver-5", "name": "Black Shirt Brewing", "image_url": "https://s3-media3.fl.yelpcdn.com/bphoto/meal5lcj8rU6eOKsmLbLeQ/o.jpg", "is_closed": false, "url": "https://www.yelp.com/biz/black-shirt-brewing-denver-5?adjust_creative=OD45_sigUUSBobJ_eVs01w&utm_campaign=yelp_api_v3&utm_medium=api_v3_business_search&utm_source=OD45_sigUUSBobJ_eVs01w", "review_count": 411, "categories": [{"alias": "breweries", "title": "Breweries"}, {"alias": "pizza", "title": "Pizza"}, {"alias": "musicvenues", "title": "Music Venues"}], "rating": 4.5, "coordinates": {"latitude": 39.7697672895761, "longitude": -104.972935177909}, "transactions": ["pickup", "delivery"], "price": "$$", "location": {"address1": "3719 Walnut St", "address2": "", "address3": "", "city": "Denver", "zip_code": "80205", "country": "US", "state": "CO", "display_address": ["3719 Walnut St", "Denver, CO 80205"]}, "phone": "+13039932799", "display_phone": "(303) 993-2799", "distance": 3814.589261976626}, {"id": "rMlOdpnkC6Nzuv0RD2FSMA", "alias": "wits-end-brewing-company-denver", "name": "Wit's End Brewing Company", "image_url": "https://s3-media3.fl.yelpcdn.com/bphoto/cbb0abECsp-Nj89uunLpvw/o.jpg", "is_closed": false, "url": "https://www.yelp.com/biz/wits-end-brewing-company-denver?adjust_creative=OD45_sigUUSBobJ_eVs01w&utm_campaign=yelp_api_v3&utm_medium=api_v3_business_search&utm_source=OD45_sigUUSBobJ_eVs01w", "review_count": 100, "categories": [{"alias": "breweries", "title": "Breweries"}], "rating": 4.5, "coordinates": {"latitude": 39.73725, "longitude": -105.01524}, "transactions": [], "price": "$", "location": {"address1": "1330 Zuni St", "address2": "Unit N", "address3": "Strange Craft Beer Company", "city": "Denver", "zip_code": "80204", "country": "US", "state": "CO", "display_address": ["1330 Zuni St", "Unit N", "Strange Craft Beer Company", "Denver, CO 80204"]}, "phone": "+13034594379", "display_phone": "(303) 459-4379", "distance": 3888.7260914504227}, {"id": "5OJUDmiDdIdO5YZx4HrU4A", "alias": "little-machine-beer-denver", "name": "Little Machine Beer", "image_url": "https://s3-media2.fl.yelpcdn.com/bphoto/62S65jT_NEuXwJe6HxpCzw/o.jpg", "is_closed": false, "url": "https://www.yelp.com/biz/little-machine-beer-denver?adjust_creative=OD45_sigUUSBobJ_eVs01w&utm_campaign=yelp_api_v3&utm_medium=api_v3_business_search&utm_source=OD45_sigUUSBobJ_eVs01w", "review_count": 171, "categories": [{"alias": "breweries", "title": "Breweries"}, {"alias": "beerbar", "title": "Beer Bar"}], "rating": 4.5, "coordinates": {"latitude": 39.74731, "longitude": -105.02434}, "transactions": ["delivery"], "price": "$$", "location": {"address1": "2924 W 20th Ave", "address2": "", "address3": "", "city": "Denver", "zip_code": "80211", "country": "US", "state": "CO", "display_address": ["2924 W 20th Ave", "Denver, CO 80211"]}, "phone": "+13032847893", "display_phone": "(303) 284-7893", "distance": 4810.615994290707}, {"id": "RCJkyQtxTayW1RP8avMXZQ", "alias": "someplace-else-brewery-arvada-2", "name": "Someplace Else Brewery", "image_url": "https://s3-media1.fl.yelpcdn.com/bphoto/jDYTW2DVRxG4Y04UUam0Vw/o.jpg", "is_closed": false, "url": "https://www.yelp.com/biz/someplace-else-brewery-arvada-2?adjust_creative=OD45_sigUUSBobJ_eVs01w&utm_campaign=yelp_api_v3&utm_medium=api_v3_business_search&utm_source=OD45_sigUUSBobJ_eVs01w", "review_count": 87, "categories": [{"alias": "arcades", "title": "Arcades"}, {"alias": "breweries", "title": "Breweries"}, {"alias": "beerbar", "title": "Beer Bar"}], "rating": 4.5, "coordinates": {"latitude": 39.7917514, "longitude": -105.06766}, "transactions": [], "price": "$", "location": {"address1": "6425 W 52nd Ave", "address2": "Unit 6", "address3": "Unit 6/6B", "city": "Arvada", "zip_code": "80002", "country": "US", "state": "CO", "display_address": ["6425 W 52nd Ave", "Unit 6", "Unit 6/6B", "Arvada, CO 80002"]}, "phone": "+17205124162", "display_phone": "(720) 512-4162", "distance": 10412.460800456542}, {"id": "95mcjmP0UFPDAH9ghNh1gw", "alias": "berkeley-alley-beer-denver", "name": "Berkeley Alley Beer", "image_url": "https://s3-media3.fl.yelpcdn.com/bphoto/HPoofypvzrc2dd6O16xizQ/o.jpg", "is_closed": false, "url": "https://www.yelp.com/biz/berkeley-alley-beer-denver?adjust_creative=OD45_sigUUSBobJ_eVs01w&utm_campaign=yelp_api_v3&utm_medium=api_v3_business_search&utm_source=OD45_sigUUSBobJ_eVs01w", "review_count": 138, "categories": [{"alias": "breweries", "title": "Breweries"}], "rating": 4.5, "coordinates": {"latitude": 39.77606072717789, "longitude": -105.0435080394685}, "transactions": [], "price": "$$", "location": {"address1": "4342 Tennyson St", "address2": "", "address3": "", "city": "Denver", "zip_code": "80212", "country": "US", "state": "CO", "display_address": ["4342 Tennyson St", "Denver, CO 80212"]}, "phone": "+13034849698", "display_phone": "(303) 484-9698", "distance": 7716.192073489996}, {"id": "SFlAWPKHOJEsTttBLUj8Hw", "alias": "mountain-sun-pub-and-brewery-boulder", "name": "Mountain Sun Pub & Brewery", "image_url": "https://s3-media4.fl.yelpcdn.com/bphoto/ddMGP_RpJYhKje5qZ8qugQ/o.jpg", "is_closed": false, "url": "https://www.yelp.com/biz/mountain-sun-pub-and-brewery-boulder?adjust_creative=OD45_sigUUSBobJ_eVs01w&utm_campaign=yelp_api_v3&utm_medium=api_v3_business_search&utm_source=OD45_sigUUSBobJ_eVs01w", "review_count": 1657, "categories": [{"alias": "pubs", "title": "Pubs"}, {"alias": "burgers", "title": "Burgers"}, {"alias": "breweries", "title": "Breweries"}], "rating": 4.5, "coordinates": {"latitude": 40.01916, "longitude": -105.2753}, "transactions": ["delivery"], "price": "$$", "location": {"address1": "1535 Pearl St", "address2": "", "address3": "", "city": "Boulder", "zip_code": "80302", "country": "US", "state": "CO", "display_address": ["1535 Pearl St", "Boulder, CO 80302"]}, "phone": "+13035460886", "display_phone": "(303) 546-0886", "distance": 40876.56768588146}, {"id": "E5BKNu4gcqNADTFkQc7vMQ", "alias": "copper-kettle-brewing-denver", "name": "Copper Kettle Brewing", "image_url": "https://s3-media2.fl.yelpcdn.com/bphoto/48w4DghZWHTz47nfiU02Ow/o.jpg", "is_closed": false, "url": "https://www.yelp.com/biz/copper-kettle-brewing-denver?adjust_creative=OD45_sigUUSBobJ_eVs01w&utm_campaign=yelp_api_v3&utm_medium=api_v3_business_search&utm_source=OD45_sigUUSBobJ_eVs01w", "review_count": 256, "categories": [{"alias": "breweries", "title": "Breweries"}], "rating": 4.5, "coordinates": {"latitude": 39.69247, "longitude": -104.89048}, "transactions": ["pickup", "delivery"], "price": "$", "location": {"address1": "1338 S Valentia St", "address2": "Unit 100", "address3": "", "city": "Denver", "zip_code": "80247", "country": "US", "state": "CO", "display_address": ["1338 S Valentia St", "Unit 100", "Denver, CO 80247"]}, "phone": "+17204432522", "display_phone": "(720) 443-2522", "distance": 8314.132634845784}, {"id": "0cR3xzpMpb3pRsiJguNMGQ", "alias": "kodiac-brewery-centennial", "name": "Kodiac Brewery", "image_url": "https://s3-media1.fl.yelpcdn.com/bphoto/IGNLLUg8zzeAACp5Nf6pJA/o.jpg", "is_closed": false, "url": "https://www.yelp.com/biz/kodiac-brewery-centennial?adjust_creative=OD45_sigUUSBobJ_eVs01w&utm_campaign=yelp_api_v3&utm_medium=api_v3_business_search&utm_source=OD45_sigUUSBobJ_eVs01w", "review_count": 21, "categories": [{"alias": "brewpubs", "title": "Brewpubs"}], "rating": 4.5, "coordinates": {"latitude": 39.595505, "longitude": -104.899781}, "transactions": ["pickup", "delivery"], "location": {"address1": "7685 E Arapahoe Rd", "address2": null, "address3": "", "city": "Centennial", "zip_code": "80112", "country": "US", "state": "CO", "display_address": ["7685 E Arapahoe Rd", "Centennial, CO 80112"]}, "phone": "+13039277636", "display_phone": "(303) 927-7636", "distance": 16696.525021106903}, {"id": "epJrb9ikQOUit-K0yuDEuA", "alias": "12-degree-brewing-louisville-2", "name": "12 Degree Brewing", "image_url": "https://s3-media1.fl.yelpcdn.com/bphoto/ZXlEwtLFHd6xau_yNlVWdg/o.jpg", "is_closed": false, "url": "https://www.yelp.com/biz/12-degree-brewing-louisville-2?adjust_creative=OD45_sigUUSBobJ_eVs01w&utm_campaign=yelp_api_v3&utm_medium=api_v3_business_search&utm_source=OD45_sigUUSBobJ_eVs01w", "review_count": 194, "categories": [{"alias": "pizza", "title": "Pizza"}, {"alias": "brewpubs", "title": "Brewpubs"}], "rating": 4.5, "coordinates": {"latitude": 39.9782742293595, "longitude": -105.131889007667}, "transactions": ["pickup", "delivery"], "price": "$$", "location": {"address1": "820 Main St", "address2": "Ste 2", "address3": "", "city": "Louisville", "zip_code": "80027", "country": "US", "state": "CO", "display_address": ["820 Main St", "Ste 2", "Louisville, CO 80027"]}, "phone": "+17206381623", "display_phone": "(720) 638-1623", "distance": 30314.53939510284}, {"id": "lt_gkv_61ZuBlX23z5DBPA", "alias": "dry-dock-brewing-aurora-4", "name": "Dry Dock Brewing", "image_url": "https://s3-media4.fl.yelpcdn.com/bphoto/_JNU7pzeE9g3v4WGRjXkXg/o.jpg", "is_closed": false, "url": "https://www.yelp.com/biz/dry-dock-brewing-aurora-4?adjust_creative=OD45_sigUUSBobJ_eVs01w&utm_campaign=yelp_api_v3&utm_medium=api_v3_business_search&utm_source=OD45_sigUUSBobJ_eVs01w", "review_count": 428, "categories": [{"alias": "breweries", "title": "Breweries"}, {"alias": "venues", "title": "Venues & Event Spaces"}], "rating": 4.5, "coordinates": {"latitude": 39.65262, "longitude": -104.81192}, "transactions": [], "price": "$$", "location": {"address1": "15120 E Hampden Ave", "address2": "", "address3": "", "city": "Aurora", "zip_code": "80014", "country": "US", "state": "CO", "display_address": ["15120 E Hampden Ave", "Aurora, CO 80014"]}, "phone": "+13034005606", "display_phone": "(303) 400-5606", "distance": 16374.242749755142}, {"id": "IJUSGQ-CokdnL0RiXeHE-A", "alias": "locavore-beer-works-littleton", "name": "Locavore Beer Works", "image_url": "https://s3-media3.fl.yelpcdn.com/bphoto/1zciD286UKsvnSCrHNXDdQ/o.jpg", "is_closed": false, "url": "https://www.yelp.com/biz/locavore-beer-works-littleton?adjust_creative=OD45_sigUUSBobJ_eVs01w&utm_campaign=yelp_api_v3&utm_medium=api_v3_business_search&utm_source=OD45_sigUUSBobJ_eVs01w", "review_count": 185, "categories": [{"alias": "breweries", "title": "Breweries"}], "rating": 4.5, "coordinates": {"latitude": 39.608583, "longitude": -105.036921}, "transactions": ["pickup", "delivery"], "price": "$$", "location": {"address1": "5950 S Platte Canyon Rd", "address2": null, "address3": "", "city": "Littleton", "zip_code": "80123", "country": "US", "state": "CO", "display_address": ["5950 S Platte Canyon Rd", "Littleton, CO 80123"]}, "phone": "+17204764419", "display_phone": "(720) 476-4419", "distance": 15225.127032329081}, {"id": "ATtXR7ef9dIdmFqahsbvmA", "alias": "the-old-mine-erie-3", "name": "The Old Mine", "image_url": "https://s3-media2.fl.yelpcdn.com/bphoto/06zsxUsFw-rQL2TMECcE9A/o.jpg", "is_closed": false, "url": "https://www.yelp.com/biz/the-old-mine-erie-3?adjust_creative=OD45_sigUUSBobJ_eVs01w&utm_campaign=yelp_api_v3&utm_medium=api_v3_business_search&utm_source=OD45_sigUUSBobJ_eVs01w", "review_count": 195, "categories": [{"alias": "cideries", "title": "Cideries"}, {"alias": "brewpubs", "title": "Brewpubs"}, {"alias": "tradamerican", "title": "American (Traditional)"}], "rating": 4.5, "coordinates": {"latitude": 40.049129, "longitude": -105.047502}, "transactions": ["pickup"], "price": "$$", "location": {"address1": "500 Briggs St", "address2": null, "address3": "", "city": "Erie", "zip_code": "80516", "country": "US", "state": "CO", "display_address": ["500 Briggs St", "Erie, CO 80516"]}, "phone": "+13039050620", "display_phone": "(303) 905-0620", "distance": 35488.65186876412}, {"id": "6u_31XVcHTQeJmRTKc_W1g", "alias": "landlocked-ales-lakewood", "name": "Landlocked Ales", "image_url": "https://s3-media1.fl.yelpcdn.com/bphoto/5j_sj6PWYSjPRt9Y-44Pbw/o.jpg", "is_closed": false, "url": "https://www.yelp.com/biz/landlocked-ales-lakewood?adjust_creative=OD45_sigUUSBobJ_eVs01w&utm_campaign=yelp_api_v3&utm_medium=api_v3_business_search&utm_source=OD45_sigUUSBobJ_eVs01w", "review_count": 52, "categories": [{"alias": "breweries", "title": "Breweries"}], "rating": 4.5, "coordinates": {"latitude": 39.65778781623806, "longitude": -105.08341781165673}, "transactions": [], "price": "$$", "location": {"address1": "3225 S Wadsworth Blvd", "address2": "Ste S", "address3": null, "city": "Lakewood", "zip_code": "80227", "country": "US", "state": "CO", "display_address": ["3225 S Wadsworth Blvd", "Ste S", "Lakewood, CO 80227"]}, "phone": "+13032848748", "display_phone": "(303) 284-8748", "distance": 12979.679405227393}, {"id": "CfpzyrxFhwPILsuDXj997g", "alias": "banded-oak-brewing-company-denver", "name": "Banded Oak Brewing Company", "image_url": "https://s3-media3.fl.yelpcdn.com/bphoto/m9WIAaQWI_zHbQaSfC6Bsg/o.jpg", "is_closed": false, "url": "https://www.yelp.com/biz/banded-oak-brewing-company-denver?adjust_creative=OD45_sigUUSBobJ_eVs01w&utm_campaign=yelp_api_v3&utm_medium=api_v3_business_search&utm_source=OD45_sigUUSBobJ_eVs01w", "review_count": 77, "categories": [{"alias": "breweries", "title": "Breweries"}, {"alias": "beerbar", "title": "Beer Bar"}], "rating": 4.5, "coordinates": {"latitude": 39.72377, "longitude": -104.9871}, "transactions": [], "price": "$", "location": {"address1": "470 Broadway", "address2": "", "address3": null, "city": "Denver", "zip_code": "80203", "country": "US", "state": "CO", "display_address": ["470 Broadway", "Denver, CO 80203"]}, "phone": "+17204798033", "display_phone": "(720) 479-8033", "distance": 1943.2187117042229}, {"id": "khSKyZioFXzL5PaWPefCsQ", "alias": "vision-quest-brewery-boulder", "name": "Vision Quest Brewery", "image_url": "https://s3-media2.fl.yelpcdn.com/bphoto/XPZOyh3dK8_UeHmy91wLIw/o.jpg", "is_closed": false, "url": "https://www.yelp.com/biz/vision-quest-brewery-boulder?adjust_creative=OD45_sigUUSBobJ_eVs01w&utm_campaign=yelp_api_v3&utm_medium=api_v3_business_search&utm_source=OD45_sigUUSBobJ_eVs01w", "review_count": 46, "categories": [{"alias": "breweries", "title": "Breweries"}], "rating": 4.5, "coordinates": {"latitude": 40.0254048407078, "longitude": -105.244121029973}, "transactions": [], "price": "$$", "location": {"address1": "2510 47th St", "address2": "Unit A2", "address3": null, "city": "Boulder", "zip_code": "80301", "country": "US", "state": "CO", "display_address": ["2510 47th St", "Unit A2", "Boulder, CO 80301"]}, "phone": "+17204469387", "display_phone": "(720) 446-9387", "distance": 39813.475654460446}, {"id": "YKVbgqtSc450wBu8cgyi8A", "alias": "westbound-and-down-mill-lafayette", "name": "Westbound & Down Mill", "image_url": "https://s3-media3.fl.yelpcdn.com/bphoto/sfxvxTSX9AZfXS5Hnju6xQ/o.jpg", "is_closed": false, "url": "https://www.yelp.com/biz/westbound-and-down-mill-lafayette?adjust_creative=OD45_sigUUSBobJ_eVs01w&utm_campaign=yelp_api_v3&utm_medium=api_v3_business_search&utm_source=OD45_sigUUSBobJ_eVs01w", "review_count": 13, "categories": [{"alias": "brewpubs", "title": "Brewpubs"}, {"alias": "tradamerican", "title": "American (Traditional)"}], "rating": 4.5, "coordinates": {"latitude": 40.01331, "longitude": -105.13162}, "transactions": [], "location": {"address1": "2755 Dagny Way", "address2": "Ste 101", "address3": null, "city": "Lafayette", "zip_code": "80026", "country": "US", "state": "CO", "display_address": ["2755 Dagny Way", "Ste 101", "Lafayette, CO 80026"]}, "phone": "+13035930120", "display_phone": "(303) 593-0120", "distance": 33795.17767303319}, {"id": "QBjCIo_XimiuwHfGT9ZKzA", "alias": "baere-brewing-company-denver", "name": "Baere Brewing Company", "image_url": "https://s3-media3.fl.yelpcdn.com/bphoto/d4-mRGiTwK8lHVuDFGj6Ig/o.jpg", "is_closed": false, "url": "https://www.yelp.com/biz/baere-brewing-company-denver?adjust_creative=OD45_sigUUSBobJ_eVs01w&utm_campaign=yelp_api_v3&utm_medium=api_v3_business_search&utm_source=OD45_sigUUSBobJ_eVs01w", "review_count": 136, "categories": [{"alias": "breweries", "title": "Breweries"}], "rating": 4.5, "coordinates": {"latitude": 39.721382361761, "longitude": -104.987187206748}, "transactions": [], "price": "$", "location": {"address1": "320 Broadway", "address2": "Unit E", "address3": "", "city": "Denver", "zip_code": "80203", "country": "US", "state": "CO", "display_address": ["320 Broadway", "Unit E", "Denver, CO 80203"]}, "phone": "+13037333354", "display_phone": "(303) 733-3354", "distance": 2138.193369291021}, {"id": "rrXppQgpsjFZs8TCRNcfhg", "alias": "upslope-brewing-company-flatiron-park-boulder", "name": "Upslope Brewing Company - Flatiron Park", "image_url": "https://s3-media2.fl.yelpcdn.com/bphoto/FzM6y5p-wFZMe9pfscWshw/o.jpg", "is_closed": false, "url": "https://www.yelp.com/biz/upslope-brewing-company-flatiron-park-boulder?adjust_creative=OD45_sigUUSBobJ_eVs01w&utm_campaign=yelp_api_v3&utm_medium=api_v3_business_search&utm_source=OD45_sigUUSBobJ_eVs01w", "review_count": 116, "categories": [{"alias": "breweries", "title": "Breweries"}], "rating": 4.5, "coordinates": {"latitude": 40.02018, "longitude": -105.21797}, "transactions": [], "price": "$$", "location": {"address1": "1898 S Flatiron Ct", "address2": "", "address3": "", "city": "Boulder", "zip_code": "80301", "country": "US", "state": "CO", "display_address": ["1898 S Flatiron Ct", "Boulder, CO 80301"]}, "phone": "+13033961898", "display_phone": "(303) 396-1898", "distance": 38078.573270787725}, {"id": "2mmhXZO44HrdVunqEFNQvA", "alias": "barquentine-brewing-company-edgewater", "name": "Barquentine Brewing Company", "image_url": "https://s3-media3.fl.yelpcdn.com/bphoto/J6JoVRRebrWqfQLTn39LbQ/o.jpg", "is_closed": false, "url": "https://www.yelp.com/biz/barquentine-brewing-company-edgewater?adjust_creative=OD45_sigUUSBobJ_eVs01w&utm_campaign=yelp_api_v3&utm_medium=api_v3_business_search&utm_source=OD45_sigUUSBobJ_eVs01w", "review_count": 40, "categories": [{"alias": "breweries", "title": "Breweries"}, {"alias": "beerbar", "title": "Beer Bar"}, {"alias": "beergardens", "title": "Beer Gardens"}], "rating": 4.5, "coordinates": {"latitude": 39.74777, "longitude": -105.05678}, "transactions": [], "price": "$$", "location": {"address1": "5505 W 20th Ave", "address2": "Ste 178", "address3": null, "city": "Edgewater", "zip_code": "80214", "country": "US", "state": "CO", "display_address": ["5505 W 20th Ave", "Ste 178", "Edgewater, CO 80214"]}, "phone": "+13039551238", "display_phone": "(303) 955-1238", "distance": 7604.906404152884}, {"id": "55E-o4xYzfAxcSCdT73Rmg", "alias": "resolute-brewing-centennial", "name": "Resolute Brewing", "image_url": "https://s3-media1.fl.yelpcdn.com/bphoto/X8sfiHcWfcI1LSGjdQUvwA/o.jpg", "is_closed": false, "url": "https://www.yelp.com/biz/resolute-brewing-centennial?adjust_creative=OD45_sigUUSBobJ_eVs01w&utm_campaign=yelp_api_v3&utm_medium=api_v3_business_search&utm_source=OD45_sigUUSBobJ_eVs01w", "review_count": 181, "categories": [{"alias": "beergardens", "title": "Beer Gardens"}, {"alias": "breweries", "title": "Breweries"}, {"alias": "beerbar", "title": "Beer Bar"}], "rating": 4.5, "coordinates": {"latitude": 39.58476, "longitude": -104.88495}, "transactions": [], "price": "$$", "location": {"address1": "7286 S Yosemite St", "address2": "Ste 110", "address3": "", "city": "Centennial", "zip_code": "80112", "country": "US", "state": "CO", "display_address": ["7286 S Yosemite St", "Ste 110", "Centennial, CO 80112"]}, "phone": "+17207221238", "display_phone": "(720) 722-1238", "distance": 18271.778154415533}, {"id": "3asUEG-iok2bunLBp1O_mw", "alias": "lowdown-brewery-kitchen-denver", "name": "Lowdown Brewery + Kitchen", "image_url": "https://s3-media2.fl.yelpcdn.com/bphoto/u0mLAl0XlBiqAoX5YJxQOg/o.jpg", "is_closed": false, "url": "https://www.yelp.com/biz/lowdown-brewery-kitchen-denver?adjust_creative=OD45_sigUUSBobJ_eVs01w&utm_campaign=yelp_api_v3&utm_medium=api_v3_business_search&utm_source=OD45_sigUUSBobJ_eVs01w", "review_count": 562, "categories": [{"alias": "breweries", "title": "Breweries"}, {"alias": "newamerican", "title": "American (New)"}, {"alias": "pizza", "title": "Pizza"}], "rating": 4.5, "coordinates": {"latitude": 39.7293891906738, "longitude": -104.985748291016}, "transactions": ["pickup", "delivery"], "price": "$$", "location": {"address1": "800 Lincoln St", "address2": "", "address3": "", "city": "Denver", "zip_code": "80203", "country": "US", "state": "CO", "display_address": ["800 Lincoln St", "Denver, CO 80203"]}, "phone": "+17205248065", "display_phone": "(720) 524-8065", "distance": 1491.6134415581314}, {"id": "ovGADiW1AzGSt7M0sJIYIQ", "alias": "call-to-arms-brewing-company-denver", "name": "Call To Arms Brewing Company", "image_url": "https://s3-media1.fl.yelpcdn.com/bphoto/y6_ZL9GzTxfVbJ83IZ_50Q/o.jpg", "is_closed": false, "url": "https://www.yelp.com/biz/call-to-arms-brewing-company-denver?adjust_creative=OD45_sigUUSBobJ_eVs01w&utm_campaign=yelp_api_v3&utm_medium=api_v3_business_search&utm_source=OD45_sigUUSBobJ_eVs01w", "review_count": 119, "categories": [{"alias": "breweries", "title": "Breweries"}], "rating": 4.5, "coordinates": {"latitude": 39.77887, "longitude": -105.043633}, "transactions": [], "price": "$", "location": {"address1": "4526 Tennyson St", "address2": "", "address3": "", "city": "Denver", "zip_code": "80212", "country": "US", "state": "CO", "display_address": ["4526 Tennyson St", "Denver, CO 80212"]}, "phone": "+17203288258", "display_phone": "(720) 328-8258", "distance": 7917.451150023895}, {"id": "TjD7j95PgCYSdKDHq8DsAA", "alias": "denver-beer-co-south-downing-denver-5", "name": "Denver Beer Co South Downing", "image_url": "https://s3-media4.fl.yelpcdn.com/bphoto/EaEN449_OCK8ux51bYoIMw/o.jpg", "is_closed": false, "url": "https://www.yelp.com/biz/denver-beer-co-south-downing-denver-5?adjust_creative=OD45_sigUUSBobJ_eVs01w&utm_campaign=yelp_api_v3&utm_medium=api_v3_business_search&utm_source=OD45_sigUUSBobJ_eVs01w", "review_count": 54, "categories": [{"alias": "breweries", "title": "Breweries"}, {"alias": "newamerican", "title": "American (New)"}], "rating": 4.5, "coordinates": {"latitude": 39.67249, "longitude": -104.97373}, "transactions": [], "location": {"address1": "2425 S Downing St", "address2": "", "address3": null, "city": "Denver", "zip_code": "80210", "country": "US", "state": "CO", "display_address": ["2425 S Downing St", "Denver, CO 80210"]}, "phone": "+13034332739", "display_phone": "(303) 433-2739", "distance": 6991.3519535187315}, {"id": "tEa5ldZPH3XN7BIVu7yC8A", "alias": "briar-common-brewery-eatery-denver-3", "name": "Briar Common Brewery + Eatery", "image_url": "https://s3-media4.fl.yelpcdn.com/bphoto/NJKITxriwNN50eFtMDPmgg/o.jpg", "is_closed": false, "url": "https://www.yelp.com/biz/briar-common-brewery-eatery-denver-3?adjust_creative=OD45_sigUUSBobJ_eVs01w&utm_campaign=yelp_api_v3&utm_medium=api_v3_business_search&utm_source=OD45_sigUUSBobJ_eVs01w", "review_count": 506, "categories": [{"alias": "newamerican", "title": "American (New)"}, {"alias": "breweries", "title": "Breweries"}, {"alias": "venues", "title": "Venues & Event Spaces"}], "rating": 4.5, "coordinates": {"latitude": 39.7510487661208, "longitude": -105.020291119034}, "transactions": ["pickup", "delivery"], "price": "$$", "location": {"address1": "2298 Clay St", "address2": "", "address3": null, "city": "Denver", "zip_code": "80211", "country": "US", "state": "CO", "display_address": ["2298 Clay St", "Denver, CO 80211"]}, "phone": "+17205123894", "display_phone": "(720) 512-3894", "distance": 4613.982399611614}, {"id": "CE1dbO8TrTV5OipwF7U02A", "alias": "big-choice-brewing-brighton-2", "name": "Big Choice Brewing", "image_url": "https://s3-media2.fl.yelpcdn.com/bphoto/60ImHYX3WpxUyZrxWjRaiw/o.jpg", "is_closed": false, "url": "https://www.yelp.com/biz/big-choice-brewing-brighton-2?adjust_creative=OD45_sigUUSBobJ_eVs01w&utm_campaign=yelp_api_v3&utm_medium=api_v3_business_search&utm_source=OD45_sigUUSBobJ_eVs01w", "review_count": 115, "categories": [{"alias": "breweries", "title": "Breweries"}, {"alias": "pizza", "title": "Pizza"}], "rating": 4.5, "coordinates": {"latitude": 39.98638, "longitude": -104.82268}, "transactions": ["pickup", "delivery"], "price": "$$", "location": {"address1": "21 S 1st Ave", "address2": "", "address3": null, "city": "Brighton", "zip_code": "80601", "country": "US", "state": "CO", "display_address": ["21 S 1st Ave", "Brighton, CO 80601"]}, "phone": "+13034980150", "display_phone": "(303) 498-0150", "distance": 30605.715067292058}, {"id": "5CjGcI61InBlV_83D5FyyA", "alias": "sunroom-brewing-englewood", "name": "Sunroom Brewing", "image_url": "https://s3-media3.fl.yelpcdn.com/bphoto/DH-QwFBqPoCLt30BgYTh8w/o.jpg", "is_closed": false, "url": "https://www.yelp.com/biz/sunroom-brewing-englewood?adjust_creative=OD45_sigUUSBobJ_eVs01w&utm_campaign=yelp_api_v3&utm_medium=api_v3_business_search&utm_source=OD45_sigUUSBobJ_eVs01w", "review_count": 12, "categories": [{"alias": "breweries", "title": "Breweries"}], "rating": 4.5, "coordinates": {"latitude": 39.65785, "longitude": -104.98854}, "transactions": [], "location": {"address1": "3242 S Acoma St", "address2": null, "address3": "", "city": "Englewood", "zip_code": "80110", "country": "US", "state": "CO", "display_address": ["3242 S Acoma St", "Englewood, CO 80110"]}, "phone": "+17204013239", "display_phone": "(720) 401-3239", "distance": 8772.162353483847}, {"id": "wioS_KTa22Df1j-0_T9BZQ", "alias": "diebolt-brewing-company-denver", "name": "Diebolt Brewing Company", "image_url": "https://s3-media1.fl.yelpcdn.com/bphoto/-_2bb4xFQtL6lc7MpT69lA/o.jpg", "is_closed": false, "url": "https://www.yelp.com/biz/diebolt-brewing-company-denver?adjust_creative=OD45_sigUUSBobJ_eVs01w&utm_campaign=yelp_api_v3&utm_medium=api_v3_business_search&utm_source=OD45_sigUUSBobJ_eVs01w", "review_count": 115, "categories": [{"alias": "breweries", "title": "Breweries"}], "rating": 4.5, "coordinates": {"latitude": 39.7704022842125, "longitude": -105.003151401392}, "transactions": [], "price": "$", "location": {"address1": "3855 Mariposa St", "address2": "", "address3": "", "city": "Denver", "zip_code": "80211", "country": "US", "state": "CO", "display_address": ["3855 Mariposa St", "Denver, CO 80211"]}, "phone": "+17206435940", "display_phone": "(720) 643-5940", "distance": 4791.052990002725}, {"id": "7A8qGrUN3nitu2L78eTgZw", "alias": "4-noses-brewing-company-broomfield-2", "name": "4 Noses Brewing Company", "image_url": "https://s3-media4.fl.yelpcdn.com/bphoto/9dksOcz5u7asf2lh93jyaw/o.jpg", "is_closed": false, "url": "https://www.yelp.com/biz/4-noses-brewing-company-broomfield-2?adjust_creative=OD45_sigUUSBobJ_eVs01w&utm_campaign=yelp_api_v3&utm_medium=api_v3_business_search&utm_source=OD45_sigUUSBobJ_eVs01w", "review_count": 289, "categories": [{"alias": "breweries", "title": "Breweries"}], "rating": 4.5, "coordinates": {"latitude": 39.9062806470292, "longitude": -105.098472602557}, "transactions": [], "price": "$$", "location": {"address1": "8855 W 116th Cir", "address2": "", "address3": "", "city": "Broomfield", "zip_code": "80021", "country": "US", "state": "CO", "display_address": ["8855 W 116th Cir", "Broomfield, CO 80021"]}, "phone": "+17204602797", "display_phone": "(720) 460-2797", "distance": 21918.923413752887}, {"id": "4pwC95vDD83Pbq5V1qfvXA", "alias": "oasis-brewing-company-denver-2", "name": "Oasis Brewing Company", "image_url": "https://s3-media4.fl.yelpcdn.com/bphoto/OZOLP1u2czIah-sKVbojUw/o.jpg", "is_closed": false, "url": "https://www.yelp.com/biz/oasis-brewing-company-denver-2?adjust_creative=OD45_sigUUSBobJ_eVs01w&utm_campaign=yelp_api_v3&utm_medium=api_v3_business_search&utm_source=OD45_sigUUSBobJ_eVs01w", "review_count": 64, "categories": [{"alias": "brewpubs", "title": "Brewpubs"}, {"alias": "beergardens", "title": "Beer Gardens"}, {"alias": "beerbar", "title": "Beer Bar"}], "rating": 4.5, "coordinates": {"latitude": 39.76309, "longitude": -105.03478}, "transactions": [], "price": "$$", "location": {"address1": "3257 Lowell Blvd", "address2": null, "address3": null, "city": "Denver", "zip_code": "80211", "country": "US", "state": "CO", "display_address": ["3257 Lowell Blvd", "Denver, CO 80211"]}, "phone": "+13033174369", "display_phone": "(303) 317-4369", "distance": 6326.2445264263015}, {"id": "Vem4kaTjlygzOMAOXPgbaw", "alias": "odyssey-beerwerks-arvada-2", "name": "Odyssey Beerwerks Brewery & Taproom", "image_url": "https://s3-media1.fl.yelpcdn.com/bphoto/mCMVep-o47_rGcKKwZ35Tg/o.jpg", "is_closed": false, "url": "https://www.yelp.com/biz/odyssey-beerwerks-arvada-2?adjust_creative=OD45_sigUUSBobJ_eVs01w&utm_campaign=yelp_api_v3&utm_medium=api_v3_business_search&utm_source=OD45_sigUUSBobJ_eVs01w", "review_count": 128, "categories": [{"alias": "breweries", "title": "Breweries"}, {"alias": "beerbar", "title": "Beer Bar"}], "rating": 4.5, "coordinates": {"latitude": 39.8008291, "longitude": -105.0587681}, "transactions": [], "price": "$", "location": {"address1": "5535 W 56th Ave", "address2": "Ste 107", "address3": "", "city": "Arvada", "zip_code": "80002", "country": "US", "state": "CO", "display_address": ["5535 W 56th Ave", "Ste 107", "Arvada, CO 80002"]}, "phone": "+13034210772", "display_phone": "(303) 421-0772", "distance": 10486.821597282054}, {"id": "WBom6za95-BCfVtgK2Rp4w", "alias": "station-26-brewing-denver", "name": "Station 26 Brewing", "image_url": "https://s3-media4.fl.yelpcdn.com/bphoto/UwvSfx1sWicjWmN7dj9S5A/o.jpg", "is_closed": false, "url": "https://www.yelp.com/biz/station-26-brewing-denver?adjust_creative=OD45_sigUUSBobJ_eVs01w&utm_campaign=yelp_api_v3&utm_medium=api_v3_business_search&utm_source=OD45_sigUUSBobJ_eVs01w", "review_count": 391, "categories": [{"alias": "breweries", "title": "Breweries"}], "rating": 4.5, "coordinates": {"latitude": 39.76952, "longitude": -104.90591}, "transactions": [], "price": "$$", "location": {"address1": "7045 E 38th Ave", "address2": "", "address3": "", "city": "Denver", "zip_code": "80207", "country": "US", "state": "CO", "display_address": ["7045 E 38th Ave", "Denver, CO 80207"]}, "phone": "+13033331825", "display_phone": "(303) 333-1825", "distance": 6667.204585341878}, {"id": "S4pZgrBayim4YjzeoqiRGg", "alias": "ratio-beerworks-denver", "name": "Ratio Beerworks", "image_url": "https://s3-media1.fl.yelpcdn.com/bphoto/SlO2UvOj_lc9G7iTm_i9lA/o.jpg", "is_closed": false, "url": "https://www.yelp.com/biz/ratio-beerworks-denver?adjust_creative=OD45_sigUUSBobJ_eVs01w&utm_campaign=yelp_api_v3&utm_medium=api_v3_business_search&utm_source=OD45_sigUUSBobJ_eVs01w", "review_count": 319, "categories": [{"alias": "breweries", "title": "Breweries"}, {"alias": "beerbar", "title": "Beer Bar"}], "rating": 4.5, "coordinates": {"latitude": 39.761478, "longitude": -104.981048}, "transactions": [], "price": "$", "location": {"address1": "2920 Larimer St", "address2": null, "address3": "", "city": "Denver", "zip_code": "80205", "country": "US", "state": "CO", "display_address": ["2920 Larimer St", "Denver, CO 80205"]}, "phone": "+13039978288", "display_phone": "(303) 997-8288", "distance": 3030.940745548259}, {"id": "q6wZmA3F_pvk5G-hiFvEfA", "alias": "grandmas-house-denver-2", "name": "Grandma's House", "image_url": "https://s3-media4.fl.yelpcdn.com/bphoto/FxNnIvpDKJvQ775bSvRcuA/o.jpg", "is_closed": false, "url": "https://www.yelp.com/biz/grandmas-house-denver-2?adjust_creative=OD45_sigUUSBobJ_eVs01w&utm_campaign=yelp_api_v3&utm_medium=api_v3_business_search&utm_source=OD45_sigUUSBobJ_eVs01w", "review_count": 222, "categories": [{"alias": "breweries", "title": "Breweries"}, {"alias": "venues", "title": "Venues & Event Spaces"}], "rating": 4.5, "coordinates": {"latitude": 39.6854629516602, "longitude": -104.987174987793}, "transactions": [], "price": "$", "location": {"address1": "1710 S Broadway", "address2": null, "address3": "", "city": "Denver", "zip_code": "80210", "country": "US", "state": "CO", "display_address": ["1710 S Broadway", "Denver, CO 80210"]}, "phone": "+13035786754", "display_phone": "(303) 578-6754", "distance": 5753.676038733898}, {"id": "YHcW6UIkzVA5CBWgF6VP9A", "alias": "liquid-mechanics-brewing-lafayette-2", "name": "Liquid Mechanics Brewing", "image_url": "https://s3-media3.fl.yelpcdn.com/bphoto/HjhJb2Q3z1Ju9AMYcTBLvQ/o.jpg", "is_closed": false, "url": "https://www.yelp.com/biz/liquid-mechanics-brewing-lafayette-2?adjust_creative=OD45_sigUUSBobJ_eVs01w&utm_campaign=yelp_api_v3&utm_medium=api_v3_business_search&utm_source=OD45_sigUUSBobJ_eVs01w", "review_count": 107, "categories": [{"alias": "breweries", "title": "Breweries"}, {"alias": "venues", "title": "Venues & Event Spaces"}, {"alias": "beergardens", "title": "Beer Gardens"}], "rating": 4.5, "coordinates": {"latitude": 39.9997311964016, "longitude": -105.103578504199}, "transactions": [], "price": "$$", "location": {"address1": "297 US Hwy 287", "address2": "Ste 100", "address3": "", "city": "Lafayette", "zip_code": "80026", "country": "US", "state": "CO", "display_address": ["297 US Hwy 287", "Ste 100", "Lafayette, CO 80026"]}, "phone": "+17205507813", "display_phone": "(720) 550-7813", "distance": 31505.257788816434}, {"id": "8ebfOUxqQwVTgv_IB60PDg", "alias": "green-mountain-beer-company-lakewood-3", "name": "Green Mountain Beer Company", "image_url": "https://s3-media2.fl.yelpcdn.com/bphoto/PFcNkXWCQZbgybW9DtN5BA/o.jpg", "is_closed": false, "url": "https://www.yelp.com/biz/green-mountain-beer-company-lakewood-3?adjust_creative=OD45_sigUUSBobJ_eVs01w&utm_campaign=yelp_api_v3&utm_medium=api_v3_business_search&utm_source=OD45_sigUUSBobJ_eVs01w", "review_count": 141, "categories": [{"alias": "breweries", "title": "Breweries"}, {"alias": "foodtrucks", "title": "Food Trucks"}, {"alias": "beerbar", "title": "Beer Bar"}], "rating": 4.5, "coordinates": {"latitude": 39.6702851948555, "longitude": -105.114235793242}, "transactions": [], "price": "$$", "location": {"address1": "2585 S Lewis Way", "address2": "Ste 110", "address3": null, "city": "Lakewood", "zip_code": "80227", "country": "US", "state": "CO", "display_address": ["2585 S Lewis Way", "Ste 110", "Lakewood, CO 80227"]}, "phone": "+13039860201", "display_phone": "(303) 986-0201", "distance": 14295.63304319831}, {"id": "DNKucP0SZ7ea-nOZgetFhg", "alias": "great-divide-brewing-company-denver", "name": "Great Divide Brewing Company", "image_url": "https://s3-media2.fl.yelpcdn.com/bphoto/TLitNzKRcWw_62vNzcyKeA/o.jpg", "is_closed": false, "url": "https://www.yelp.com/biz/great-divide-brewing-company-denver?adjust_creative=OD45_sigUUSBobJ_eVs01w&utm_campaign=yelp_api_v3&utm_medium=api_v3_business_search&utm_source=OD45_sigUUSBobJ_eVs01w", "review_count": 1074, "categories": [{"alias": "pubs", "title": "Pubs"}, {"alias": "breweries", "title": "Breweries"}, {"alias": "beerbar", "title": "Beer Bar"}], "rating": 4.5, "coordinates": {"latitude": 39.7539, "longitude": -104.98846}, "transactions": [], "price": "$$", "location": {"address1": "2201 Arapahoe St", "address2": "", "address3": "", "city": "Denver", "zip_code": "80205", "country": "US", "state": "CO", "display_address": ["2201 Arapahoe St", "Denver, CO 80205"]}, "phone": "+13032969460", "display_phone": "(303) 296-9460", "distance": 2575.690771581002}, {"id": "-fZkoMA96o2F5nxF-VAa1A", "alias": "ratio-beerworks-denver-2", "name": "Ratio Beerworks", "image_url": "https://s3-media2.fl.yelpcdn.com/bphoto/EniWLMO5JksvwteGPnqBWA/o.jpg", "is_closed": false, "url": "https://www.yelp.com/biz/ratio-beerworks-denver-2?adjust_creative=OD45_sigUUSBobJ_eVs01w&utm_campaign=yelp_api_v3&utm_medium=api_v3_business_search&utm_source=OD45_sigUUSBobJ_eVs01w", "review_count": 7, "categories": [{"alias": "brewpubs", "title": "Brewpubs"}, {"alias": "beerbar", "title": "Beer Bar"}], "rating": 4.5, "coordinates": {"latitude": 39.67976, "longitude": -104.99095}, "transactions": [], "price": "$$", "location": {"address1": "2030 S Cherokee St", "address2": "", "address3": null, "city": "Denver", "zip_code": "80223", "country": "US", "state": "CO", "display_address": ["2030 S Cherokee St", "Denver, CO 80223"]}, "phone": "+13039978288", "display_phone": "(303) 997-8288", "distance": 6445.40173263303}, {"id": "bGovlW2-Wdwi-bqjcX7Vsw", "alias": "uhls-brewing-boulder", "name": "Uhl's Brewing", "image_url": "https://s3-media2.fl.yelpcdn.com/bphoto/8YBBaLLaZa4k_Uo5bQ-HyQ/o.jpg", "is_closed": false, "url": "https://www.yelp.com/biz/uhls-brewing-boulder?adjust_creative=OD45_sigUUSBobJ_eVs01w&utm_campaign=yelp_api_v3&utm_medium=api_v3_business_search&utm_source=OD45_sigUUSBobJ_eVs01w", "review_count": 21, "categories": [{"alias": "breweries", "title": "Breweries"}], "rating": 4.5, "coordinates": {"latitude": 40.016239, "longitude": -105.225763}, "transactions": [], "location": {"address1": "5460 Conestoga Ct", "address2": null, "address3": null, "city": "Boulder", "zip_code": "80301", "country": "US", "state": "CO", "display_address": ["5460 Conestoga Ct", "Boulder, CO 80301"]}, "phone": "+17205423870", "display_phone": "(720) 542-3870", "distance": 38075.58698705282}, {"id": "ERWJw2wPXupRCfoBysxL2Q", "alias": "living-the-dream-brewing-littleton", "name": "Living The Dream Brewing", "image_url": "https://s3-media2.fl.yelpcdn.com/bphoto/JrgAqmUrlqqtys6Tyajmlw/o.jpg", "is_closed": false, "url": "https://www.yelp.com/biz/living-the-dream-brewing-littleton?adjust_creative=OD45_sigUUSBobJ_eVs01w&utm_campaign=yelp_api_v3&utm_medium=api_v3_business_search&utm_source=OD45_sigUUSBobJ_eVs01w", "review_count": 214, "categories": [{"alias": "breweries", "title": "Breweries"}], "rating": 4.5, "coordinates": {"latitude": 39.5403327941895, "longitude": -105.039833068848}, "transactions": [], "price": "$$", "location": {"address1": "12305 Dumont Way", "address2": "Unit A", "address3": "", "city": "Littleton", "zip_code": "80125", "country": "US", "state": "CO", "display_address": ["12305 Dumont Way", "Unit A", "Littleton, CO 80125"]}, "phone": "+13032849585", "display_phone": "(303) 284-9585", "distance": 22507.39073504564}, {"id": "GaOaZd6yY0drh-wbJ5KFqQ", "alias": "zuni-street-brewing-company-denver", "name": "Zuni Street Brewing Company", "image_url": "https://s3-media2.fl.yelpcdn.com/bphoto/Ibt5Mj-9M59ETgwstJgxQw/o.jpg", "is_closed": false, "url": "https://www.yelp.com/biz/zuni-street-brewing-company-denver?adjust_creative=OD45_sigUUSBobJ_eVs01w&utm_campaign=yelp_api_v3&utm_medium=api_v3_business_search&utm_source=OD45_sigUUSBobJ_eVs01w", "review_count": 151, "categories": [{"alias": "breweries", "title": "Breweries"}], "rating": 4.5, "coordinates": {"latitude": 39.75866024, "longitude": -105.01532625}, "transactions": [], "price": "$$", "location": {"address1": "2355 W 29th Ave", "address2": "", "address3": null, "city": "Denver", "zip_code": "80211", "country": "US", "state": "CO", "display_address": ["2355 W 29th Ave", "Denver, CO 80211"]}, "phone": "+17203284681", "display_phone": "(720) 328-4681", "distance": 4633.899554119695}, {"id": "0voJPd7ActTx0m0AA9nMUQ", "alias": "wild-provisions-beer-project-boulder-2", "name": "Wild Provisions Beer Project", "image_url": "https://s3-media2.fl.yelpcdn.com/bphoto/Br3lz1tW1AYgiJyMpQIC-A/o.jpg", "is_closed": false, "url": "https://www.yelp.com/biz/wild-provisions-beer-project-boulder-2?adjust_creative=OD45_sigUUSBobJ_eVs01w&utm_campaign=yelp_api_v3&utm_medium=api_v3_business_search&utm_source=OD45_sigUUSBobJ_eVs01w", "review_count": 18, "categories": [{"alias": "breweries", "title": "Breweries"}], "rating": 4.5, "coordinates": {"latitude": 40.02216, "longitude": -105.21878}, "transactions": [], "location": {"address1": "2209 Central Ave", "address2": "", "address3": null, "city": "Boulder", "zip_code": "80301", "country": "US", "state": "CO", "display_address": ["2209 Central Ave", "Boulder, CO 80301"]}, "phone": "+13039933598", "display_phone": "(303) 993-3598", "distance": 38274.18894278312}, {"id": "JX4Vc4NhmvqLvebX_Tt3jg", "alias": "denver-beer-company-denver-3", "name": "Denver Beer Company", "image_url": "https://s3-media4.fl.yelpcdn.com/bphoto/jRZGHs4j6OctnDe1-N_P0g/o.jpg", "is_closed": false, "url": "https://www.yelp.com/biz/denver-beer-company-denver-3?adjust_creative=OD45_sigUUSBobJ_eVs01w&utm_campaign=yelp_api_v3&utm_medium=api_v3_business_search&utm_source=OD45_sigUUSBobJ_eVs01w", "review_count": 11, "categories": [{"alias": "breweries", "title": "Breweries"}], "rating": 4.5, "coordinates": {"latitude": 39.716442, "longitude": -104.906237}, "transactions": [], "location": {"address1": "7070 E Lowry Blvd", "address2": "", "address3": null, "city": "Denver", "zip_code": "80230", "country": "US", "state": "CO", "display_address": ["7070 E Lowry Blvd", "Denver, CO 80230"]}, "phone": "+13035005048", "display_phone": "(303) 500-5048", "distance": 5870.934606289306}, {"id": "B-i9sgxQjbmGaSNB36ijUA", "alias": "coal-mine-ave-brewing-company-littleton", "name": "Coal Mine Ave Brewing Company", "image_url": "https://s3-media3.fl.yelpcdn.com/bphoto/q72vfaLtjjqIVBZWQrm84g/o.jpg", "is_closed": false, "url": "https://www.yelp.com/biz/coal-mine-ave-brewing-company-littleton?adjust_creative=OD45_sigUUSBobJ_eVs01w&utm_campaign=yelp_api_v3&utm_medium=api_v3_business_search&utm_source=OD45_sigUUSBobJ_eVs01w", "review_count": 68, "categories": [{"alias": "breweries", "title": "Breweries"}], "rating": 4.5, "coordinates": {"latitude": 39.5961, "longitude": -105.10598}, "transactions": [], "price": "$", "location": {"address1": "9719 W Coal Mine Ave", "address2": "Unit A", "address3": null, "city": "Littleton", "zip_code": "80123", "country": "US", "state": "CO", "display_address": ["9719 W Coal Mine Ave", "Unit A", "Littleton, CO 80123"]}, "phone": "+17205044866", "display_phone": "(720) 504-4866", "distance": 19396.24825569839}, {"id": "7-EkqJbc_jQhBmSY4l60uQ", "alias": "gravity-brewing-louisville", "name": "Gravity Brewing", "image_url": "https://s3-media1.fl.yelpcdn.com/bphoto/tBrFoydCvSs7f1Ky0LO2Qg/o.jpg", "is_closed": false, "url": "https://www.yelp.com/biz/gravity-brewing-louisville?adjust_creative=OD45_sigUUSBobJ_eVs01w&utm_campaign=yelp_api_v3&utm_medium=api_v3_business_search&utm_source=OD45_sigUUSBobJ_eVs01w", "review_count": 110, "categories": [{"alias": "breweries", "title": "Breweries"}], "rating": 4.5, "coordinates": {"latitude": 39.97614, "longitude": -105.12848}, "transactions": [], "price": "$", "location": {"address1": "1150 Pine St", "address2": "Ste B", "address3": "", "city": "Louisville", "zip_code": "80027", "country": "US", "state": "CO", "display_address": ["1150 Pine St", "Ste B", "Louisville, CO 80027"]}, "phone": "+13035440746", "display_phone": "(303) 544-0746", "distance": 29974.265036801957}, {"id": "bUgM1rCIieJihMW_-AhHlQ", "alias": "lone-tree-brewing-lone-tree", "name": "Lone Tree Brewing", "image_url": "https://s3-media3.fl.yelpcdn.com/bphoto/8nbQwv8ZFLKKbzkxWJXu0Q/o.jpg", "is_closed": false, "url": "https://www.yelp.com/biz/lone-tree-brewing-lone-tree?adjust_creative=OD45_sigUUSBobJ_eVs01w&utm_campaign=yelp_api_v3&utm_medium=api_v3_business_search&utm_source=OD45_sigUUSBobJ_eVs01w", "review_count": 209, "categories": [{"alias": "breweries", "title": "Breweries"}], "rating": 4.5, "coordinates": {"latitude": 39.5629781, "longitude": -104.894501}, "transactions": [], "price": "$$", "location": {"address1": "8200 Park Meadows Dr", "address2": "Ste 8222", "address3": "", "city": "Lone Tree", "zip_code": "80124", "country": "US", "state": "CO", "display_address": ["8200 Park Meadows Dr", "Ste 8222", "Lone Tree, CO 80124"]}, "phone": "+13037925822", "display_phone": "(303) 792-5822", "distance": 20252.549868314705}, {"id": "zlKdQn-4UochyxDl5Qu8JA", "alias": "new-image-brewing-arvada-arvada", "name": "New Image Brewing - Arvada", "image_url": "https://s3-media2.fl.yelpcdn.com/bphoto/TanZbCWpkladZy-5iwUIEQ/o.jpg", "is_closed": false, "url": "https://www.yelp.com/biz/new-image-brewing-arvada-arvada?adjust_creative=OD45_sigUUSBobJ_eVs01w&utm_campaign=yelp_api_v3&utm_medium=api_v3_business_search&utm_source=OD45_sigUUSBobJ_eVs01w", "review_count": 265, "categories": [{"alias": "breweries", "title": "Breweries"}], "rating": 4.5, "coordinates": {"latitude": 39.79964491, "longitude": -105.08238829}, "transactions": ["pickup", "delivery"], "price": "$$", "location": {"address1": "5622 Yukon St", "address2": null, "address3": "", "city": "Arvada", "zip_code": "80002", "country": "US", "state": "CO", "display_address": ["5622 Yukon St", "Arvada, CO 80002"]}, "phone": "+17209005620", "display_phone": "(720) 900-5620", "distance": 11945.853799158707}, {"id": "SAB9DCn03FG5mVnD7KnfMQ", "alias": "halfpenny-brewing-centennial-2", "name": "Halfpenny Brewing", "image_url": "https://s3-media2.fl.yelpcdn.com/bphoto/9NVVKrOMxcPC9Jd-N40RjA/o.jpg", "is_closed": false, "url": "https://www.yelp.com/biz/halfpenny-brewing-centennial-2?adjust_creative=OD45_sigUUSBobJ_eVs01w&utm_campaign=yelp_api_v3&utm_medium=api_v3_business_search&utm_source=OD45_sigUUSBobJ_eVs01w", "review_count": 101, "categories": [{"alias": "breweries", "title": "Breweries"}, {"alias": "venues", "title": "Venues & Event Spaces"}], "rating": 4.5, "coordinates": {"latitude": 39.593547, "longitude": -104.927141}, "transactions": [], "price": "$", "location": {"address1": "5150 E Arapahoe Rd", "address2": "Unit D1-B", "address3": "", "city": "Centennial", "zip_code": "80122", "country": "US", "state": "CO", "display_address": ["5150 E Arapahoe Rd", "Unit D1-B", "Centennial, CO 80122"]}, "phone": "+17205830580", "display_phone": "(720) 583-0580", "distance": 16212.545444210118}, {"id": "rA-GxOa4N8j61eGc-lrsEA", "alias": "crooked-stave-friends-and-family-denver", "name": "Crooked Stave Friends & Family", "image_url": "https://s3-media2.fl.yelpcdn.com/bphoto/FUM_oXKQ8V4YIJAN7NYhdw/o.jpg", "is_closed": false, "url": "https://www.yelp.com/biz/crooked-stave-friends-and-family-denver?adjust_creative=OD45_sigUUSBobJ_eVs01w&utm_campaign=yelp_api_v3&utm_medium=api_v3_business_search&utm_source=OD45_sigUUSBobJ_eVs01w", "review_count": 292, "categories": [{"alias": "breweries", "title": "Breweries"}, {"alias": "beerbar", "title": "Beer Bar"}], "rating": 4.5, "coordinates": {"latitude": 39.7806719, "longitude": -105.0046978}, "transactions": [], "price": "$$", "location": {"address1": "1441 W 46th Ave", "address2": "Unit  19", "address3": "", "city": "Denver", "zip_code": "80211", "country": "US", "state": "CO", "display_address": ["1441 W 46th Ave", "Unit  19", "Denver, CO 80211"]}, "phone": "+17205083292", "display_phone": "(720) 508-3292", "distance": 5820.267837222217}, {"id": "rrOGaVSEmIngRXsR0iJQ4w", "alias": "fiction-beer-company-parker-parker", "name": "Fiction Beer Company -Parker", "image_url": "https://s3-media4.fl.yelpcdn.com/bphoto/8sL5cTuNaH4CNOkpsTQgIQ/o.jpg", "is_closed": false, "url": "https://www.yelp.com/biz/fiction-beer-company-parker-parker?adjust_creative=OD45_sigUUSBobJ_eVs01w&utm_campaign=yelp_api_v3&utm_medium=api_v3_business_search&utm_source=OD45_sigUUSBobJ_eVs01w", "review_count": 2, "categories": [{"alias": "beerbar", "title": "Beer Bar"}, {"alias": "breweries", "title": "Breweries"}, {"alias": "kombucha", "title": "Kombucha"}], "rating": 5.0, "coordinates": {"latitude": 39.49439774553132, "longitude": -104.7631716159205}, "transactions": [], "location": {"address1": "19523 Hess Rd", "address2": "Unit 103", "address3": "", "city": "Parker", "zip_code": "80134", "country": "US", "state": "CO", "display_address": ["19523 Hess Rd", "Unit 103", "Parker, CO 80134"]}, "phone": "", "display_phone": "", "distance": 32148.190322047445}, {"id": "gLfUFme-OCTdlsqwiQvunA", "alias": "westfax-brewing-company-denver-2", "name": "WestFax Brewing Company", "image_url": "https://s3-media1.fl.yelpcdn.com/bphoto/ctN68iJePlt_JDcjPH9IEA/o.jpg", "is_closed": false, "url": "https://www.yelp.com/biz/westfax-brewing-company-denver-2?adjust_creative=OD45_sigUUSBobJ_eVs01w&utm_campaign=yelp_api_v3&utm_medium=api_v3_business_search&utm_source=OD45_sigUUSBobJ_eVs01w", "review_count": 97, "categories": [{"alias": "breweries", "title": "Breweries"}, {"alias": "beerbar", "title": "Beer Bar"}], "rating": 4.0, "coordinates": {"latitude": 39.7404587, "longitude": -105.0709687}, "transactions": [], "price": "$", "location": {"address1": "6733 W Colfax Ave", "address2": null, "address3": "", "city": "Denver", "zip_code": "80214", "country": "US", "state": "CO", "display_address": ["6733 W Colfax Ave", "Denver, CO 80214"]}, "phone": "+13032333742", "display_phone": "(303) 233-3742", "distance": 8629.921552212189}, {"id": "ktQoc_Y8-DeMvkFKpuD8KA", "alias": "cannonball-creek-brewing-company-golden", "name": "Cannonball Creek Brewing Company", "image_url": "https://s3-media2.fl.yelpcdn.com/bphoto/Co6uubdYP3smA0FdIZ9QpA/o.jpg", "is_closed": false, "url": "https://www.yelp.com/biz/cannonball-creek-brewing-company-golden?adjust_creative=OD45_sigUUSBobJ_eVs01w&utm_campaign=yelp_api_v3&utm_medium=api_v3_business_search&utm_source=OD45_sigUUSBobJ_eVs01w", "review_count": 207, "categories": [{"alias": "breweries", "title": "Breweries"}], "rating": 4.0, "coordinates": {"latitude": 39.768647, "longitude": -105.235123}, "transactions": [], "price": "$$", "location": {"address1": "393 N Washington Ave", "address2": "", "address3": null, "city": "Golden", "zip_code": "80403", "country": "US", "state": "CO", "display_address": ["393 N Washington Ave", "Golden, CO 80403"]}, "phone": "+13032780111", "display_phone": "(303) 278-0111", "distance": 22941.59073318471}, {"id": "iS92e3guwJVi7zKemXD4WA", "alias": "over-yonder-brewing-golden", "name": "Over Yonder Brewing", "image_url": "https://s3-media1.fl.yelpcdn.com/bphoto/HmAoVhIU4BrOevpt4oLLrw/o.jpg", "is_closed": false, "url": "https://www.yelp.com/biz/over-yonder-brewing-golden?adjust_creative=OD45_sigUUSBobJ_eVs01w&utm_campaign=yelp_api_v3&utm_medium=api_v3_business_search&utm_source=OD45_sigUUSBobJ_eVs01w", "review_count": 55, "categories": [{"alias": "breweries", "title": "Breweries"}], "rating": 4.0, "coordinates": {"latitude": 39.703292, "longitude": -105.205187}, "transactions": [], "price": "$$", "location": {"address1": "18455 W Colfax Ave", "address2": "Ste 103", "address3": null, "city": "Golden", "zip_code": "80401", "country": "US", "state": "CO", "display_address": ["18455 W Colfax Ave", "Ste 103", "Golden, CO 80401"]}, "phone": "+13032780399", "display_phone": "(303) 278-0399", "distance": 20411.48205952072}, {"id": "hF71EeYaVcgdud2GgXXn4w", "alias": "kokopelli-beer-company-westminster", "name": "Kokopelli Beer Company", "image_url": "https://s3-media3.fl.yelpcdn.com/bphoto/oMiZgVFdk7F-u5n0SPGi_A/o.jpg", "is_closed": false, "url": "https://www.yelp.com/biz/kokopelli-beer-company-westminster?adjust_creative=OD45_sigUUSBobJ_eVs01w&utm_campaign=yelp_api_v3&utm_medium=api_v3_business_search&utm_source=OD45_sigUUSBobJ_eVs01w", "review_count": 277, "categories": [{"alias": "breweries", "title": "Breweries"}], "rating": 4.0, "coordinates": {"latitude": 39.8583146184683, "longitude": -105.063910782337}, "transactions": ["delivery", "pickup"], "price": "$$", "location": {"address1": "8931 Harlan St", "address2": null, "address3": "", "city": "Westminster", "zip_code": "80031", "country": "US", "state": "CO", "display_address": ["8931 Harlan St", "Westminster, CO 80031"]}, "phone": "+13032840135", "display_phone": "(303) 284-0135", "distance": 15829.234655194432}, {"id": "NnWcPMdfLUWRvVyB7s4BDg", "alias": "luki-brewery-arvada", "name": "LUKI Brewery", "image_url": "https://s3-media3.fl.yelpcdn.com/bphoto/oxJmEpguCS8s-40OBb43WA/o.jpg", "is_closed": false, "url": "https://www.yelp.com/biz/luki-brewery-arvada?adjust_creative=OD45_sigUUSBobJ_eVs01w&utm_campaign=yelp_api_v3&utm_medium=api_v3_business_search&utm_source=OD45_sigUUSBobJ_eVs01w", "review_count": 26, "categories": [{"alias": "breweries", "title": "Breweries"}], "rating": 4.0, "coordinates": {"latitude": 39.814804, "longitude": -105.164164}, "transactions": [], "location": {"address1": "14715 W 64th Ave", "address2": "Unit A & B", "address3": "", "city": "Arvada", "zip_code": "80004", "country": "US", "state": "CO", "display_address": ["14715 W 64th Ave", "Unit A & B", "Arvada, CO 80004"]}, "phone": "+13034212603", "display_phone": "(303) 421-2603", "distance": 18771.078010340287}, {"id": "NLADqenFRn2dorxKrRS6BA", "alias": "burly-brewing-company-castle-rock-2", "name": "BURLY Brewing Company", "image_url": "https://s3-media4.fl.yelpcdn.com/bphoto/rpcmCu5Q6FjV_Ros8LEdtw/o.jpg", "is_closed": false, "url": "https://www.yelp.com/biz/burly-brewing-company-castle-rock-2?adjust_creative=OD45_sigUUSBobJ_eVs01w&utm_campaign=yelp_api_v3&utm_medium=api_v3_business_search&utm_source=OD45_sigUUSBobJ_eVs01w", "review_count": 102, "categories": [{"alias": "beerbar", "title": "Beer Bar"}, {"alias": "brewpubs", "title": "Brewpubs"}], "rating": 4.0, "coordinates": {"latitude": 39.37544, "longitude": -104.87086}, "transactions": ["delivery"], "price": "$$", "location": {"address1": "680 Atchison Way", "address2": "Ste 800", "address3": "", "city": "Castle Rock", "zip_code": "80109", "country": "US", "state": "CO", "display_address": ["680 Atchison Way", "Ste 800", "Castle Rock, CO 80109"]}, "phone": "+17204860541", "display_phone": "(720) 486-0541", "distance": 40913.44644058164}, {"id": "utyWmoVbNnO4HM-xVxadgw", "alias": "westminster-brewing-westminster", "name": "Westminster Brewing", "image_url": "https://s3-media1.fl.yelpcdn.com/bphoto/yvzqObLBfTSzSbXt4_3DUA/o.jpg", "is_closed": false, "url": "https://www.yelp.com/biz/westminster-brewing-westminster?adjust_creative=OD45_sigUUSBobJ_eVs01w&utm_campaign=yelp_api_v3&utm_medium=api_v3_business_search&utm_source=OD45_sigUUSBobJ_eVs01w", "review_count": 74, "categories": [{"alias": "breweries", "title": "Breweries"}], "rating": 4.0, "coordinates": {"latitude": 39.893116, "longitude": -105.08289883}, "transactions": [], "price": "$$", "location": {"address1": "7655 W 108th Ave", "address2": "Ste 600", "address3": "", "city": "Westminster", "zip_code": "80021", "country": "US", "state": "CO", "display_address": ["7655 W 108th Ave", "Ste 600", "Westminster, CO 80021"]}, "phone": "+17209491932", "display_phone": "(720) 949-1932", "distance": 20002.730845964972}, {"id": "_0GPdu5GeDnVlArKf2KxZQ", "alias": "yak-and-yeti-restaurant-and-brewpub-arvada-2", "name": "Yak and Yeti Restaurant and Brewpub", "image_url": "https://s3-media1.fl.yelpcdn.com/bphoto/h9wAmYZiNPazlOMMuB9fKg/o.jpg", "is_closed": false, "url": "https://www.yelp.com/biz/yak-and-yeti-restaurant-and-brewpub-arvada-2?adjust_creative=OD45_sigUUSBobJ_eVs01w&utm_campaign=yelp_api_v3&utm_medium=api_v3_business_search&utm_source=OD45_sigUUSBobJ_eVs01w", "review_count": 1077, "categories": [{"alias": "indpak", "title": "Indian"}, {"alias": "himalayan", "title": "Himalayan/Nepalese"}, {"alias": "breweries", "title": "Breweries"}], "rating": 4.0, "coordinates": {"latitude": 39.80232, "longitude": -105.08409}, "transactions": ["delivery", "pickup", "restaurant_reservation"], "price": "$$", "location": {"address1": "7803 Ralston Rd", "address2": "", "address3": "", "city": "Arvada", "zip_code": "80002", "country": "US", "state": "CO", "display_address": ["7803 Ralston Rd", "Arvada, CO 80002"]}, "phone": "+13034319000", "display_phone": "(303) 431-9000", "distance": 12252.110206710166}, {"id": "Ild-UbE0ican0q0raoeA4Q", "alias": "downhill-brewing-parker", "name": "Downhill Brewing", "image_url": "https://s3-media2.fl.yelpcdn.com/bphoto/T-ppP3hZ76xL5i_yN_bv7g/o.jpg", "is_closed": false, "url": "https://www.yelp.com/biz/downhill-brewing-parker?adjust_creative=OD45_sigUUSBobJ_eVs01w&utm_campaign=yelp_api_v3&utm_medium=api_v3_business_search&utm_source=OD45_sigUUSBobJ_eVs01w", "review_count": 169, "categories": [{"alias": "breweries", "title": "Breweries"}], "rating": 4.0, "coordinates": {"latitude": 39.527, "longitude": -104.77003}, "transactions": ["delivery"], "price": "$", "location": {"address1": "18921 Plaza Dr", "address2": "Unit 104", "address3": "", "city": "Parker", "zip_code": "80134", "country": "US", "state": "CO", "display_address": ["18921 Plaza Dr", "Unit 104", "Parker, CO 80134"]}, "phone": "+13038052739", "display_phone": "(303) 805-2739", "distance": 28836.656618622103}, {"id": "YFYggTuGAnT2QGUjll7puA", "alias": "jagged-mountain-craft-brewery-denver-2", "name": "Jagged Mountain Craft Brewery", "image_url": "https://s3-media4.fl.yelpcdn.com/bphoto/oJlnbA3oCM6cgOqTQGuaCA/o.jpg", "is_closed": false, "url": "https://www.yelp.com/biz/jagged-mountain-craft-brewery-denver-2?adjust_creative=OD45_sigUUSBobJ_eVs01w&utm_campaign=yelp_api_v3&utm_medium=api_v3_business_search&utm_source=OD45_sigUUSBobJ_eVs01w", "review_count": 334, "categories": [{"alias": "breweries", "title": "Breweries"}], "rating": 4.0, "coordinates": {"latitude": 39.7521494770366, "longitude": -104.991623639461}, "transactions": [], "price": "$$", "location": {"address1": "1139 20th St", "address2": "", "address3": "", "city": "Denver", "zip_code": "80202", "country": "US", "state": "CO", "display_address": ["1139 20th St", "Denver, CO 80202"]}, "phone": "+17206892337", "display_phone": "(720) 689-2337", "distance": 2599.6925793853684}, {"id": "KPH5CzOEnLejOk-cswJAYA", "alias": "southern-sun-pub-and-brewery-boulder", "name": "Southern Sun Pub & Brewery", "image_url": "https://s3-media3.fl.yelpcdn.com/bphoto/9TrOeNOr0qYy1NwFWt1nmw/o.jpg", "is_closed": false, "url": "https://www.yelp.com/biz/southern-sun-pub-and-brewery-boulder?adjust_creative=OD45_sigUUSBobJ_eVs01w&utm_campaign=yelp_api_v3&utm_medium=api_v3_business_search&utm_source=OD45_sigUUSBobJ_eVs01w", "review_count": 500, "categories": [{"alias": "pubs", "title": "Pubs"}, {"alias": "burgers", "title": "Burgers"}, {"alias": "breweries", "title": "Breweries"}], "rating": 4.0, "coordinates": {"latitude": 39.98440409621292, "longitude": -105.24935260881925}, "transactions": ["delivery"], "price": "$$", "location": {"address1": "627 S Broadway", "address2": "", "address3": "", "city": "Boulder", "zip_code": "80305", "country": "US", "state": "CO", "display_address": ["627 S Broadway", "Boulder, CO 80305"]}, "phone": "+13035430886", "display_phone": "(303) 543-0886", "distance": 36515.67880848446}, {"id": "DaMZVw8DTJATt7RMxIYmGg", "alias": "odd13-brewing-lafayette", "name": "Odd13 Brewing", "image_url": "https://s3-media4.fl.yelpcdn.com/bphoto/f-J7wfZhkVL7mGgF6evHDA/o.jpg", "is_closed": false, "url": "https://www.yelp.com/biz/odd13-brewing-lafayette?adjust_creative=OD45_sigUUSBobJ_eVs01w&utm_campaign=yelp_api_v3&utm_medium=api_v3_business_search&utm_source=OD45_sigUUSBobJ_eVs01w", "review_count": 164, "categories": [{"alias": "breweries", "title": "Breweries"}], "rating": 4.0, "coordinates": {"latitude": 39.99852, "longitude": -105.08788}, "transactions": [], "price": "$$", "location": {"address1": "301 E Simpson St", "address2": "", "address3": "", "city": "Lafayette", "zip_code": "80026", "country": "US", "state": "CO", "display_address": ["301 E Simpson St", "Lafayette, CO 80026"]}, "phone": "+13039974164", "display_phone": "(303) 997-4164", "distance": 30903.50681176953}, {"id": "AXGGtIeyKRRfUlZ3SYgu6A", "alias": "colorado-brewery-bus-denver", "name": "Colorado Brewery Bus", "image_url": "https://s3-media2.fl.yelpcdn.com/bphoto/xvY7OydDgPymfBXxx82AEw/o.jpg", "is_closed": false, "url": "https://www.yelp.com/biz/colorado-brewery-bus-denver?adjust_creative=OD45_sigUUSBobJ_eVs01w&utm_campaign=yelp_api_v3&utm_medium=api_v3_business_search&utm_source=OD45_sigUUSBobJ_eVs01w", "review_count": 45, "categories": [{"alias": "breweries", "title": "Breweries"}, {"alias": "tours", "title": "Tours"}], "rating": 4.0, "coordinates": {"latitude": 39.7089865, "longitude": -104.9923935}, "transactions": [], "price": "$$", "location": {"address1": "420 S Cherokee St", "address2": null, "address3": "", "city": "Denver", "zip_code": "80209", "country": "US", "state": "CO", "display_address": ["420 S Cherokee St", "Denver, CO 80209"]}, "phone": "+17204433635", "display_phone": "(720) 443-3635", "distance": 3506.518249081868}, {"id": "yI4pDXfkwe6c7yS5VT8KgA", "alias": "sanitas-brewing-company-boulder", "name": "Sanitas Brewing Company", "image_url": "https://s3-media1.fl.yelpcdn.com/bphoto/1Dn1cCrzXgk5Xzhg6lo0uw/o.jpg", "is_closed": false, "url": "https://www.yelp.com/biz/sanitas-brewing-company-boulder?adjust_creative=OD45_sigUUSBobJ_eVs01w&utm_campaign=yelp_api_v3&utm_medium=api_v3_business_search&utm_source=OD45_sigUUSBobJ_eVs01w", "review_count": 160, "categories": [{"alias": "breweries", "title": "Breweries"}, {"alias": "venues", "title": "Venues & Event Spaces"}], "rating": 4.0, "coordinates": {"latitude": 40.02209, "longitude": -105.24814}, "transactions": [], "price": "$$", "location": {"address1": "3550 Frontier Ave", "address2": "Unit A", "address3": "", "city": "Boulder", "zip_code": "80301", "country": "US", "state": "CO", "display_address": ["3550 Frontier Ave", "Unit A", "Boulder, CO 80301"]}, "phone": "+13034424130", "display_phone": "(303) 442-4130", "distance": 39692.61575475151}, {"id": "Ye0qmUh2iFtnnSyvDyYEZg", "alias": "golden-city-brewery-golden", "name": "Golden City Brewery", "image_url": "https://s3-media4.fl.yelpcdn.com/bphoto/kclsUlo-0I7ght42-FuiSA/o.jpg", "is_closed": false, "url": "https://www.yelp.com/biz/golden-city-brewery-golden?adjust_creative=OD45_sigUUSBobJ_eVs01w&utm_campaign=yelp_api_v3&utm_medium=api_v3_business_search&utm_source=OD45_sigUUSBobJ_eVs01w", "review_count": 237, "categories": [{"alias": "breweries", "title": "Breweries"}], "rating": 4.0, "coordinates": {"latitude": 39.754597, "longitude": -105.223757}, "transactions": ["delivery"], "price": "$$", "location": {"address1": "920 12th St", "address2": "", "address3": "", "city": "Golden", "zip_code": "80403", "country": "US", "state": "CO", "display_address": ["920 12th St", "Golden, CO 80403"]}, "phone": "+13032798092", "display_phone": "(303) 279-8092", "distance": 21778.074384855387}, {"id": "X7_rcSzBOzqpkFUhfA53oA", "alias": "strange-craft-beer-company-denver", "name": "Strange Craft Beer Company", "image_url": "https://s3-media3.fl.yelpcdn.com/bphoto/_XpBULwerMDAWZ0aCBSsoA/o.jpg", "is_closed": false, "url": "https://www.yelp.com/biz/strange-craft-beer-company-denver?adjust_creative=OD45_sigUUSBobJ_eVs01w&utm_campaign=yelp_api_v3&utm_medium=api_v3_business_search&utm_source=OD45_sigUUSBobJ_eVs01w", "review_count": 207, "categories": [{"alias": "breweries", "title": "Breweries"}], "rating": 4.0, "coordinates": {"latitude": 39.7372425522548, "longitude": -105.014891153933}, "transactions": [], "price": "$", "location": {"address1": "1330 Zuni St", "address2": "Unit M", "address3": "", "city": "Denver", "zip_code": "80204", "country": "US", "state": "CO", "display_address": ["1330 Zuni St", "Unit M", "Denver, CO 80204"]}, "phone": "+17209852337", "display_phone": "(720) 985-2337", "distance": 3822.355947118529}, {"id": "TpSuIqyLwZbcbWWOyUF2ig", "alias": "ursula-brewery-aurora", "name": "Ursula Brewery", "image_url": "https://s3-media2.fl.yelpcdn.com/bphoto/pIQ2z6WAf-g0kXWdDjtRuQ/o.jpg", "is_closed": false, "url": "https://www.yelp.com/biz/ursula-brewery-aurora?adjust_creative=OD45_sigUUSBobJ_eVs01w&utm_campaign=yelp_api_v3&utm_medium=api_v3_business_search&utm_source=OD45_sigUUSBobJ_eVs01w", "review_count": 111, "categories": [{"alias": "breweries", "title": "Breweries"}], "rating": 4.0, "coordinates": {"latitude": 39.748367, "longitude": -104.838031}, "transactions": [], "price": "$", "location": {"address1": "2101 N Ursula St", "address2": "Unit 10", "address3": "", "city": "Aurora", "zip_code": "80045", "country": "US", "state": "CO", "display_address": ["2101 N Ursula St", "Unit 10", "Aurora, CO 80045"]}, "phone": "+17203248529", "display_phone": "(720) 324-8529", "distance": 11394.329895962506}, {"id": "wWJkM-QUdIsgLV-pp_bYDQ", "alias": "trve-brewing-denver-3", "name": "TRVE Brewing", "image_url": "https://s3-media4.fl.yelpcdn.com/bphoto/5JYXbtSFsI3XqZJYCFPK5A/o.jpg", "is_closed": false, "url": "https://www.yelp.com/biz/trve-brewing-denver-3?adjust_creative=OD45_sigUUSBobJ_eVs01w&utm_campaign=yelp_api_v3&utm_medium=api_v3_business_search&utm_source=OD45_sigUUSBobJ_eVs01w", "review_count": 270, "categories": [{"alias": "breweries", "title": "Breweries"}, {"alias": "bars", "title": "Bars"}], "rating": 4.0, "coordinates": {"latitude": 39.719934452661974, "longitude": -104.98768265016403}, "transactions": [], "price": "$$", "location": {"address1": "227 Broadway", "address2": "Ste 101", "address3": "", "city": "Denver", "zip_code": "80203", "country": "US", "state": "CO", "display_address": ["227 Broadway", "Ste 101", "Denver, CO 80203"]}, "phone": "+13033511021", "display_phone": "(303) 351-1021", "distance": 2286.6461702921342}, {"id": "x3HmHlDwOPoiifi7a1B-ig", "alias": "fiction-beer-company-denver", "name": "Fiction Beer Company", "image_url": "https://s3-media4.fl.yelpcdn.com/bphoto/1fq9vNS1HdrI2Ev_DxwIng/o.jpg", "is_closed": false, "url": "https://www.yelp.com/biz/fiction-beer-company-denver?adjust_creative=OD45_sigUUSBobJ_eVs01w&utm_campaign=yelp_api_v3&utm_medium=api_v3_business_search&utm_source=OD45_sigUUSBobJ_eVs01w", "review_count": 184, "categories": [{"alias": "breweries", "title": "Breweries"}], "rating": 4.0, "coordinates": {"latitude": 39.7402652353048, "longitude": -104.905581325293}, "transactions": [], "price": "$", "location": {"address1": "7101 E Colfax Ave", "address2": "", "address3": "", "city": "Denver", "zip_code": "80220", "country": "US", "state": "CO", "display_address": ["7101 E Colfax Ave", "Denver, CO 80220"]}, "phone": "+17204567163", "display_phone": "(720) 456-7163", "distance": 5553.935745953027}, {"id": "EAFq88erETEVwbBPrJupag", "alias": "chain-reaction-brewing-company-denver", "name": "Chain Reaction Brewing Company", "image_url": "https://s3-media3.fl.yelpcdn.com/bphoto/Y0lD77DndpRhwAERjXzlyg/o.jpg", "is_closed": false, "url": "https://www.yelp.com/biz/chain-reaction-brewing-company-denver?adjust_creative=OD45_sigUUSBobJ_eVs01w&utm_campaign=yelp_api_v3&utm_medium=api_v3_business_search&utm_source=OD45_sigUUSBobJ_eVs01w", "review_count": 90, "categories": [{"alias": "breweries", "title": "Breweries"}], "rating": 4.0, "coordinates": {"latitude": 39.6995433, "longitude": -105.001399903867}, "transactions": [], "price": "$", "location": {"address1": "902 S Lipan St", "address2": "", "address3": "", "city": "Denver", "zip_code": "80223", "country": "US", "state": "CO", "display_address": ["902 S Lipan St", "Denver, CO 80223"]}, "phone": "+13039220960", "display_phone": "(303) 922-0960", "distance": 4807.049041680947}, {"id": "n8VkF0TDShRd3tgpAlPS4g", "alias": "novel-strand-brewing-company-denver", "name": "Novel Strand Brewing Company", "image_url": "https://s3-media4.fl.yelpcdn.com/bphoto/u2VWn4VofpyGeC6ppa75jQ/o.jpg", "is_closed": false, "url": "https://www.yelp.com/biz/novel-strand-brewing-company-denver?adjust_creative=OD45_sigUUSBobJ_eVs01w&utm_campaign=yelp_api_v3&utm_medium=api_v3_business_search&utm_source=OD45_sigUUSBobJ_eVs01w", "review_count": 45, "categories": [{"alias": "breweries", "title": "Breweries"}], "rating": 4.0, "coordinates": {"latitude": 39.718511588779585, "longitude": -104.99230004198239}, "transactions": [], "price": "$$", "location": {"address1": "305 W 1st Ave", "address2": null, "address3": "", "city": "Denver", "zip_code": "80223", "country": "US", "state": "CO", "display_address": ["305 W 1st Ave", "Denver, CO 80223"]}, "phone": "+17209490246", "display_phone": "(720) 949-0246", "distance": 2671.329049294337}, {"id": "jYKjpxXCh6Z1xu_nYIkjMg", "alias": "two22-brew-centennial", "name": "Two22 Brew", "image_url": "https://s3-media3.fl.yelpcdn.com/bphoto/1JejVnll9TOiIUBNs_vdOA/o.jpg", "is_closed": false, "url": "https://www.yelp.com/biz/two22-brew-centennial?adjust_creative=OD45_sigUUSBobJ_eVs01w&utm_campaign=yelp_api_v3&utm_medium=api_v3_business_search&utm_source=OD45_sigUUSBobJ_eVs01w", "review_count": 133, "categories": [{"alias": "breweries", "title": "Breweries"}], "rating": 4.0, "coordinates": {"latitude": 39.635148987445696, "longitude": -104.75909782698366}, "transactions": [], "price": "$", "location": {"address1": "4550 S Reservoir Rd", "address2": "", "address3": "", "city": "Centennial", "zip_code": "80015", "country": "US", "state": "CO", "display_address": ["4550 S Reservoir Rd", "Centennial, CO 80015"]}, "phone": "+17203289038", "display_phone": "(720) 328-9038", "distance": 21237.504625515907}, {"id": "uxFCD0lG2_YKO6naSrf7SA", "alias": "renegade-brewing-company-denver", "name": "Renegade Brewing Company", "image_url": "https://s3-media1.fl.yelpcdn.com/bphoto/x7ZqppDsGXjk24HL9yJBhA/o.jpg", "is_closed": false, "url": "https://www.yelp.com/biz/renegade-brewing-company-denver?adjust_creative=OD45_sigUUSBobJ_eVs01w&utm_campaign=yelp_api_v3&utm_medium=api_v3_business_search&utm_source=OD45_sigUUSBobJ_eVs01w", "review_count": 290, "categories": [{"alias": "breweries", "title": "Breweries"}], "rating": 4.0, "coordinates": {"latitude": 39.7306171167901, "longitude": -104.999325550926}, "transactions": [], "price": "$", "location": {"address1": "925 West 9th Ave", "address2": "", "address3": "", "city": "Denver", "zip_code": "80204", "country": "US", "state": "CO", "display_address": ["925 West 9th Ave", "Denver, CO 80204"]}, "phone": "+17204014089", "display_phone": "(720) 401-4089", "distance": 2545.871442889547}, {"id": "iejIp0HE3jlo6G90Hc2bsA", "alias": "comrade-brewing-denver", "name": "Comrade Brewing", "image_url": "https://s3-media2.fl.yelpcdn.com/bphoto/dlqu6IT_D0KNsIlK4YLEYw/o.jpg", "is_closed": false, "url": "https://www.yelp.com/biz/comrade-brewing-denver?adjust_creative=OD45_sigUUSBobJ_eVs01w&utm_campaign=yelp_api_v3&utm_medium=api_v3_business_search&utm_source=OD45_sigUUSBobJ_eVs01w", "review_count": 221, "categories": [{"alias": "breweries", "title": "Breweries"}], "rating": 4.0, "coordinates": {"latitude": 39.67572418, "longitude": -104.89843115}, "transactions": [], "price": "$$", "location": {"address1": "7667 E Iliff Ave", "address2": "Ste F", "address3": "", "city": "Denver", "zip_code": "80231", "country": "US", "state": "CO", "display_address": ["7667 E Iliff Ave", "Ste F", "Denver, CO 80231"]}, "phone": "+17207480700", "display_phone": "(720) 748-0700", "distance": 9053.012234476513}, {"id": "e78QfZ3Fnj_z8RHtvn2-Uw", "alias": "blue-moon-brewing-company-denver", "name": "Blue Moon Brewing Company", "image_url": "https://s3-media3.fl.yelpcdn.com/bphoto/OTdnlD0JNqte8Xe_GJTQ2A/o.jpg", "is_closed": false, "url": "https://www.yelp.com/biz/blue-moon-brewing-company-denver?adjust_creative=OD45_sigUUSBobJ_eVs01w&utm_campaign=yelp_api_v3&utm_medium=api_v3_business_search&utm_source=OD45_sigUUSBobJ_eVs01w", "review_count": 664, "categories": [{"alias": "brewpubs", "title": "Brewpubs"}], "rating": 4.0, "coordinates": {"latitude": 39.7737268446, "longitude": -104.977273335194}, "transactions": ["delivery", "pickup"], "price": "$$", "location": {"address1": "3750 Chestnut Pl", "address2": "", "address3": null, "city": "Denver", "zip_code": "80216", "country": "US", "state": "CO", "display_address": ["3750 Chestnut Pl", "Denver, CO 80216"]}, "phone": "+13037282337", "display_phone": "(303) 728-2337", "distance": 4290.208985796229}, {"id": "jwSxRZjckd7Ld43iZvUdGg", "alias": "cerebral-brewing-denver", "name": "Cerebral Brewing", "image_url": "https://s3-media4.fl.yelpcdn.com/bphoto/miABbemjVSNbUb4IXqvJXA/o.jpg", "is_closed": false, "url": "https://www.yelp.com/biz/cerebral-brewing-denver?adjust_creative=OD45_sigUUSBobJ_eVs01w&utm_campaign=yelp_api_v3&utm_medium=api_v3_business_search&utm_source=OD45_sigUUSBobJ_eVs01w", "review_count": 274, "categories": [{"alias": "breweries", "title": "Breweries"}, {"alias": "beerbar", "title": "Beer Bar"}, {"alias": "pubs", "title": "Pubs"}], "rating": 4.0, "coordinates": {"latitude": 39.7396381, "longitude": -104.9451849}, "transactions": [], "price": "$$", "location": {"address1": "1477 Monroe St", "address2": "", "address3": "", "city": "Denver", "zip_code": "80206", "country": "US", "state": "CO", "display_address": ["1477 Monroe St", "Denver, CO 80206"]}, "phone": "+13039277365", "display_phone": "(303) 927-7365", "distance": 2167.791368651556}, {"id": "HADnPyZAsiNQc34eaSyXdQ", "alias": "yak-and-yeti-thornton", "name": "Yak and Yeti", "image_url": "https://s3-media2.fl.yelpcdn.com/bphoto/ERCDPBdcBA7b0TzfO_tMHw/o.jpg", "is_closed": false, "url": "https://www.yelp.com/biz/yak-and-yeti-thornton?adjust_creative=OD45_sigUUSBobJ_eVs01w&utm_campaign=yelp_api_v3&utm_medium=api_v3_business_search&utm_source=OD45_sigUUSBobJ_eVs01w", "review_count": 213, "categories": [{"alias": "indpak", "title": "Indian"}, {"alias": "himalayan", "title": "Himalayan/Nepalese"}, {"alias": "brewpubs", "title": "Brewpubs"}], "rating": 4.0, "coordinates": {"latitude": 39.955223, "longitude": -104.984486}, "transactions": ["delivery", "pickup"], "price": "$$", "location": {"address1": "14312 Lincoln St", "address2": null, "address3": null, "city": "Thornton ", "zip_code": "80023", "country": "US", "state": "CO", "display_address": ["14312 Lincoln St", "Thornton , CO 80023"]}, "phone": "+13034523724", "display_phone": "(303) 452-3724", "distance": 24457.79459252369}, {"id": "e0HiHSLyjI1cMqFmZ4vSEA", "alias": "14er-brewing-denver-2", "name": "14er Brewing", "image_url": "https://s3-media2.fl.yelpcdn.com/bphoto/xVB1QYNuvd_wSafvNr8TGQ/o.jpg", "is_closed": false, "url": "https://www.yelp.com/biz/14er-brewing-denver-2?adjust_creative=OD45_sigUUSBobJ_eVs01w&utm_campaign=yelp_api_v3&utm_medium=api_v3_business_search&utm_source=OD45_sigUUSBobJ_eVs01w", "review_count": 72, "categories": [{"alias": "breweries", "title": "Breweries"}], "rating": 4.0, "coordinates": {"latitude": 39.765009, "longitude": -104.980441}, "transactions": [], "price": "$$", "location": {"address1": "3120 Blake St", "address2": "Unit C", "address3": null, "city": "Denver", "zip_code": "80205", "country": "US", "state": "CO", "display_address": ["3120 Blake St", "Unit C", "Denver, CO 80205"]}, "phone": "+17207731437", "display_phone": "(720) 773-1437", "distance": 3392.4430954837244}, {"id": "0c7ZMOzasO8cMgCHoUoW2w", "alias": "colorado-plus-brew-pub-wheat-ridge", "name": "Colorado Plus Brew Pub", "image_url": "https://s3-media4.fl.yelpcdn.com/bphoto/FgxlDI7DUqDzQhjaWWLGkw/o.jpg", "is_closed": false, "url": "https://www.yelp.com/biz/colorado-plus-brew-pub-wheat-ridge?adjust_creative=OD45_sigUUSBobJ_eVs01w&utm_campaign=yelp_api_v3&utm_medium=api_v3_business_search&utm_source=OD45_sigUUSBobJ_eVs01w", "review_count": 377, "categories": [{"alias": "breweries", "title": "Breweries"}, {"alias": "pubs", "title": "Pubs"}, {"alias": "newamerican", "title": "American (New)"}], "rating": 4.0, "coordinates": {"latitude": 39.7696268, "longitude": -105.0745392}, "transactions": ["delivery", "pickup"], "price": "$$", "location": {"address1": "6995 W 38th Ave", "address2": "", "address3": "", "city": "Wheat Ridge", "zip_code": "80033", "country": "US", "state": "CO", "display_address": ["6995 W 38th Ave", "Wheat Ridge, CO 80033"]}, "phone": "+17203534853", "display_phone": "(720) 353-4853", "distance": 9688.77105871151}, {"id": "pNgtNy-spf2gqJSZebOj5w", "alias": "platt-park-brewing-denver", "name": "Platt Park Brewing", "image_url": "https://s3-media4.fl.yelpcdn.com/bphoto/0-ViCkoi2rv1Yw2t-Q3xSw/o.jpg", "is_closed": false, "url": "https://www.yelp.com/biz/platt-park-brewing-denver?adjust_creative=OD45_sigUUSBobJ_eVs01w&utm_campaign=yelp_api_v3&utm_medium=api_v3_business_search&utm_source=OD45_sigUUSBobJ_eVs01w", "review_count": 176, "categories": [{"alias": "breweries", "title": "Breweries"}], "rating": 4.0, "coordinates": {"latitude": 39.682596, "longitude": -104.980805}, "transactions": [], "price": "$$", "location": {"address1": "1875 S Pearl St", "address2": null, "address3": "", "city": "Denver", "zip_code": "80210", "country": "US", "state": "CO", "display_address": ["1875 S Pearl St", "Denver, CO 80210"]}, "phone": "+13039934002", "display_phone": "(303) 993-4002", "distance": 5955.772794568514}, {"id": "PwhZsjVk3z8muJrALTUrMA", "alias": "denver-beer-co-denver-3", "name": "Denver Beer Co", "image_url": "https://s3-media3.fl.yelpcdn.com/bphoto/8rhAUrMfAYc_zVLVC80TaA/o.jpg", "is_closed": false, "url": "https://www.yelp.com/biz/denver-beer-co-denver-3?adjust_creative=OD45_sigUUSBobJ_eVs01w&utm_campaign=yelp_api_v3&utm_medium=api_v3_business_search&utm_source=OD45_sigUUSBobJ_eVs01w", "review_count": 679, "categories": [{"alias": "breweries", "title": "Breweries"}, {"alias": "venues", "title": "Venues & Event Spaces"}], "rating": 4.0, "coordinates": {"latitude": 39.75832, "longitude": -105.00722}, "transactions": [], "price": "$$", "location": {"address1": "1695 Platte St", "address2": null, "address3": "", "city": "Denver", "zip_code": "80202", "country": "US", "state": "CO", "display_address": ["1695 Platte St", "Denver, CO 80202"]}, "phone": "+13034332739", "display_phone": "(303) 433-2739", "distance": 4055.7717068827556}, {"id": "R8cRvrW24WOYROICkOPCDA", "alias": "great-frontier-brewing-company-lakewood", "name": "Great Frontier Brewing Company", "image_url": "https://s3-media3.fl.yelpcdn.com/bphoto/mAm03SjvUI_7uEbSVj9_Dg/o.jpg", "is_closed": false, "url": "https://www.yelp.com/biz/great-frontier-brewing-company-lakewood?adjust_creative=OD45_sigUUSBobJ_eVs01w&utm_campaign=yelp_api_v3&utm_medium=api_v3_business_search&utm_source=OD45_sigUUSBobJ_eVs01w", "review_count": 53, "categories": [{"alias": "breweries", "title": "Breweries"}], "rating": 4.0, "coordinates": {"latitude": 39.6815298778573, "longitude": -105.117722457672}, "transactions": [], "price": "$", "location": {"address1": "2010 S Oak St", "address2": "", "address3": "", "city": "Lakewood", "zip_code": "80227", "country": "US", "state": "CO", "display_address": ["2010 S Oak St", "Lakewood, CO 80227"]}, "phone": "+17203281758", "display_phone": "(720) 328-1758", "distance": 13971.383433710318}, {"id": "J0owSeEVgPOWlXEOrcuE_w", "alias": "spice-trade-brewing-arvada-2", "name": "Spice Trade Brewing", "image_url": "https://s3-media2.fl.yelpcdn.com/bphoto/VijfOJ4aPQR1AkssJtr0iA/o.jpg", "is_closed": false, "url": "https://www.yelp.com/biz/spice-trade-brewing-arvada-2?adjust_creative=OD45_sigUUSBobJ_eVs01w&utm_campaign=yelp_api_v3&utm_medium=api_v3_business_search&utm_source=OD45_sigUUSBobJ_eVs01w", "review_count": 9, "categories": [{"alias": "beer_and_wine", "title": "Beer, Wine & Spirits"}, {"alias": "breweries", "title": "Breweries"}], "rating": 4.0, "coordinates": {"latitude": 39.80232, "longitude": -105.08409}, "transactions": [], "price": "$", "location": {"address1": "7803 Ralston Rd", "address2": "", "address3": null, "city": "Arvada", "zip_code": "80002", "country": "US", "state": "CO", "display_address": ["7803 Ralston Rd", "Arvada, CO 80002"]}, "phone": "+13034319000", "display_phone": "(303) 431-9000", "distance": 12252.110206710166}, {"id": "C-nJaZKcB7iDxec0xV_rwQ", "alias": "redgarden-restaurant-and-brewery-louisville", "name": "Redgarden Restaurant And Brewery", "image_url": "https://s3-media3.fl.yelpcdn.com/bphoto/hmuld4eKCPi1czzJWz9Wsw/o.jpg", "is_closed": false, "url": "https://www.yelp.com/biz/redgarden-restaurant-and-brewery-louisville?adjust_creative=OD45_sigUUSBobJ_eVs01w&utm_campaign=yelp_api_v3&utm_medium=api_v3_business_search&utm_source=OD45_sigUUSBobJ_eVs01w", "review_count": 66, "categories": [{"alias": "breweries", "title": "Breweries"}, {"alias": "tradamerican", "title": "American (Traditional)"}, {"alias": "soup", "title": "Soup"}], "rating": 4.0, "coordinates": {"latitude": 39.965409, "longitude": -105.116914}, "transactions": ["delivery", "pickup"], "price": "$$", "location": {"address1": "1700 Dogwood St", "address2": "", "address3": null, "city": "Louisville", "zip_code": "80027", "country": "US", "state": "CO", "display_address": ["1700 Dogwood St", "Louisville, CO 80027"]}, "phone": "+13039276361", "display_phone": "(303) 927-6361", "distance": 28463.65469195597}, {"id": "JCny24U3UiucGDlNm7xL2A", "alias": "blue-spruce-brewing-littleton-littleton", "name": "Blue Spruce Brewing - Littleton", "image_url": "https://s3-media1.fl.yelpcdn.com/bphoto/SsHL9H_Ybvakc706we33HQ/o.jpg", "is_closed": false, "url": "https://www.yelp.com/biz/blue-spruce-brewing-littleton-littleton?adjust_creative=OD45_sigUUSBobJ_eVs01w&utm_campaign=yelp_api_v3&utm_medium=api_v3_business_search&utm_source=OD45_sigUUSBobJ_eVs01w", "review_count": 58, "categories": [{"alias": "breweries", "title": "Breweries"}], "rating": 4.0, "coordinates": {"latitude": 39.5679357111889, "longitude": -105.117505006492}, "transactions": ["pickup"], "price": "$", "location": {"address1": "10577 W Centennial Rd", "address2": "Unit A", "address3": null, "city": "Littleton", "zip_code": "80127", "country": "US", "state": "CO", "display_address": ["10577 W Centennial Rd", "Unit A", "Littleton, CO 80127"]}, "phone": "+17202823675", "display_phone": "(720) 282-3675", "distance": 22499.042474111702}, {"id": "GDmUoW3hmokCMAVys8M1PQ", "alias": "the-post-chicken-and-beer-boulder-boulder", "name": "The Post Chicken & Beer", "image_url": "https://s3-media1.fl.yelpcdn.com/bphoto/DfEidzOJd_mzbVNaSNAkig/o.jpg", "is_closed": false, "url": "https://www.yelp.com/biz/the-post-chicken-and-beer-boulder-boulder?adjust_creative=OD45_sigUUSBobJ_eVs01w&utm_campaign=yelp_api_v3&utm_medium=api_v3_business_search&utm_source=OD45_sigUUSBobJ_eVs01w", "review_count": 277, "categories": [{"alias": "breweries", "title": "Breweries"}, {"alias": "chickenshop", "title": "Chicken Shop"}, {"alias": "newamerican", "title": "American (New)"}], "rating": 4.0, "coordinates": {"latitude": 40.018764, "longitude": -105.279075}, "transactions": ["delivery", "pickup"], "price": "$$", "location": {"address1": "2027 13th St", "address2": "", "address3": null, "city": "Boulder", "zip_code": "80302", "country": "US", "state": "CO", "display_address": ["2027 13th St", "Boulder, CO 80302"]}, "phone": "+17203723341", "display_phone": "(720) 372-3341", "distance": 41074.37066335111}, {"id": "LuaDB3zG2jCLMUQtXgitig", "alias": "resolute-brewing-tap-and-cellar-arvada-3", "name": "Resolute Brewing Tap & Cellar", "image_url": "https://s3-media3.fl.yelpcdn.com/bphoto/wy8Owvl1FVqPBSMozWKa_g/o.jpg", "is_closed": false, "url": "https://www.yelp.com/biz/resolute-brewing-tap-and-cellar-arvada-3?adjust_creative=OD45_sigUUSBobJ_eVs01w&utm_campaign=yelp_api_v3&utm_medium=api_v3_business_search&utm_source=OD45_sigUUSBobJ_eVs01w", "review_count": 24, "categories": [{"alias": "breweries", "title": "Breweries"}], "rating": 4.0, "coordinates": {"latitude": 39.863626966516144, "longitude": -105.20497196747088}, "transactions": [], "location": {"address1": "18148 W 92nd Ln", "address2": "Ste 100", "address3": "", "city": "Arvada", "zip_code": "80007", "country": "US", "state": "CO", "display_address": ["18148 W 92nd Ln", "Ste 100", "Arvada, CO 80007"]}, "phone": "+13032849756", "display_phone": "(303) 284-9756", "distance": 24596.9189043373}, {"id": "txfrNIutJNmZmcgdkm8LTQ", "alias": "long-table-brewhouse-denver", "name": "Long Table Brewhouse", "image_url": "https://s3-media1.fl.yelpcdn.com/bphoto/iW_OK56ca9cI-eRfbvJ0gg/o.jpg", "is_closed": false, "url": "https://www.yelp.com/biz/long-table-brewhouse-denver?adjust_creative=OD45_sigUUSBobJ_eVs01w&utm_campaign=yelp_api_v3&utm_medium=api_v3_business_search&utm_source=OD45_sigUUSBobJ_eVs01w", "review_count": 77, "categories": [{"alias": "breweries", "title": "Breweries"}], "rating": 4.0, "coordinates": {"latitude": 39.75822, "longitude": -104.92855}, "transactions": [], "price": "$$", "location": {"address1": "2895 Fairfax St", "address2": "", "address3": null, "city": "Denver", "zip_code": "80207", "country": "US", "state": "CO", "display_address": ["2895 Fairfax St", "Denver, CO 80207"]}, "phone": "+17204860927", "display_phone": "(720) 486-0927", "distance": 4367.121814054323}, {"id": "_GteKUXq5Hx0ZTzzAkUW9g", "alias": "twisted-pine-brewing-company-boulder", "name": "Twisted Pine Brewing Company", "image_url": "https://s3-media3.fl.yelpcdn.com/bphoto/_TeaxOP695AiUBS1GVy24Q/o.jpg", "is_closed": false, "url": "https://www.yelp.com/biz/twisted-pine-brewing-company-boulder?adjust_creative=OD45_sigUUSBobJ_eVs01w&utm_campaign=yelp_api_v3&utm_medium=api_v3_business_search&utm_source=OD45_sigUUSBobJ_eVs01w", "review_count": 348, "categories": [{"alias": "breweries", "title": "Breweries"}, {"alias": "tradamerican", "title": "American (Traditional)"}], "rating": 4.0, "coordinates": {"latitude": 40.0202654, "longitude": -105.2511983}, "transactions": ["delivery", "pickup"], "price": "$$", "location": {"address1": "3201 Walnut St", "address2": "", "address3": "", "city": "Boulder", "zip_code": "80301", "country": "US", "state": "CO", "display_address": ["3201 Walnut St", "Boulder, CO 80301"]}, "phone": "+13037869270", "display_phone": "(303) 786-9270", "distance": 39755.533348429206}, {"id": "IhlfNEl4y6pb2EsQ-dk9GQ", "alias": "elevated-seltzer-arvada-4", "name": "Elevated Seltzer", "image_url": "https://s3-media2.fl.yelpcdn.com/bphoto/ncZUUH690hSTkj4JE5T0cQ/o.jpg", "is_closed": false, "url": "https://www.yelp.com/biz/elevated-seltzer-arvada-4?adjust_creative=OD45_sigUUSBobJ_eVs01w&utm_campaign=yelp_api_v3&utm_medium=api_v3_business_search&utm_source=OD45_sigUUSBobJ_eVs01w", "review_count": 54, "categories": [{"alias": "brewpubs", "title": "Brewpubs"}], "rating": 4.0, "coordinates": {"latitude": 39.799526, "longitude": -105.082336}, "transactions": ["delivery", "pickup"], "price": "$$", "location": {"address1": "5610 Yukon St", "address2": "", "address3": null, "city": "Arvada", "zip_code": "80002", "country": "US", "state": "CO", "display_address": ["5610 Yukon St", "Arvada, CO 80002"]}, "phone": "+17203898627", "display_phone": "(720) 389-8627", "distance": 11934.385558588034}, {"id": "LSaFVxVRJeeCS4Tyuf92cA", "alias": "prost-brewing-co-and-biergarten-highlands-ranch-highlands-ranch", "name": "Prost Brewing Co & Biergarten - Highlands Ranch", "image_url": "https://s3-media3.fl.yelpcdn.com/bphoto/YWQP02604usb709L3i1bAg/o.jpg", "is_closed": false, "url": "https://www.yelp.com/biz/prost-brewing-co-and-biergarten-highlands-ranch-highlands-ranch?adjust_creative=OD45_sigUUSBobJ_eVs01w&utm_campaign=yelp_api_v3&utm_medium=api_v3_business_search&utm_source=OD45_sigUUSBobJ_eVs01w", "review_count": 96, "categories": [{"alias": "beergardens", "title": "Beer Gardens"}, {"alias": "breweries", "title": "Breweries"}], "rating": 4.0, "coordinates": {"latitude": 39.56255, "longitude": -104.98915}, "transactions": [], "price": "$$", "location": {"address1": "53 Centennial Blvd", "address2": null, "address3": "", "city": "Highlands Ranch", "zip_code": "80129", "country": "US", "state": "CO", "display_address": ["53 Centennial Blvd", "Highlands Ranch, CO 80129"]}, "phone": "+17209285570", "display_phone": "(720) 928-5570", "distance": 19298.180033900982}, {"id": "9PQ6K4q50jVpMDlxtbcc9Q", "alias": "mountain-toad-brewing-golden", "name": "Mountain Toad Brewing", "image_url": "https://s3-media1.fl.yelpcdn.com/bphoto/2f_jhGjlXnuBgveeL6nUdw/o.jpg", "is_closed": false, "url": "https://www.yelp.com/biz/mountain-toad-brewing-golden?adjust_creative=OD45_sigUUSBobJ_eVs01w&utm_campaign=yelp_api_v3&utm_medium=api_v3_business_search&utm_source=OD45_sigUUSBobJ_eVs01w", "review_count": 234, "categories": [{"alias": "breweries", "title": "Breweries"}], "rating": 4.0, "coordinates": {"latitude": 39.7580981, "longitude": -105.2242523}, "transactions": [], "price": "$", "location": {"address1": "900 Washington Ave", "address2": null, "address3": "", "city": "Golden", "zip_code": "80401", "country": "US", "state": "CO", "display_address": ["900 Washington Ave", "Golden, CO 80401"]}, "phone": "+17206383244", "display_phone": "(720) 638-3244", "distance": 21860.94394243356}, {"id": "OTN8wP0Es8ZMF_VDZ-spYA", "alias": "joyride-brewing-edgewater-3", "name": "Joyride Brewing", "image_url": "https://s3-media1.fl.yelpcdn.com/bphoto/hlQa79Opecrbjy6clGNOMA/o.jpg", "is_closed": false, "url": "https://www.yelp.com/biz/joyride-brewing-edgewater-3?adjust_creative=OD45_sigUUSBobJ_eVs01w&utm_campaign=yelp_api_v3&utm_medium=api_v3_business_search&utm_source=OD45_sigUUSBobJ_eVs01w", "review_count": 271, "categories": [{"alias": "breweries", "title": "Breweries"}, {"alias": "beergardens", "title": "Beer Gardens"}, {"alias": "beerbar", "title": "Beer Bar"}], "rating": 4.0, "coordinates": {"latitude": 39.7532077, "longitude": -105.053674}, "transactions": [], "price": "$$", "location": {"address1": "2501 Sheridan Blvd", "address2": "", "address3": "", "city": "Edgewater", "zip_code": "80214", "country": "US", "state": "CO", "display_address": ["2501 Sheridan Blvd", "Edgewater, CO 80214"]}, "phone": "+17204327560", "display_phone": "(720) 432-7560", "distance": 7399.057604234543}, {"id": "Eya7NcdysO9e94uSy8P73g", "alias": "denver-beer-co-olde-town-arvada-arvada", "name": "Denver Beer Co Olde Town Arvada", "image_url": "https://s3-media4.fl.yelpcdn.com/bphoto/jaxY5Ppgh7KPk6mZZFKUDA/o.jpg", "is_closed": false, "url": "https://www.yelp.com/biz/denver-beer-co-olde-town-arvada-arvada?adjust_creative=OD45_sigUUSBobJ_eVs01w&utm_campaign=yelp_api_v3&utm_medium=api_v3_business_search&utm_source=OD45_sigUUSBobJ_eVs01w", "review_count": 123, "categories": [{"alias": "breweries", "title": "Breweries"}], "rating": 4.0, "coordinates": {"latitude": 39.8016871, "longitude": -105.0813064}, "transactions": [], "price": "$", "location": {"address1": "5768 Olde Wadsworth Blvd", "address2": null, "address3": "", "city": "Arvada", "zip_code": "80002", "country": "US", "state": "CO", "display_address": ["5768 Olde Wadsworth Blvd", "Arvada, CO 80002"]}, "phone": "+13034332739", "display_phone": "(303) 433-2739", "distance": 11984.038844746454}, {"id": "VJvr1pPvS2_KUrrSdC_5ug", "alias": "breckenridge-brewery-littleton-2", "name": "Breckenridge Brewery", "image_url": "https://s3-media2.fl.yelpcdn.com/bphoto/4Vw3meGwxCeYAen1tBfuNA/o.jpg", "is_closed": false, "url": "https://www.yelp.com/biz/breckenridge-brewery-littleton-2?adjust_creative=OD45_sigUUSBobJ_eVs01w&utm_campaign=yelp_api_v3&utm_medium=api_v3_business_search&utm_source=OD45_sigUUSBobJ_eVs01w", "review_count": 305, "categories": [{"alias": "breweries", "title": "Breweries"}], "rating": 4.0, "coordinates": {"latitude": 39.594287, "longitude": -105.0246389}, "transactions": [], "price": "$$", "location": {"address1": "2990 Brewery Ln", "address2": "", "address3": "", "city": "Littleton", "zip_code": "80120", "country": "US", "state": "CO", "display_address": ["2990 Brewery Ln", "Littleton, CO 80120"]}, "phone": "+13036232739", "display_phone": "(303) 623-2739", "distance": 16380.463256597977}, {"id": "g7wvVCNPwGSS9shG7tFoaw", "alias": "spice-trade-brewery-and-kitchen-greenwood-village-4", "name": "Spice Trade Brewery & Kitchen", "image_url": "https://s3-media3.fl.yelpcdn.com/bphoto/47u72XV-KJGdxIuFsVFLFQ/o.jpg", "is_closed": false, "url": "https://www.yelp.com/biz/spice-trade-brewery-and-kitchen-greenwood-village-4?adjust_creative=OD45_sigUUSBobJ_eVs01w&utm_campaign=yelp_api_v3&utm_medium=api_v3_business_search&utm_source=OD45_sigUUSBobJ_eVs01w", "review_count": 205, "categories": [{"alias": "brewpubs", "title": "Brewpubs"}], "rating": 4.0, "coordinates": {"latitude": 39.6101509383376, "longitude": -104.886284971773}, "transactions": ["delivery"], "price": "$$", "location": {"address1": "8775 E Orchard Rd", "address2": "Unit 811", "address3": null, "city": "Greenwood Village", "zip_code": "80111", "country": "US", "state": "CO", "display_address": ["8775 E Orchard Rd", "Unit 811", "Greenwood Village, CO 80111"]}, "phone": "+17207109508", "display_phone": "(720) 710-9508", "distance": 15683.899469948969}, {"id": "9KVjVUPoBp7LIsGa2OXasw", "alias": "prost-brewing-denver-9", "name": "Prost Brewing", "image_url": "https://s3-media4.fl.yelpcdn.com/bphoto/zLkKgrKxy5uVzOSEYNoWNg/o.jpg", "is_closed": false, "url": "https://www.yelp.com/biz/prost-brewing-denver-9?adjust_creative=OD45_sigUUSBobJ_eVs01w&utm_campaign=yelp_api_v3&utm_medium=api_v3_business_search&utm_source=OD45_sigUUSBobJ_eVs01w", "review_count": 364, "categories": [{"alias": "breweries", "title": "Breweries"}, {"alias": "beergardens", "title": "Beer Gardens"}, {"alias": "german", "title": "German"}], "rating": 4.0, "coordinates": {"latitude": 39.7614592, "longitude": -105.0066456}, "transactions": [], "price": "$$", "location": {"address1": "2540 19th St", "address2": "", "address3": "", "city": "Denver", "zip_code": "80211", "country": "US", "state": "CO", "display_address": ["2540 19th St", "Denver, CO 80211"]}, "phone": "+13037291175", "display_phone": "(303) 729-1175", "distance": 4242.741865022285}, {"id": "MEc4fCN82Pj9Eui1TXBStA", "alias": "dry-dock-brewing-north-dock-aurora", "name": "Dry Dock Brewing - North Dock", "image_url": "https://s3-media1.fl.yelpcdn.com/bphoto/VaE62eMVPU5YkArMWn6gsA/o.jpg", "is_closed": false, "url": "https://www.yelp.com/biz/dry-dock-brewing-north-dock-aurora?adjust_creative=OD45_sigUUSBobJ_eVs01w&utm_campaign=yelp_api_v3&utm_medium=api_v3_business_search&utm_source=OD45_sigUUSBobJ_eVs01w", "review_count": 43, "categories": [{"alias": "breweries", "title": "Breweries"}, {"alias": "venues", "title": "Venues & Event Spaces"}], "rating": 4.0, "coordinates": {"latitude": 39.7564471736415, "longitude": -104.773035272956}, "transactions": [], "price": "$", "location": {"address1": "2801 Tower Rd", "address2": "", "address3": "", "city": "Aurora", "zip_code": "80011", "country": "US", "state": "CO", "display_address": ["2801 Tower Rd", "Aurora, CO 80011"]}, "phone": "+13034005606", "display_phone": "(303) 400-5606", "distance": 17020.464893959434}, {"id": "W9_qn9MiDmx0xDZnH0UYiA", "alias": "the-grateful-gnome-sandwich-shoppe-and-brewery-denver", "name": "The Grateful Gnome Sandwich Shoppe & Brewery", "image_url": "https://s3-media3.fl.yelpcdn.com/bphoto/neQbNdHSTILvu8otJoG2WQ/o.jpg", "is_closed": false, "url": "https://www.yelp.com/biz/the-grateful-gnome-sandwich-shoppe-and-brewery-denver?adjust_creative=OD45_sigUUSBobJ_eVs01w&utm_campaign=yelp_api_v3&utm_medium=api_v3_business_search&utm_source=OD45_sigUUSBobJ_eVs01w", "review_count": 214, "categories": [{"alias": "breweries", "title": "Breweries"}, {"alias": "sandwiches", "title": "Sandwiches"}, {"alias": "delis", "title": "Delis"}], "rating": 4.0, "coordinates": {"latitude": 39.77634, "longitude": -105.04315}, "transactions": ["delivery"], "price": "$$", "location": {"address1": "4369 Stuart St", "address2": "", "address3": null, "city": "Denver", "zip_code": "80212", "country": "US", "state": "CO", "display_address": ["4369 Stuart St", "Denver, CO 80212"]}, "phone": "+17205986863", "display_phone": "(720) 598-6863", "distance": 7722.67050723034}, {"id": "45nKHK6xJkx4Z93Q1Kt6bA", "alias": "the-post-chicken-and-beer-lafayette-lafayette", "name": "The Post Chicken & Beer", "image_url": "https://s3-media2.fl.yelpcdn.com/bphoto/Czl6HsjzQzJNz2zpUxV0Og/o.jpg", "is_closed": false, "url": "https://www.yelp.com/biz/the-post-chicken-and-beer-lafayette-lafayette?adjust_creative=OD45_sigUUSBobJ_eVs01w&utm_campaign=yelp_api_v3&utm_medium=api_v3_business_search&utm_source=OD45_sigUUSBobJ_eVs01w", "review_count": 810, "categories": [{"alias": "breweries", "title": "Breweries"}, {"alias": "newamerican", "title": "American (New)"}, {"alias": "chickenshop", "title": "Chicken Shop"}], "rating": 4.0, "coordinates": {"latitude": 39.994568, "longitude": -105.091341}, "transactions": ["delivery", "pickup"], "price": "$$", "location": {"address1": "105 W Emma St", "address2": "", "address3": "", "city": "Lafayette", "zip_code": "80026", "country": "US", "state": "CO", "display_address": ["105 W Emma St", "Lafayette, CO 80026"]}, "phone": "+13035932066", "display_phone": "(303) 593-2066", "distance": 30599.87397202652}, {"id": "IqC4v53GgZce6TbLqyFa7Q", "alias": "bull-and-bush-denver-3", "name": "Bull & Bush", "image_url": "https://s3-media2.fl.yelpcdn.com/bphoto/qvMxlbOvgEmBPC-LQt2bHQ/o.jpg", "is_closed": false, "url": "https://www.yelp.com/biz/bull-and-bush-denver-3?adjust_creative=OD45_sigUUSBobJ_eVs01w&utm_campaign=yelp_api_v3&utm_medium=api_v3_business_search&utm_source=OD45_sigUUSBobJ_eVs01w", "review_count": 927, "categories": [{"alias": "tradamerican", "title": "American (Traditional)"}, {"alias": "breweries", "title": "Breweries"}, {"alias": "pubs", "title": "Pubs"}], "rating": 4.0, "coordinates": {"latitude": 39.70305732464881, "longitude": -104.93255978008663}, "transactions": ["pickup"], "price": "$$", "location": {"address1": "4700 Cherry Creek Dr S", "address2": "", "address3": "", "city": "Denver", "zip_code": "80246", "country": "US", "state": "CO", "display_address": ["4700 Cherry Creek Dr S", "Denver, CO 80246"]}, "phone": "+13037590333", "display_phone": "(303) 759-0333", "distance": 4839.662732781679}, {"id": "BRNpshHHRFepNGMsGo71cg", "alias": "branch-and-barrel-distilling-centennial", "name": "Branch & Barrel Distilling", "image_url": "https://s3-media2.fl.yelpcdn.com/bphoto/NpHQfj4N8quN36O6jvaQ0g/o.jpg", "is_closed": false, "url": "https://www.yelp.com/biz/branch-and-barrel-distilling-centennial?adjust_creative=OD45_sigUUSBobJ_eVs01w&utm_campaign=yelp_api_v3&utm_medium=api_v3_business_search&utm_source=OD45_sigUUSBobJ_eVs01w", "review_count": 1, "categories": [{"alias": "distilleries", "title": "Distilleries"}, {"alias": "winetours", "title": "Wine Tours"}, {"alias": "breweries", "title": "Breweries"}], "rating": 5.0, "coordinates": {"latitude": 39.58227, "longitude": -104.80985}, "transactions": [], "location": {"address1": "15353 E Hinsdale Cir", "address2": "Ste C", "address3": "", "city": "Centennial", "zip_code": "80112", "country": "US", "state": "CO", "display_address": ["15353 E Hinsdale Cir", "Ste C", "Centennial, CO 80112"]}, "phone": "+13032845502", "display_phone": "(303) 284-5502", "distance": 21895.630590347813}, {"id": "tCq7fnWumo149GweWtnECw", "alias": "wild-blue-yonder-brewing-castle-rock-2", "name": "Wild Blue Yonder Brewing", "image_url": "https://s3-media2.fl.yelpcdn.com/bphoto/RrYtnffMed462LL1z9UaOA/o.jpg", "is_closed": false, "url": "https://www.yelp.com/biz/wild-blue-yonder-brewing-castle-rock-2?adjust_creative=OD45_sigUUSBobJ_eVs01w&utm_campaign=yelp_api_v3&utm_medium=api_v3_business_search&utm_source=OD45_sigUUSBobJ_eVs01w", "review_count": 274, "categories": [{"alias": "brewpubs", "title": "Brewpubs"}], "rating": 4.0, "coordinates": {"latitude": 39.3751761, "longitude": -104.8601926}, "transactions": ["delivery"], "price": "$$", "location": {"address1": "519 Wilcox St", "address2": null, "address3": "", "city": "Castle Rock", "zip_code": "80104", "country": "US", "state": "CO", "display_address": ["519 Wilcox St", "Castle Rock, CO 80104"]}, "phone": "+13038143663", "display_phone": "(303) 814-3663", "distance": 41164.68690929302}, {"id": "L-HBWYs69Rb992elIwUsCw", "alias": "the-source-denver", "name": "The Source", "image_url": "https://s3-media2.fl.yelpcdn.com/bphoto/L0IRrvC_ttSm4OjKa2FLdA/o.jpg", "is_closed": false, "url": "https://www.yelp.com/biz/the-source-denver?adjust_creative=OD45_sigUUSBobJ_eVs01w&utm_campaign=yelp_api_v3&utm_medium=api_v3_business_search&utm_source=OD45_sigUUSBobJ_eVs01w", "review_count": 295, "categories": [{"alias": "food_court", "title": "Food Court"}, {"alias": "breweries", "title": "Breweries"}, {"alias": "foodstands", "title": "Food Stands"}], "rating": 4.0, "coordinates": {"latitude": 39.76891216433065, "longitude": -104.98022348435467}, "transactions": [], "price": "$$", "location": {"address1": "3350 Brighton Blvd", "address2": "", "address3": "", "city": "Denver", "zip_code": "80216", "country": "US", "state": "CO", "display_address": ["3350 Brighton Blvd", "Denver, CO 80216"]}, "phone": "+17204431135", "display_phone": "(720) 443-1135", "distance": 3809.3024999491995}, {"id": "HeuiYlHfroqHO7V3N3P_kw", "alias": "j-moes-brewing-company-denver", "name": "J Moe's Brewing Company", "image_url": "https://s3-media4.fl.yelpcdn.com/bphoto/FtgorcHnjBElj1FfOJkL9g/o.jpg", "is_closed": false, "url": "https://www.yelp.com/biz/j-moes-brewing-company-denver?adjust_creative=OD45_sigUUSBobJ_eVs01w&utm_campaign=yelp_api_v3&utm_medium=api_v3_business_search&utm_source=OD45_sigUUSBobJ_eVs01w", "review_count": 40, "categories": [{"alias": "brewpubs", "title": "Brewpubs"}], "rating": 4.0, "coordinates": {"latitude": 39.829444, "longitude": -104.97708}, "transactions": ["pickup", "delivery"], "price": "$", "location": {"address1": "7314 Washington St", "address2": null, "address3": "", "city": "Denver", "zip_code": "80229", "country": "US", "state": "CO", "display_address": ["7314 Washington St", "Denver, CO 80229"]}, "phone": "+17206399149", "display_phone": "(720) 639-9149", "distance": 10459.709818480009}, {"id": "IDaAaTy4tSbusaTNHJJnIw", "alias": "our-mutual-friend-brewing-company-denver-2", "name": "Our Mutual Friend Brewing Company", "image_url": "https://s3-media2.fl.yelpcdn.com/bphoto/5WfD2yH6jw7ZFTrT4fYfqA/o.jpg", "is_closed": false, "url": "https://www.yelp.com/biz/our-mutual-friend-brewing-company-denver-2?adjust_creative=OD45_sigUUSBobJ_eVs01w&utm_campaign=yelp_api_v3&utm_medium=api_v3_business_search&utm_source=OD45_sigUUSBobJ_eVs01w", "review_count": 329, "categories": [{"alias": "breweries", "title": "Breweries"}], "rating": 4.0, "coordinates": {"latitude": 39.76057, "longitude": -104.98221}, "transactions": [], "price": "$$", "location": {"address1": "2810 Larimer St", "address2": "", "address3": "", "city": "Denver", "zip_code": "80205", "country": "US", "state": "CO", "display_address": ["2810 Larimer St", "Denver, CO 80205"]}, "phone": "+13032963441", "display_phone": "(303) 296-3441", "distance": 2964.699947634504}, {"id": "ODjV2dU6Aq5BcBfeef6bxQ", "alias": "lariat-lodge-brewing-evergreen-2", "name": "Lariat Lodge Brewing", "image_url": "https://s3-media4.fl.yelpcdn.com/bphoto/ezeASFrL81bYMqEeDdLR9Q/o.jpg", "is_closed": false, "url": "https://www.yelp.com/biz/lariat-lodge-brewing-evergreen-2?adjust_creative=OD45_sigUUSBobJ_eVs01w&utm_campaign=yelp_api_v3&utm_medium=api_v3_business_search&utm_source=OD45_sigUUSBobJ_eVs01w", "review_count": 508, "categories": [{"alias": "brewpubs", "title": "Brewpubs"}, {"alias": "tradamerican", "title": "American (Traditional)"}, {"alias": "venues", "title": "Venues & Event Spaces"}], "rating": 4.0, "coordinates": {"latitude": 39.6384585, "longitude": -105.3142601}, "transactions": [], "price": "$$", "location": {"address1": "27618 Fireweed Dr", "address2": "", "address3": "", "city": "Evergreen", "zip_code": "80439", "country": "US", "state": "CO", "display_address": ["27618 Fireweed Dr", "Evergreen, CO 80439"]}, "phone": "+13036741842", "display_phone": "(303) 674-1842", "distance": 31353.39773560046}, {"id": "790dA7SS_aatLRUIS1-Qxw", "alias": "hogshead-brewery-denver", "name": "Hogshead Brewery", "image_url": "https://s3-media4.fl.yelpcdn.com/bphoto/DegLEkgWFXC-nkkN8qcSGw/o.jpg", "is_closed": false, "url": "https://www.yelp.com/biz/hogshead-brewery-denver?adjust_creative=OD45_sigUUSBobJ_eVs01w&utm_campaign=yelp_api_v3&utm_medium=api_v3_business_search&utm_source=OD45_sigUUSBobJ_eVs01w", "review_count": 188, "categories": [{"alias": "breweries", "title": "Breweries"}], "rating": 4.0, "coordinates": {"latitude": 39.7582499, "longitude": -105.0451099}, "transactions": [], "price": "$$", "location": {"address1": "4460 W 29th Ave", "address2": "", "address3": "", "city": "Denver", "zip_code": "80212", "country": "US", "state": "CO", "display_address": ["4460 W 29th Ave", "Denver, CO 80212"]}, "phone": "+13034953105", "display_phone": "(303) 495-3105", "distance": 6873.602755087942}, {"id": "AgwDLhk8wPuUxymVAmF0SA", "alias": "great-divide-barrel-bar-denver-2", "name": "Great Divide Barrel Bar", "image_url": "https://s3-media2.fl.yelpcdn.com/bphoto/XBQEmWt0q5zy9X3M5auMjw/o.jpg", "is_closed": false, "url": "https://www.yelp.com/biz/great-divide-barrel-bar-denver-2?adjust_creative=OD45_sigUUSBobJ_eVs01w&utm_campaign=yelp_api_v3&utm_medium=api_v3_business_search&utm_source=OD45_sigUUSBobJ_eVs01w", "review_count": 122, "categories": [{"alias": "breweries", "title": "Breweries"}, {"alias": "beerbar", "title": "Beer Bar"}, {"alias": "beertours", "title": "Beer Tours"}], "rating": 4.0, "coordinates": {"latitude": 39.770295971246, "longitude": -104.979200350572}, "transactions": [], "price": "$$", "location": {"address1": "1812 35th St", "address2": "", "address3": "", "city": "Denver", "zip_code": "80216", "country": "US", "state": "CO", "display_address": ["1812 35th St", "Denver, CO 80216"]}, "phone": "+13032969460", "display_phone": "(303) 296-9460", "distance": 3941.4974508811924}, {"id": "oOu78qNPZT8H1vKuzjTHLQ", "alias": "so-many-roads-museum-and-brewery-denver", "name": "So Many Roads Museum and Brewery", "image_url": "https://s3-media4.fl.yelpcdn.com/bphoto/2hAgdxeygWpJhKwsIbG38A/o.jpg", "is_closed": false, "url": "https://www.yelp.com/biz/so-many-roads-museum-and-brewery-denver?adjust_creative=OD45_sigUUSBobJ_eVs01w&utm_campaign=yelp_api_v3&utm_medium=api_v3_business_search&utm_source=OD45_sigUUSBobJ_eVs01w", "review_count": 15, "categories": [{"alias": "musicvenues", "title": "Music Venues"}, {"alias": "breweries", "title": "Breweries"}, {"alias": "museums", "title": "Museums"}], "rating": 4.0, "coordinates": {"latitude": 39.7176452, "longitude": -104.9992656}, "transactions": [], "location": {"address1": "918 W 1st Ave", "address2": "", "address3": null, "city": "Denver", "zip_code": "80223", "country": "US", "state": "CO", "display_address": ["918 W 1st Ave", "Denver, CO 80223"]}, "phone": "+17202773211", "display_phone": "(720) 277-3211", "distance": 3179.9023311489286}, {"id": "qbzdUulgPIrqfgGFM22KxQ", "alias": "black-sky-brewery-denver", "name": "Black Sky Brewery", "image_url": "https://s3-media4.fl.yelpcdn.com/bphoto/B4ZLFrNBMO8KR_t0BuWVpg/o.jpg", "is_closed": false, "url": "https://www.yelp.com/biz/black-sky-brewery-denver?adjust_creative=OD45_sigUUSBobJ_eVs01w&utm_campaign=yelp_api_v3&utm_medium=api_v3_business_search&utm_source=OD45_sigUUSBobJ_eVs01w", "review_count": 215, "categories": [{"alias": "breweries", "title": "Breweries"}, {"alias": "pizza", "title": "Pizza"}], "rating": 4.0, "coordinates": {"latitude": 39.723938, "longitude": -104.998298}, "transactions": ["delivery", "pickup"], "price": "$$", "location": {"address1": "490 Santa Fe Dr", "address2": "", "address3": "", "city": "Denver", "zip_code": "80204", "country": "US", "state": "CO", "display_address": ["490 Santa Fe Dr", "Denver, CO 80204"]}, "phone": "+17207085816", "display_phone": "(720) 708-5816", "distance": 2723.0117039947568}, {"id": "xThkKw_h0cauolgYgjy2Ag", "alias": "flyteco-tower-denver", "name": "FlyteCo Tower", "image_url": "https://s3-media1.fl.yelpcdn.com/bphoto/luKhpKMPk0vEMsCz_K0Oug/o.jpg", "is_closed": false, "url": "https://www.yelp.com/biz/flyteco-tower-denver?adjust_creative=OD45_sigUUSBobJ_eVs01w&utm_campaign=yelp_api_v3&utm_medium=api_v3_business_search&utm_source=OD45_sigUUSBobJ_eVs01w", "review_count": 73, "categories": [{"alias": "breweries", "title": "Breweries"}, {"alias": "mini_golf", "title": "Mini Golf"}, {"alias": "pizza", "title": "Pizza"}], "rating": 4.0, "coordinates": {"latitude": 39.76068246015878, "longitude": -104.89203960753319}, "transactions": [], "price": "$$", "location": {"address1": "3120 Uinta St", "address2": "", "address3": null, "city": "Denver", "zip_code": "80238", "country": "US", "state": "CO", "display_address": ["3120 Uinta St", "Denver, CO 80238"]}, "phone": "+17207088833", "display_phone": "(720) 708-8833", "distance": 7247.730722394353}, {"id": "pzqhX1JJizQUxLV4yRAlZw", "alias": "grist-brewing-highlands-ranch", "name": "Grist Brewing", "image_url": "https://s3-media2.fl.yelpcdn.com/bphoto/wPi91wpXMfdHzOP03B8vVg/o.jpg", "is_closed": false, "url": "https://www.yelp.com/biz/grist-brewing-highlands-ranch?adjust_creative=OD45_sigUUSBobJ_eVs01w&utm_campaign=yelp_api_v3&utm_medium=api_v3_business_search&utm_source=OD45_sigUUSBobJ_eVs01w", "review_count": 163, "categories": [{"alias": "breweries", "title": "Breweries"}], "rating": 4.0, "coordinates": {"latitude": 39.5491124, "longitude": -105.0339158}, "transactions": ["delivery"], "price": "$$", "location": {"address1": "9150 Commerce Center Cir", "address2": "Ste 300", "address3": "", "city": "Highlands Ranch", "zip_code": "80129", "country": "US", "state": "CO", "display_address": ["9150 Commerce Center Cir", "Ste 300", "Highlands Ranch, CO 80129"]}, "phone": "+17203604782", "display_phone": "(720) 360-4782", "distance": 21432.98014886568}, {"id": "QgwfMcFmw1Scfz2Oq6EhOA", "alias": "blue-spruce-brewing-centennial-centennial", "name": "Blue Spruce Brewing - Centennial", "image_url": "https://s3-media4.fl.yelpcdn.com/bphoto/aO-BrsVBhWoaDUOx6zEcqw/o.jpg", "is_closed": false, "url": "https://www.yelp.com/biz/blue-spruce-brewing-centennial-centennial?adjust_creative=OD45_sigUUSBobJ_eVs01w&utm_campaign=yelp_api_v3&utm_medium=api_v3_business_search&utm_source=OD45_sigUUSBobJ_eVs01w", "review_count": 233, "categories": [{"alias": "breweries", "title": "Breweries"}], "rating": 4.0, "coordinates": {"latitude": 39.566169, "longitude": -104.939818}, "transactions": ["delivery"], "price": "$$", "location": {"address1": "4151 E County Line Rd", "address2": "Unit G", "address3": "", "city": "Centennial", "zip_code": "80122", "country": "US", "state": "CO", "display_address": ["4151 E County Line Rd", "Unit G", "Centennial, CO 80122"]}, "phone": "+13037710590", "display_phone": "(303) 771-0590", "distance": 18902.386669581836}, {"id": "HIsE3334wYYU098HDPQsfg", "alias": "grange-food-hall-greenwood-village", "name": "Grange Food Hall", "image_url": "https://s3-media2.fl.yelpcdn.com/bphoto/9bheH6OAfDfARLr6D-oYew/o.jpg", "is_closed": false, "url": "https://www.yelp.com/biz/grange-food-hall-greenwood-village?adjust_creative=OD45_sigUUSBobJ_eVs01w&utm_campaign=yelp_api_v3&utm_medium=api_v3_business_search&utm_source=OD45_sigUUSBobJ_eVs01w", "review_count": 104, "categories": [{"alias": "tradamerican", "title": "American (Traditional)"}, {"alias": "cocktailbars", "title": "Cocktail Bars"}, {"alias": "breweries", "title": "Breweries"}], "rating": 4.0, "coordinates": {"latitude": 39.597317, "longitude": -104.895749}, "transactions": [], "price": "$$", "location": {"address1": "6575 Greenwood Plaza Blvd", "address2": null, "address3": null, "city": "Greenwood Village", "zip_code": "80111", "country": "US", "state": "CO", "display_address": ["6575 Greenwood Plaza Blvd", "Greenwood Village, CO 80111"]}, "phone": "+17207608247", "display_phone": "(720) 760-8247", "distance": 16639.859121723952}, {"id": "LutLmUNhhJBJ6phgpKrJdA", "alias": "bierstadt-lagerhaus-denver", "name": "Bierstadt Lagerhaus", "image_url": "https://s3-media1.fl.yelpcdn.com/bphoto/JKyzUkaRMYNBdRv7XE-RyQ/o.jpg", "is_closed": false, "url": "https://www.yelp.com/biz/bierstadt-lagerhaus-denver?adjust_creative=OD45_sigUUSBobJ_eVs01w&utm_campaign=yelp_api_v3&utm_medium=api_v3_business_search&utm_source=OD45_sigUUSBobJ_eVs01w", "review_count": 153, "categories": [{"alias": "breweries", "title": "Breweries"}], "rating": 4.0, "coordinates": {"latitude": 39.76281, "longitude": -104.98398}, "transactions": ["delivery"], "price": "$$", "location": {"address1": "2875 Blake St", "address2": "", "address3": null, "city": "Denver", "zip_code": "80205", "country": "US", "state": "CO", "display_address": ["2875 Blake St", "Denver, CO 80205"]}, "phone": "+17205707824", "display_phone": "(720) 570-7824", "distance": 3267.690908963169}, {"id": "nFxrdIUDenNKaY9CyXxzVA", "alias": "good-river-beer-denver", "name": "Good River Beer", "image_url": "https://s3-media1.fl.yelpcdn.com/bphoto/N9zQTmhfvkJVn9GLfD9JEg/o.jpg", "is_closed": false, "url": "https://www.yelp.com/biz/good-river-beer-denver?adjust_creative=OD45_sigUUSBobJ_eVs01w&utm_campaign=yelp_api_v3&utm_medium=api_v3_business_search&utm_source=OD45_sigUUSBobJ_eVs01w", "review_count": 2, "categories": [{"alias": "breweries", "title": "Breweries"}], "rating": 4.5, "coordinates": {"latitude": 39.71766, "longitude": -104.99924}, "transactions": [], "location": {"address1": "918 W 1st Ave", "address2": null, "address3": "", "city": "Denver", "zip_code": "80223", "country": "US", "state": "CO", "display_address": ["918 W 1st Ave", "Denver, CO 80223"]}, "phone": "", "display_phone": "", "distance": 3179.9023311489286}, {"id": "fORalsfyGAG1wBY06Omk-Q", "alias": "tivoli-brewing-company-denver", "name": "Tivoli Brewing Company", "image_url": "https://s3-media2.fl.yelpcdn.com/bphoto/F0DWTWlKtA9vuuqW0hEG5g/o.jpg", "is_closed": false, "url": "https://www.yelp.com/biz/tivoli-brewing-company-denver?adjust_creative=OD45_sigUUSBobJ_eVs01w&utm_campaign=yelp_api_v3&utm_medium=api_v3_business_search&utm_source=OD45_sigUUSBobJ_eVs01w", "review_count": 123, "categories": [{"alias": "breweries", "title": "Breweries"}], "rating": 3.5, "coordinates": {"latitude": 39.7455531230783, "longitude": -105.00545719466385}, "transactions": ["delivery"], "price": "$", "location": {"address1": "900 Auraria Pkwy", "address2": "Ste 240", "address3": "", "city": "Denver", "zip_code": "80204", "country": "US", "state": "CO", "display_address": ["900 Auraria Pkwy", "Ste 240", "Denver, CO 80204"]}, "phone": "+17209903829", "display_phone": "(720) 990-3829", "distance": 3210.607067836416}, {"id": "rY6nzLptDIfZ2XA205u-rA", "alias": "oskar-blues-denver-denver-4", "name": "Oskar Blues - Denver", "image_url": "https://s3-media4.fl.yelpcdn.com/bphoto/GOKwYUoJ3YgRDCqSDtU9dQ/o.jpg", "is_closed": false, "url": "https://www.yelp.com/biz/oskar-blues-denver-denver-4?adjust_creative=OD45_sigUUSBobJ_eVs01w&utm_campaign=yelp_api_v3&utm_medium=api_v3_business_search&utm_source=OD45_sigUUSBobJ_eVs01w", "review_count": 341, "categories": [{"alias": "brewpubs", "title": "Brewpubs"}, {"alias": "newamerican", "title": "American (New)"}, {"alias": "burgers", "title": "Burgers"}], "rating": 3.5, "coordinates": {"latitude": 39.75016505244018, "longitude": -104.99765791921956}, "transactions": ["delivery", "pickup"], "price": "$$", "location": {"address1": "1624 Market St", "address2": "", "address3": null, "city": "Denver", "zip_code": "80202", "country": "US", "state": "CO", "display_address": ["1624 Market St", "Denver, CO 80202"]}, "phone": "+17205023535", "display_phone": "(720) 502-3535", "distance": 2853.7034812366355}, {"id": "fsP5zLIRLf0gcuZpI94eYw", "alias": "wynkoop-brewing-denver-2", "name": "Wynkoop Brewing", "image_url": "https://s3-media2.fl.yelpcdn.com/bphoto/tXVkfNFrg2b9X71KxvPlhw/o.jpg", "is_closed": false, "url": "https://www.yelp.com/biz/wynkoop-brewing-denver-2?adjust_creative=OD45_sigUUSBobJ_eVs01w&utm_campaign=yelp_api_v3&utm_medium=api_v3_business_search&utm_source=OD45_sigUUSBobJ_eVs01w", "review_count": 1450, "categories": [{"alias": "tradamerican", "title": "American (Traditional)"}, {"alias": "brewpubs", "title": "Brewpubs"}, {"alias": "tacos", "title": "Tacos"}], "rating": 3.5, "coordinates": {"latitude": 39.75344391, "longitude": -104.99849775}, "transactions": ["pickup", "restaurant_reservation", "delivery"], "price": "$$", "location": {"address1": "1634 18th St", "address2": "", "address3": "", "city": "Denver", "zip_code": "80202", "country": "US", "state": "CO", "display_address": ["1634 18th St", "Denver, CO 80202"]}, "phone": "+13032972700", "display_phone": "(303) 297-2700", "distance": 3131.3132008245825}, {"id": "rV_dJC6p4uFkVX7yEi7X6w", "alias": "windfall-brewing-westminster", "name": "Windfall Brewing", "image_url": "https://s3-media2.fl.yelpcdn.com/bphoto/oEnzt2nsguzlO2D78H5iUw/o.jpg", "is_closed": false, "url": "https://www.yelp.com/biz/windfall-brewing-westminster?adjust_creative=OD45_sigUUSBobJ_eVs01w&utm_campaign=yelp_api_v3&utm_medium=api_v3_business_search&utm_source=OD45_sigUUSBobJ_eVs01w", "review_count": 76, "categories": [{"alias": "steak", "title": "Steakhouses"}, {"alias": "breweries", "title": "Breweries"}, {"alias": "newamerican", "title": "American (New)"}], "rating": 3.5, "coordinates": {"latitude": 39.96260170000001, "longitude": -104.9930577}, "transactions": [], "price": "$$", "location": {"address1": "14694 Orchard Pkwy", "address2": "Ste 400", "address3": null, "city": "Westminster", "zip_code": "80023", "country": "US", "state": "CO", "display_address": ["14694 Orchard Pkwy", "Ste 400", "Westminster, CO 80023"]}, "phone": "", "display_phone": "", "distance": 25324.8254376754}, {"id": "BaMVYWSs4r0PcWQFLCE4UA", "alias": "lariat-lodge-brewing-company-littleton-3", "name": "Lariat Lodge Brewing Company", "image_url": "https://s3-media4.fl.yelpcdn.com/bphoto/tU3j_FY8FH47AIb8D_UuRw/o.jpg", "is_closed": false, "url": "https://www.yelp.com/biz/lariat-lodge-brewing-company-littleton-3?adjust_creative=OD45_sigUUSBobJ_eVs01w&utm_campaign=yelp_api_v3&utm_medium=api_v3_business_search&utm_source=OD45_sigUUSBobJ_eVs01w", "review_count": 131, "categories": [{"alias": "breweries", "title": "Breweries"}, {"alias": "burgers", "title": "Burgers"}, {"alias": "sandwiches", "title": "Sandwiches"}], "rating": 3.5, "coordinates": {"latitude": 39.579523623857256, "longitude": -105.1404436078529}, "transactions": ["delivery"], "price": "$$", "location": {"address1": "12684 W Indore Pl", "address2": null, "address3": "", "city": "Littleton", "zip_code": "80127", "country": "US", "state": "CO", "display_address": ["12684 W Indore Pl", "Littleton, CO 80127"]}, "phone": "+13039790797", "display_phone": "(303) 979-0797", "distance": 22653.5427053989}, {"id": "uIsFW4LdwRgDOsoKJXNK8g", "alias": "wonderland-brewing-broomfield", "name": "Wonderland Brewing", "image_url": "https://s3-media1.fl.yelpcdn.com/bphoto/guFEHC89yfganh_c_wS-SQ/o.jpg", "is_closed": false, "url": "https://www.yelp.com/biz/wonderland-brewing-broomfield?adjust_creative=OD45_sigUUSBobJ_eVs01w&utm_campaign=yelp_api_v3&utm_medium=api_v3_business_search&utm_source=OD45_sigUUSBobJ_eVs01w", "review_count": 233, "categories": [{"alias": "breweries", "title": "Breweries"}], "rating": 3.5, "coordinates": {"latitude": 39.91309, "longitude": -105.05589}, "transactions": ["delivery"], "price": "$$", "location": {"address1": "5450 W 120th Ave", "address2": "", "address3": "", "city": "Broomfield", "zip_code": "80020", "country": "US", "state": "CO", "display_address": ["5450 W 120th Ave", "Broomfield, CO 80020"]}, "phone": "+13039530400", "display_phone": "(303) 953-0400", "distance": 21078.760889389214}, {"id": "lPJILDNOkFYY5IilAwlUyQ", "alias": "frolic-brewing-westminster", "name": "Frolic Brewing", "image_url": "https://s3-media2.fl.yelpcdn.com/bphoto/RgTe72H865THSj9H8QQ7qA/o.jpg", "is_closed": false, "url": "https://www.yelp.com/biz/frolic-brewing-westminster?adjust_creative=OD45_sigUUSBobJ_eVs01w&utm_campaign=yelp_api_v3&utm_medium=api_v3_business_search&utm_source=OD45_sigUUSBobJ_eVs01w", "review_count": 125, "categories": [{"alias": "breweries", "title": "Breweries"}], "rating": 3.5, "coordinates": {"latitude": 39.9304956465138, "longitude": -105.014900118113}, "transactions": ["delivery"], "price": "$$", "location": {"address1": "12910 Zuni St", "address2": "Ste 1300", "address3": null, "city": "Westminster", "zip_code": "80234", "country": "US", "state": "CO", "display_address": ["12910 Zuni St", "Ste 1300", "Westminster, CO 80234"]}, "phone": "+13039937443", "display_phone": "(303) 993-7443", "distance": 22012.564337778986}, {"id": "GOab5GzDqAOcZMiD6zGBuA", "alias": "pints-pub-denver", "name": "Pints Pub", "image_url": "https://s3-media2.fl.yelpcdn.com/bphoto/UPnkfMQCdm8NAuE2qFsvGg/o.jpg", "is_closed": false, "url": "https://www.yelp.com/biz/pints-pub-denver?adjust_creative=OD45_sigUUSBobJ_eVs01w&utm_campaign=yelp_api_v3&utm_medium=api_v3_business_search&utm_source=OD45_sigUUSBobJ_eVs01w", "review_count": 377, "categories": [{"alias": "british", "title": "British"}, {"alias": "brewpubs", "title": "Brewpubs"}], "rating": 3.5, "coordinates": {"latitude": 39.7369507874749, "longitude": -104.99083205148767}, "transactions": ["pickup", "delivery"], "price": "$$", "location": {"address1": "221 W 13th Ave", "address2": "", "address3": "", "city": "Denver", "zip_code": "80204", "country": "US", "state": "CO", "display_address": ["221 W 13th Ave", "Denver, CO 80204"]}, "phone": "+13035347543", "display_phone": "(303) 534-7543", "distance": 1767.4654344435662}, {"id": "FejrVKGwbcpnGcZ-mIZvlg", "alias": "echo-brewing-erie-3", "name": "Echo Brewing", "image_url": "https://s3-media1.fl.yelpcdn.com/bphoto/UheUbq9-pZVCYAVfS8Q_NQ/o.jpg", "is_closed": false, "url": "https://www.yelp.com/biz/echo-brewing-erie-3?adjust_creative=OD45_sigUUSBobJ_eVs01w&utm_campaign=yelp_api_v3&utm_medium=api_v3_business_search&utm_source=OD45_sigUUSBobJ_eVs01w", "review_count": 96, "categories": [{"alias": "pizza", "title": "Pizza"}, {"alias": "breweries", "title": "Breweries"}], "rating": 3.5, "coordinates": {"latitude": 40.0504, "longitude": -105.04781}, "transactions": ["delivery"], "price": "$$", "location": {"address1": "600 Briggs St", "address2": "", "address3": "", "city": "Erie", "zip_code": "80516", "country": "US", "state": "CO", "display_address": ["600 Briggs St", "Erie, CO 80516"]}, "phone": "+17203612332", "display_phone": "(720) 361-2332", "distance": 35634.847914566795}, {"id": "hCYVnSVshfuZeumqPg9IcQ", "alias": "boulder-social-boulder-2", "name": "Boulder Social", "image_url": "https://s3-media1.fl.yelpcdn.com/bphoto/jku5MGd-a7DDSKVFw060Vw/o.jpg", "is_closed": false, "url": "https://www.yelp.com/biz/boulder-social-boulder-2?adjust_creative=OD45_sigUUSBobJ_eVs01w&utm_campaign=yelp_api_v3&utm_medium=api_v3_business_search&utm_source=OD45_sigUUSBobJ_eVs01w", "review_count": 44, "categories": [{"alias": "newamerican", "title": "American (New)"}, {"alias": "brewpubs", "title": "Brewpubs"}, {"alias": "pizza", "title": "Pizza"}], "rating": 3.5, "coordinates": {"latitude": 40.01507, "longitude": -105.24579}, "transactions": ["pickup", "delivery"], "price": "$$", "location": {"address1": "1600 38th Street", "address2": null, "address3": null, "city": "Boulder", "zip_code": "80301", "country": "US", "state": "CO", "display_address": ["1600 38th Street", "Boulder, CO 80301"]}, "phone": "+17207163345", "display_phone": "(720) 716-3345", "distance": 38955.83084608614}, {"id": "LzpDqPW_QORZWrQ50y_WCg", "alias": "pint-brothers-denver", "name": "Pint Brothers", "image_url": "https://s3-media1.fl.yelpcdn.com/bphoto/Qcc5kxU8HLokuuq6-kC5Ag/o.jpg", "is_closed": false, "url": "https://www.yelp.com/biz/pint-brothers-denver?adjust_creative=OD45_sigUUSBobJ_eVs01w&utm_campaign=yelp_api_v3&utm_medium=api_v3_business_search&utm_source=OD45_sigUUSBobJ_eVs01w", "review_count": 54, "categories": [{"alias": "breweries", "title": "Breweries"}], "rating": 3.5, "coordinates": {"latitude": 39.6269795658697, "longitude": -104.9018531310583}, "transactions": ["pickup", "delivery"], "price": "$$", "location": {"address1": "4900 S Syracuse St", "address2": "", "address3": null, "city": "Denver", "zip_code": "80237", "country": "US", "state": "CO", "display_address": ["4900 S Syracuse St", "Denver, CO 80237"]}, "phone": "+13037402518", "display_phone": "(303) 740-2518", "distance": 13413.802237444734}, {"id": "rnkZyIoxbBE9kRkd2ZXiwA", "alias": "rockyard-brewing-company-castle-rock-2", "name": "Rockyard Brewing Company", "image_url": "https://s3-media1.fl.yelpcdn.com/bphoto/jAzMwi1qKtPIMQ8zVvLEIw/o.jpg", "is_closed": false, "url": "https://www.yelp.com/biz/rockyard-brewing-company-castle-rock-2?adjust_creative=OD45_sigUUSBobJ_eVs01w&utm_campaign=yelp_api_v3&utm_medium=api_v3_business_search&utm_source=OD45_sigUUSBobJ_eVs01w", "review_count": 604, "categories": [{"alias": "tradamerican", "title": "American (Traditional)"}, {"alias": "breweries", "title": "Breweries"}, {"alias": "burgers", "title": "Burgers"}], "rating": 3.5, "coordinates": {"latitude": 39.4091746575423, "longitude": -104.869437217712}, "transactions": ["delivery"], "price": "$$", "location": {"address1": "880 Castleton Rd", "address2": "", "address3": "", "city": "Castle Rock", "zip_code": "80109", "country": "US", "state": "CO", "display_address": ["880 Castleton Rd", "Castle Rock, CO 80109"]}, "phone": "+13038149273", "display_phone": "(303) 814-9273", "distance": 37302.84039896756}, {"id": "-izMm16SLxE9mlbkxXagSQ", "alias": "rock-bottom-restaurant-and-brewery-denver", "name": "Rock Bottom Restaurant & Brewery", "image_url": "https://s3-media2.fl.yelpcdn.com/bphoto/wzOOHbHe68lqTamU5S_J7g/o.jpg", "is_closed": false, "url": "https://www.yelp.com/biz/rock-bottom-restaurant-and-brewery-denver?adjust_creative=OD45_sigUUSBobJ_eVs01w&utm_campaign=yelp_api_v3&utm_medium=api_v3_business_search&utm_source=OD45_sigUUSBobJ_eVs01w", "review_count": 836, "categories": [{"alias": "breweries", "title": "Breweries"}, {"alias": "sportsbars", "title": "Sports Bars"}, {"alias": "tradamerican", "title": "American (Traditional)"}], "rating": 3.5, "coordinates": {"latitude": 39.74823, "longitude": -104.99454}, "transactions": ["pickup", "delivery"], "price": "$$", "location": {"address1": "1001 16th St", "address2": "#A-100", "address3": "", "city": "Denver", "zip_code": "80265", "country": "US", "state": "CO", "display_address": ["1001 16th St", "#A-100", "Denver, CO 80265"]}, "phone": "+17204529640", "display_phone": "(720) 452-9640", "distance": 2512.15229733243}, {"id": "HK5QJaFjjinCmyAVBbeFhQ", "alias": "rock-bottom-restaurant-and-brewery-highlands-ranch-3", "name": "Rock Bottom Restaurant & Brewery", "image_url": "https://s3-media4.fl.yelpcdn.com/bphoto/MF2vn0m9167u7ZvfRAQc5w/o.jpg", "is_closed": false, "url": "https://www.yelp.com/biz/rock-bottom-restaurant-and-brewery-highlands-ranch-3?adjust_creative=OD45_sigUUSBobJ_eVs01w&utm_campaign=yelp_api_v3&utm_medium=api_v3_business_search&utm_source=OD45_sigUUSBobJ_eVs01w", "review_count": 181, "categories": [{"alias": "tradamerican", "title": "American (Traditional)"}, {"alias": "breweries", "title": "Breweries"}], "rating": 3.5, "coordinates": {"latitude": 39.555157317531936, "longitude": -105.00757}, "transactions": ["pickup", "delivery"], "price": "$$", "location": {"address1": "1505 Park Central Dr", "address2": "", "address3": null, "city": "Highlands Ranch", "zip_code": "80126", "country": "US", "state": "CO", "display_address": ["1505 Park Central Dr", "Highlands Ranch, CO 80126"]}, "phone": "+17207998110", "display_phone": "(720) 799-8110", "distance": 20308.877435093287}, {"id": "k46vm_h-7BFjWNIk_1qHnA", "alias": "new-belgium-brewing-denver", "name": "New Belgium Brewing", "image_url": "https://s3-media4.fl.yelpcdn.com/bphoto/LN_Sstqe2ddOgAPG_KnYKQ/o.jpg", "is_closed": false, "url": "https://www.yelp.com/biz/new-belgium-brewing-denver?adjust_creative=OD45_sigUUSBobJ_eVs01w&utm_campaign=yelp_api_v3&utm_medium=api_v3_business_search&utm_source=OD45_sigUUSBobJ_eVs01w", "review_count": 93, "categories": [{"alias": "breweries", "title": "Breweries"}, {"alias": "beerbar", "title": "Beer Bar"}, {"alias": "sportsbars", "title": "Sports Bars"}], "rating": 3.5, "coordinates": {"latitude": 39.8494382, "longitude": -104.6735128}, "transactions": [], "price": "$$", "location": {"address1": "8500 Pe\u00f1a Blvd", "address2": "Gate B32", "address3": null, "city": "Denver", "zip_code": "80249", "country": "US", "state": "CO", "display_address": ["8500 Pe\u00f1a Blvd", "Gate B32", "Denver, CO 80249"]}, "phone": "+13033426735", "display_phone": "(303) 342-6735", "distance": 28340.530359635246}, {"id": "Ks-SfiBoz0i8cljMkZKTbg", "alias": "bjs-restaurant-and-brewhouse-aurora", "name": "BJ's Restaurant & Brewhouse", "image_url": "https://s3-media1.fl.yelpcdn.com/bphoto/UgczQIX_Gkf9AOb_gEJpkQ/o.jpg", "is_closed": false, "url": "https://www.yelp.com/biz/bjs-restaurant-and-brewhouse-aurora?adjust_creative=OD45_sigUUSBobJ_eVs01w&utm_campaign=yelp_api_v3&utm_medium=api_v3_business_search&utm_source=OD45_sigUUSBobJ_eVs01w", "review_count": 455, "categories": [{"alias": "breweries", "title": "Breweries"}, {"alias": "newamerican", "title": "American (New)"}, {"alias": "pizza", "title": "Pizza"}], "rating": 3.5, "coordinates": {"latitude": 39.712416305708565, "longitude": -104.81979670228753}, "transactions": ["pickup", "delivery"], "price": "$$", "location": {"address1": "14442 E Cedar Ave", "address2": "", "address3": "", "city": "Aurora", "zip_code": "80012", "country": "US", "state": "CO", "display_address": ["14442 E Cedar Ave", "Aurora, CO 80012"]}, "phone": "+13033663550", "display_phone": "(303) 366-3550", "distance": 13120.946008980714}, {"id": "RwxGmaG21qlsolZ3tCWopw", "alias": "bjs-restaurant-and-brewhouse-lakewood", "name": "BJ's Restaurant & Brewhouse", "image_url": "https://s3-media1.fl.yelpcdn.com/bphoto/HAK1sFycbHUfj_lfgRF4rQ/o.jpg", "is_closed": false, "url": "https://www.yelp.com/biz/bjs-restaurant-and-brewhouse-lakewood?adjust_creative=OD45_sigUUSBobJ_eVs01w&utm_campaign=yelp_api_v3&utm_medium=api_v3_business_search&utm_source=OD45_sigUUSBobJ_eVs01w", "review_count": 90, "categories": [{"alias": "newamerican", "title": "American (New)"}, {"alias": "breweries", "title": "Breweries"}, {"alias": "pizza", "title": "Pizza"}], "rating": 3.0, "coordinates": {"latitude": 39.73566, "longitude": -105.15962}, "transactions": ["pickup", "delivery"], "price": "$$", "location": {"address1": "14245 W Colfax Ave", "address2": "", "address3": null, "city": "Lakewood", "zip_code": "80401", "country": "US", "state": "CO", "display_address": ["14245 W Colfax Ave", "Lakewood, CO 80401"]}, "phone": "+17209274260", "display_phone": "(720) 927-4260", "distance": 16193.2576832922}, {"id": "Mjy8rojmyCMQu9x8mjzIZg", "alias": "bjs-restaurant-and-brewhouse-westminster", "name": "BJ's Restaurant & Brewhouse", "image_url": "https://s3-media1.fl.yelpcdn.com/bphoto/QBmLqWLMniTWz4Ppbw3nAg/o.jpg", "is_closed": false, "url": "https://www.yelp.com/biz/bjs-restaurant-and-brewhouse-westminster?adjust_creative=OD45_sigUUSBobJ_eVs01w&utm_campaign=yelp_api_v3&utm_medium=api_v3_business_search&utm_source=OD45_sigUUSBobJ_eVs01w", "review_count": 336, "categories": [{"alias": "newamerican", "title": "American (New)"}, {"alias": "breweries", "title": "Breweries"}], "rating": 3.0, "coordinates": {"latitude": 39.88818, "longitude": -105.07427}, "transactions": ["pickup", "delivery"], "price": "$$", "location": {"address1": "10446 Town Center Dr", "address2": "", "address3": "", "city": "Westminster", "zip_code": "80021", "country": "US", "state": "CO", "display_address": ["10446 Town Center Dr", "Westminster, CO 80021"]}, "phone": "+13033896444", "display_phone": "(303) 389-6444", "distance": 19159.367438834703}, {"id": "MviQVfABNdmCKLsVAzzIwA", "alias": "gordon-biersch-brewery-restaurant-broomfield-2", "name": "Gordon Biersch Brewery Restaurant", "image_url": "https://s3-media1.fl.yelpcdn.com/bphoto/rlow3TFA0lLgcSYdz_CSwA/o.jpg", "is_closed": false, "url": "https://www.yelp.com/biz/gordon-biersch-brewery-restaurant-broomfield-2?adjust_creative=OD45_sigUUSBobJ_eVs01w&utm_campaign=yelp_api_v3&utm_medium=api_v3_business_search&utm_source=OD45_sigUUSBobJ_eVs01w", "review_count": 280, "categories": [{"alias": "breweries", "title": "Breweries"}, {"alias": "bars", "title": "Bars"}, {"alias": "newamerican", "title": "American (New)"}], "rating": 3.0, "coordinates": {"latitude": 39.93249, "longitude": -105.13119}, "transactions": ["pickup", "delivery"], "price": "$$", "location": {"address1": "1 WFlatiron Crossing Dr", "address2": "", "address3": "", "city": "Broomfield", "zip_code": "80021", "country": "US", "state": "CO", "display_address": ["1 WFlatiron Crossing Dr", "Broomfield, CO 80021"]}, "phone": "+17208872991", "display_phone": "(720) 887-2991", "distance": 25856.0665463196}, {"id": "Ni8mZD1-3CC2dtqNXYwViA", "alias": "bjs-restaurant-and-brewhouse-boulder-2", "name": "BJ's Restaurant & Brewhouse", "image_url": "https://s3-media3.fl.yelpcdn.com/bphoto/I8WyKF02Jlw8f_vNrde7Bg/o.jpg", "is_closed": false, "url": "https://www.yelp.com/biz/bjs-restaurant-and-brewhouse-boulder-2?adjust_creative=OD45_sigUUSBobJ_eVs01w&utm_campaign=yelp_api_v3&utm_medium=api_v3_business_search&utm_source=OD45_sigUUSBobJ_eVs01w", "review_count": 222, "categories": [{"alias": "newamerican", "title": "American (New)"}, {"alias": "breweries", "title": "Breweries"}], "rating": 3.0, "coordinates": {"latitude": 40.01773204866485, "longitude": -105.25779385096563}, "transactions": ["pickup", "delivery"], "price": "$$", "location": {"address1": "1690 28th St", "address2": "", "address3": "", "city": "Boulder", "zip_code": "80301", "country": "US", "state": "CO", "display_address": ["1690 28th St", "Boulder, CO 80301"]}, "phone": "+13034405200", "display_phone": "(303) 440-5200", "distance": 39834.63237693965}, {"id": "M-22uuQfHgOY0l8_9v1Xfg", "alias": "great-divide-brewhouse-and-kitchen-denver", "name": "Great Divide Brewhouse and Kitchen", "image_url": "https://s3-media2.fl.yelpcdn.com/bphoto/p-ceQgLI_lzwgzuD47KFrg/o.jpg", "is_closed": false, "url": "https://www.yelp.com/biz/great-divide-brewhouse-and-kitchen-denver?adjust_creative=OD45_sigUUSBobJ_eVs01w&utm_campaign=yelp_api_v3&utm_medium=api_v3_business_search&utm_source=OD45_sigUUSBobJ_eVs01w", "review_count": 202, "categories": [{"alias": "brewpubs", "title": "Brewpubs"}, {"alias": "breakfast_brunch", "title": "Breakfast & Brunch"}, {"alias": "tradamerican", "title": "American (Traditional)"}], "rating": 3.0, "coordinates": {"latitude": 39.86295073533116, "longitude": -104.67594186159818}, "transactions": [], "price": "$$", "location": {"address1": "8500 Pe\u00f1a Blvd", "address2": "", "address3": "", "city": "Denver", "zip_code": "80249", "country": "US", "state": "CO", "display_address": ["8500 Pe\u00f1a Blvd", "Denver, CO 80249"]}, "phone": "", "display_phone": "", "distance": 28860.055607054182}, {"id": "KbGU3pTS6Lc87t8X6WD6Ng", "alias": "rock-bottom-restaurant-and-brewery-centennial-2", "name": "Rock Bottom Restaurant & Brewery", "image_url": "https://s3-media2.fl.yelpcdn.com/bphoto/RAymPzxMABuEfWptW-_xcg/o.jpg", "is_closed": false, "url": "https://www.yelp.com/biz/rock-bottom-restaurant-and-brewery-centennial-2?adjust_creative=OD45_sigUUSBobJ_eVs01w&utm_campaign=yelp_api_v3&utm_medium=api_v3_business_search&utm_source=OD45_sigUUSBobJ_eVs01w", "review_count": 309, "categories": [{"alias": "breweries", "title": "Breweries"}, {"alias": "tradamerican", "title": "American (Traditional)"}], "rating": 3.0, "coordinates": {"latitude": 39.56776204528091, "longitude": -104.87397}, "transactions": ["pickup", "delivery"], "price": "$$", "location": {"address1": "9627 E County Line Rd", "address2": "", "address3": "", "city": "Denver", "zip_code": "80112", "country": "US", "state": "CO", "display_address": ["9627 E County Line Rd", "Denver, CO 80112"]}, "phone": "+13037929090", "display_phone": "(303) 792-9090", "distance": 20394.112244504453}]}