{"businesses": [{"id": "2kzNiG6XD6yTxN5KoNhcBA", "alias": "blackwater-airboat-tours-weston-2", "name": "Blackwater Airboat Tours", "image_url": "https://s3-media1.fl.yelpcdn.com/bphoto/9_u-Qk71KtljRdkt4HIxUQ/o.jpg", "is_closed": false, "url": "https://www.yelp.com/biz/blackwater-airboat-tours-weston-2?adjust_creative=OD45_sigUUSBobJ_eVs01w&utm_campaign=yelp_api_v3&utm_medium=api_v3_business_search&utm_source=OD45_sigUUSBobJ_eVs01w", "review_count": 15, "categories": [{"alias": "boattours", "title": "Boat Tours"}], "rating": 5.0, "coordinates": {"latitude": 26.1162891387939, "longitude": -80.415657043457}, "transactions": [], "location": {"address1": "", "address2": "", "address3": "", "city": "Weston", "zip_code": "33327", "country": "US", "state": "FL", "display_address": ["Weston, FL 33327"]}, "phone": "+19544744040", "display_phone": "(954) 474-4040", "distance": 42108.00141623155}, {"id": "K1lW5qB2m0S8pTnwPIOSiA", "alias": "captain-alain-charters-miami-beach-5", "name": "Captain Alain Charters", "image_url": "https://s3-media2.fl.yelpcdn.com/bphoto/HHKXUyoK6zz_REH2HSvouA/o.jpg", "is_closed": false, "url": "https://www.yelp.com/biz/captain-alain-charters-miami-beach-5?adjust_creative=OD45_sigUUSBobJ_eVs01w&utm_campaign=yelp_api_v3&utm_medium=api_v3_business_search&utm_source=OD45_sigUUSBobJ_eVs01w", "review_count": 53, "categories": [{"alias": "boatcharters", "title": "Boat Charters"}, {"alias": "boattours", "title": "Boat Tours"}], "rating": 5.0, "coordinates": {"latitude": 25.8500179, "longitude": -80.160171}, "transactions": [], "location": {"address1": "7910 West Dr", "address2": null, "address3": null, "city": "Miami Beach", "zip_code": "33141", "country": "US", "state": "FL", "display_address": ["7910 West Dr", "Miami Beach, FL 33141"]}, "phone": "+17865999133", "display_phone": "(786) 599-9133", "distance": 16761.597479406104}, {"id": "LUn6vzeILQXv6iQ-44z9uw", "alias": "fort-lauderdale-airboat-adventure-fort-lauderdale", "name": "Fort Lauderdale Airboat Adventure", "image_url": "https://s3-media2.fl.yelpcdn.com/bphoto/mzETSfqW5e1pGIBmmRLUYA/o.jpg", "is_closed": false, "url": "https://www.yelp.com/biz/fort-lauderdale-airboat-adventure-fort-lauderdale?adjust_creative=OD45_sigUUSBobJ_eVs01w&utm_campaign=yelp_api_v3&utm_medium=api_v3_business_search&utm_source=OD45_sigUUSBobJ_eVs01w", "review_count": 7, "categories": [{"alias": "tours", "title": "Tours"}, {"alias": "boating", "title": "Boating"}], "rating": 5.0, "coordinates": {"latitude": 26.0818424224854, "longitude": -80.3512268066406}, "transactions": [], "location": {"address1": "15181 SW 31st Ct", "address2": null, "address3": "", "city": "Fort Lauderdale", "zip_code": "33331", "country": "US", "state": "FL", "display_address": ["15181 SW 31st Ct", "Fort Lauderdale, FL 33331"]}, "phone": "+19543303093", "display_phone": "(954) 330-3093", "distance": 37133.889653441955}, {"id": "wnmHEd-FcZ1RWiOENu9ZGQ", "alias": "cruisin-tiki-charters-fort-lauderdale", "name": "Cruisin' Tiki Charters", "image_url": "https://s3-media3.fl.yelpcdn.com/bphoto/dLgNoB62-yyXRP13s6SIyQ/o.jpg", "is_closed": false, "url": "https://www.yelp.com/biz/cruisin-tiki-charters-fort-lauderdale?adjust_creative=OD45_sigUUSBobJ_eVs01w&utm_campaign=yelp_api_v3&utm_medium=api_v3_business_search&utm_source=OD45_sigUUSBobJ_eVs01w", "review_count": 12, "categories": [{"alias": "boattours", "title": "Boat Tours"}], "rating": 5.0, "coordinates": {"latitude": 26.1142597198486, "longitude": -80.162353515625}, "transactions": [], "location": {"address1": "", "address2": null, "address3": "", "city": "Fort Lauderdale", "zip_code": "33312", "country": "US", "state": "FL", "display_address": ["Fort Lauderdale, FL 33312"]}, "phone": "+18775545200", "display_phone": "(877) 554-5200", "distance": 38962.77703331146}, {"id": "cumB0Viq5U7Q0wrTiJnfZg", "alias": "skyeagle-air-tours-fort-lauderdale-2", "name": "SkyEagle Air Tours", "image_url": "https://s3-media1.fl.yelpcdn.com/bphoto/qHiylm0nubsSZr_F3c7xUg/o.jpg", "is_closed": false, "url": "https://www.yelp.com/biz/skyeagle-air-tours-fort-lauderdale-2?adjust_creative=OD45_sigUUSBobJ_eVs01w&utm_campaign=yelp_api_v3&utm_medium=api_v3_business_search&utm_source=OD45_sigUUSBobJ_eVs01w", "review_count": 7, "categories": [{"alias": "aerialtours", "title": "Aerial Tours"}], "rating": 5.0, "coordinates": {"latitude": 26.18971, "longitude": -80.17231}, "transactions": [], "location": {"address1": "5101 NW 21st Ave", "address2": "Ste 240", "address3": "", "city": "Fort Lauderdale", "zip_code": "33309", "country": "US", "state": "FL", "display_address": ["5101 NW 21st Ave", "Ste 240", "Fort Lauderdale, FL 33309"]}, "phone": "+19547721202", "display_phone": "(954) 772-1202", "distance": 49946.98393753446}, {"id": "NzYDXNPmt_1wsRXGlXAuJg", "alias": "craft-food-tours-delray-beach-2", "name": "Craft Food Tours", "image_url": "https://s3-media3.fl.yelpcdn.com/bphoto/3oyHj8dEtOQEr88vnJAyBg/o.jpg", "is_closed": false, "url": "https://www.yelp.com/biz/craft-food-tours-delray-beach-2?adjust_creative=OD45_sigUUSBobJ_eVs01w&utm_campaign=yelp_api_v3&utm_medium=api_v3_business_search&utm_source=OD45_sigUUSBobJ_eVs01w", "review_count": 50, "categories": [{"alias": "foodtours", "title": "Food Tours"}], "rating": 5.0, "coordinates": {"latitude": 26.43536, "longitude": -80.08098}, "transactions": [], "location": {"address1": "", "address2": null, "address3": "", "city": "Delray Beach", "zip_code": "33444", "country": "US", "state": "FL", "display_address": ["Delray Beach, FL 33444"]}, "phone": "+19545598456", "display_phone": "(954) 559-8456", "distance": 80977.69782518012}, {"id": "DARbdPWO-avvi33lVaBFNg", "alias": "vice-boat-club-miami-3", "name": "Vice Boat Club", "image_url": "https://s3-media4.fl.yelpcdn.com/bphoto/U2t3FvbwDicShgdghA4cHg/o.jpg", "is_closed": false, "url": "https://www.yelp.com/biz/vice-boat-club-miami-3?adjust_creative=OD45_sigUUSBobJ_eVs01w&utm_campaign=yelp_api_v3&utm_medium=api_v3_business_search&utm_source=OD45_sigUUSBobJ_eVs01w", "review_count": 15, "categories": [{"alias": "boating", "title": "Boating"}, {"alias": "boattours", "title": "Boat Tours"}, {"alias": "boatcharters", "title": "Boat Charters"}], "rating": 5.0, "coordinates": {"latitude": 25.7909339, "longitude": -80.1844098}, "transactions": [], "location": {"address1": "3399 NW S River Dr", "address2": null, "address3": "", "city": "Miami", "zip_code": "33142", "country": "US", "state": "FL", "display_address": ["3399 NW S River Dr", "Miami, FL 33142"]}, "phone": "+17866817182", "display_phone": "(786) 681-7182", "distance": 11216.084509385499}, {"id": "8MET0zLIx7HF9A9l7CrM4g", "alias": "airboat-adventures-everglades-miami", "name": "Airboat Adventures Everglades", "image_url": "https://s3-media1.fl.yelpcdn.com/bphoto/-Z9j_Aco1Y-bKKU5unY4MA/o.jpg", "is_closed": false, "url": "https://www.yelp.com/biz/airboat-adventures-everglades-miami?adjust_creative=OD45_sigUUSBobJ_eVs01w&utm_campaign=yelp_api_v3&utm_medium=api_v3_business_search&utm_source=OD45_sigUUSBobJ_eVs01w", "review_count": 5, "categories": [{"alias": "boattours", "title": "Boat Tours"}, {"alias": "boating", "title": "Boating"}], "rating": 5.0, "coordinates": {"latitude": 25.76206876975452, "longitude": -80.50229261996552}, "transactions": [], "location": {"address1": "5334 FL-90", "address2": null, "address3": "", "city": "Miami", "zip_code": "33185", "country": "US", "state": "FL", "display_address": ["5334 FL-90", "Miami, FL 33185"]}, "phone": "+13057661929", "display_phone": "(305) 766-1929", "distance": 21477.084096325707}, {"id": "IDLcsrlfcx7Bbg35mYmFlg", "alias": "inshore-fishing-charters-miami-north-miami-beach", "name": "Inshore Fishing Charters Miami", "image_url": "https://s3-media3.fl.yelpcdn.com/bphoto/B7wioTwCeGE9JIo_rJmAZQ/o.jpg", "is_closed": false, "url": "https://www.yelp.com/biz/inshore-fishing-charters-miami-north-miami-beach?adjust_creative=OD45_sigUUSBobJ_eVs01w&utm_campaign=yelp_api_v3&utm_medium=api_v3_business_search&utm_source=OD45_sigUUSBobJ_eVs01w", "review_count": 6, "categories": [{"alias": "fishing", "title": "Fishing"}, {"alias": "boattours", "title": "Boat Tours"}], "rating": 5.0, "coordinates": {"latitude": 25.92876, "longitude": -80.16319}, "transactions": [], "location": {"address1": "", "address2": "", "address3": null, "city": "North Miami Beach", "zip_code": "33162", "country": "US", "state": "FL", "display_address": ["North Miami Beach, FL 33162"]}, "phone": "+13057257020", "display_phone": "(305) 725-7020", "distance": 22007.2104278488}, {"id": "V_zmCP4p3eVGyJzKI5WZRQ", "alias": "miami-plane-tours-pembroke-pines", "name": "Miami Plane Tours", "image_url": "https://s3-media2.fl.yelpcdn.com/bphoto/PxGKjGHcIidoLJY29SQbwQ/o.jpg", "is_closed": false, "url": "https://www.yelp.com/biz/miami-plane-tours-pembroke-pines?adjust_creative=OD45_sigUUSBobJ_eVs01w&utm_campaign=yelp_api_v3&utm_medium=api_v3_business_search&utm_source=OD45_sigUUSBobJ_eVs01w", "review_count": 30, "categories": [{"alias": "aerialtours", "title": "Aerial Tours"}], "rating": 5.0, "coordinates": {"latitude": 25.996876, "longitude": -80.240921}, "transactions": [], "location": {"address1": "1620 SW 75th Ave", "address2": "Ste 3", "address3": "", "city": "Pembroke Pines", "zip_code": "33023", "country": "US", "state": "FL", "display_address": ["1620 SW 75th Ave", "Ste 3", "Pembroke Pines, FL 33023"]}, "phone": "+17547361412", "display_phone": "(754) 736-1412", "distance": 27552.211226721975}, {"id": "oEkQ5tEQXFH8X7Mo-UOHTA", "alias": "intimate-waterway-tours-fort-lauderdale", "name": "Intimate Waterway Tours", "image_url": "https://s3-media2.fl.yelpcdn.com/bphoto/dEPcgDcVzmBzt0DQmzgB9g/o.jpg", "is_closed": false, "url": "https://www.yelp.com/biz/intimate-waterway-tours-fort-lauderdale?adjust_creative=OD45_sigUUSBobJ_eVs01w&utm_campaign=yelp_api_v3&utm_medium=api_v3_business_search&utm_source=OD45_sigUUSBobJ_eVs01w", "review_count": 55, "categories": [{"alias": "boattours", "title": "Boat Tours"}], "rating": 5.0, "coordinates": {"latitude": 26.1175784, "longitude": -80.14312009999999}, "transactions": [], "location": {"address1": "2 S New River Dr W", "address2": null, "address3": "", "city": "Fort Lauderdale", "zip_code": "33301", "country": "US", "state": "FL", "display_address": ["2 S New River Dr W", "Fort Lauderdale, FL 33301"]}, "phone": "+19544884407", "display_phone": "(954) 488-4407", "distance": 43078.809951284275}, {"id": "dJBYIYRDfb6o1yu4-PyrHQ", "alias": "starlux-yachts-miami-beach", "name": "Starlux Yachts", "image_url": "https://s3-media3.fl.yelpcdn.com/bphoto/IV4NMG1QCHpVVUqIrcMbcA/o.jpg", "is_closed": false, "url": "https://www.yelp.com/biz/starlux-yachts-miami-beach?adjust_creative=OD45_sigUUSBobJ_eVs01w&utm_campaign=yelp_api_v3&utm_medium=api_v3_business_search&utm_source=OD45_sigUUSBobJ_eVs01w", "review_count": 28, "categories": [{"alias": "boatcharters", "title": "Boat Charters"}, {"alias": "boating", "title": "Boating"}, {"alias": "tours", "title": "Tours"}], "rating": 5.0, "coordinates": {"latitude": 25.7705631256104, "longitude": -80.1369781494141}, "transactions": [], "location": {"address1": "140 Meridian Ave", "address2": "Unit 323", "address3": "", "city": "Miami Beach", "zip_code": "33139", "country": "US", "state": "FL", "display_address": ["140 Meridian Ave", "Unit 323", "Miami Beach, FL 33139"]}, "phone": "+17867241919", "display_phone": "(786) 724-1919", "distance": 15261.247983785986}, {"id": "Opg6xrr_Jj1v4mszPE82-g", "alias": "savor-our-city-culinary-tours-boca-raton", "name": "Savor Our City Culinary Tours", "image_url": "https://s3-media3.fl.yelpcdn.com/bphoto/B-QGq8_UThuIt3P_GBovfQ/o.jpg", "is_closed": false, "url": "https://www.yelp.com/biz/savor-our-city-culinary-tours-boca-raton?adjust_creative=OD45_sigUUSBobJ_eVs01w&utm_campaign=yelp_api_v3&utm_medium=api_v3_business_search&utm_source=OD45_sigUUSBobJ_eVs01w", "review_count": 7, "categories": [{"alias": "foodtours", "title": "Food Tours"}, {"alias": "teambuilding", "title": "Team Building Activities"}, {"alias": "winetasteclasses", "title": "Wine Tasting Classes"}], "rating": 5.0, "coordinates": {"latitude": 26.3440647125244, "longitude": -80.0779037475586}, "transactions": [], "location": {"address1": "", "address2": null, "address3": "", "city": "Boca Raton", "zip_code": "33432", "country": "US", "state": "FL", "display_address": ["Boca Raton, FL 33432"]}, "phone": "+19544103177", "display_phone": "(954) 410-3177", "distance": 68501.42260900354}, {"id": "w7jqw2chhItQ-u00cHIwIg", "alias": "mia-vip-transportation-and-tours-miami", "name": "MIA VIP Transportation & Tours", "image_url": "https://s3-media3.fl.yelpcdn.com/bphoto/KOC_t_aOjL9HsYQMN4zOEQ/o.jpg", "is_closed": false, "url": "https://www.yelp.com/biz/mia-vip-transportation-and-tours-miami?adjust_creative=OD45_sigUUSBobJ_eVs01w&utm_campaign=yelp_api_v3&utm_medium=api_v3_business_search&utm_source=OD45_sigUUSBobJ_eVs01w", "review_count": 5, "categories": [{"alias": "bustours", "title": "Bus Tours"}, {"alias": "buses", "title": "Buses"}, {"alias": "busrental", "title": "Bus Rental"}], "rating": 5.0, "coordinates": {"latitude": 25.815502670786053, "longitude": -80.20702080804378}, "transactions": [], "location": {"address1": "661 NW 43rd St", "address2": null, "address3": "", "city": "Miami", "zip_code": "33127", "country": "US", "state": "FL", "display_address": ["661 NW 43rd St", "Miami, FL 33127"]}, "phone": "+13059223151", "display_phone": "(305) 922-3151", "distance": 10703.379649168848}, {"id": "ga0lLO1UcVOXTclSN_C4dw", "alias": "poseidon-ferry-miami-beach", "name": "Poseidon Ferry", "image_url": "https://s3-media2.fl.yelpcdn.com/bphoto/T1xmT0MPk2EYbn3wCapKKA/o.jpg", "is_closed": false, "url": "https://www.yelp.com/biz/poseidon-ferry-miami-beach?adjust_creative=OD45_sigUUSBobJ_eVs01w&utm_campaign=yelp_api_v3&utm_medium=api_v3_business_search&utm_source=OD45_sigUUSBobJ_eVs01w", "review_count": 5, "categories": [{"alias": "boattours", "title": "Boat Tours"}, {"alias": "ferries", "title": "Ferries"}], "rating": 5.0, "coordinates": {"latitude": 25.774834329316697, "longitude": -80.14205529585642}, "transactions": [], "location": {"address1": "520 W Ave", "address2": "", "address3": null, "city": "Miami Beach", "zip_code": "33139", "country": "US", "state": "FL", "display_address": ["520 W Ave", "Miami Beach, FL 33139"]}, "phone": "+18334433779", "display_phone": "(833) 443-3779", "distance": 14828.381465155466}, {"id": "xxcA4I5gxTJssPhQhZVgEg", "alias": "mr-sea-miami-boats-miami", "name": "Mr. Sea Miami Boats", "image_url": "https://s3-media1.fl.yelpcdn.com/bphoto/Alpwukjr1L9gy_YBSxGilw/o.jpg", "is_closed": false, "url": "https://www.yelp.com/biz/mr-sea-miami-boats-miami?adjust_creative=OD45_sigUUSBobJ_eVs01w&utm_campaign=yelp_api_v3&utm_medium=api_v3_business_search&utm_source=OD45_sigUUSBobJ_eVs01w", "review_count": 21, "categories": [{"alias": "boatcharters", "title": "Boat Charters"}, {"alias": "boating", "title": "Boating"}, {"alias": "boattours", "title": "Boat Tours"}], "rating": 5.0, "coordinates": {"latitude": 25.77914, "longitude": -80.1868}, "transactions": [], "location": {"address1": "401 Biscayne Blvd", "address2": null, "address3": "", "city": "Miami", "zip_code": "33132", "country": "US", "state": "FL", "display_address": ["401 Biscayne Blvd", "Miami, FL 33132"]}, "phone": "+17866093374", "display_phone": "(786) 609-3374", "distance": 10419.849654760641}, {"id": "ATgIXhjsR8rmIF0IjLOv1Q", "alias": "miami-native-tours-miami-beach", "name": "Miami Native Tours", "image_url": "https://s3-media1.fl.yelpcdn.com/bphoto/P8JrYg-NfNm-NA8BWBstPg/o.jpg", "is_closed": false, "url": "https://www.yelp.com/biz/miami-native-tours-miami-beach?adjust_creative=OD45_sigUUSBobJ_eVs01w&utm_campaign=yelp_api_v3&utm_medium=api_v3_business_search&utm_source=OD45_sigUUSBobJ_eVs01w", "review_count": 4, "categories": [{"alias": "historicaltours", "title": "Historical Tours"}], "rating": 5.0, "coordinates": {"latitude": 25.78521087397204, "longitude": -80.14923437819245}, "transactions": [], "location": {"address1": null, "address2": null, "address3": null, "city": "Miami Beach", "zip_code": "33139", "country": "US", "state": "FL", "display_address": ["Miami Beach, FL 33139"]}, "phone": "+13057634544", "display_phone": "(305) 763-4544", "distance": 14364.934049481275}, {"id": "cC07yg7Y0ktyc334-xJ3EA", "alias": "tyt-boat-rental-miami-beach", "name": "TYT boat rental", "image_url": "https://s3-media1.fl.yelpcdn.com/bphoto/81L0e3vJPNcj3dO309Xw3Q/o.jpg", "is_closed": false, "url": "https://www.yelp.com/biz/tyt-boat-rental-miami-beach?adjust_creative=OD45_sigUUSBobJ_eVs01w&utm_campaign=yelp_api_v3&utm_medium=api_v3_business_search&utm_source=OD45_sigUUSBobJ_eVs01w", "review_count": 4, "categories": [{"alias": "boatcharters", "title": "Boat Charters"}, {"alias": "boattours", "title": "Boat Tours"}, {"alias": "boating", "title": "Boating"}], "rating": 5.0, "coordinates": {"latitude": 25.80165356561895, "longitude": -80.12549145908113}, "transactions": [], "location": {"address1": "2555 Collins Ave", "address2": "Ste 2402", "address3": "", "city": "Miami Beach ", "zip_code": "33140", "country": "US", "state": "FL", "display_address": ["2555 Collins Ave", "Ste 2402", "Miami Beach , FL 33140"]}, "phone": "+13059342262", "display_phone": "(305) 934-2262", "distance": 17164.58199478112}, {"id": "-weO8VlWMotefW8i8Q6PkA", "alias": "pontoon-boat-rental-hollywood-3", "name": "Pontoon Boat Rental", "image_url": "https://s3-media1.fl.yelpcdn.com/bphoto/67gda3Ffp11BWaYgOBYWRA/o.jpg", "is_closed": false, "url": "https://www.yelp.com/biz/pontoon-boat-rental-hollywood-3?adjust_creative=OD45_sigUUSBobJ_eVs01w&utm_campaign=yelp_api_v3&utm_medium=api_v3_business_search&utm_source=OD45_sigUUSBobJ_eVs01w", "review_count": 4, "categories": [{"alias": "boating", "title": "Boating"}, {"alias": "boatcharters", "title": "Boat Charters"}, {"alias": "boattours", "title": "Boat Tours"}], "rating": 5.0, "coordinates": {"latitude": 26.0172761715639, "longitude": -80.1174498349428}, "transactions": [], "location": {"address1": "900 N Ocean Dr", "address2": null, "address3": "", "city": "Hollywood", "zip_code": "33019", "country": "US", "state": "FL", "display_address": ["900 N Ocean Dr", "Hollywood, FL 33019"]}, "phone": "+19548659964", "display_phone": "(954) 865-9964", "distance": 34008.0483123787}, {"id": "vlVk5TZM5EbTDb86BLK5lw", "alias": "ar-boat-rentals-north-miami-beach", "name": "AR Boat Rentals", "image_url": "https://s3-media2.fl.yelpcdn.com/bphoto/v_ldyKPK5iYytqJjUgHYgw/o.jpg", "is_closed": false, "url": "https://www.yelp.com/biz/ar-boat-rentals-north-miami-beach?adjust_creative=OD45_sigUUSBobJ_eVs01w&utm_campaign=yelp_api_v3&utm_medium=api_v3_business_search&utm_source=OD45_sigUUSBobJ_eVs01w", "review_count": 4, "categories": [{"alias": "boating", "title": "Boating"}, {"alias": "boatcharters", "title": "Boat Charters"}, {"alias": "boattours", "title": "Boat Tours"}], "rating": 5.0, "coordinates": {"latitude": 25.9114426, "longitude": -80.1234842}, "transactions": [], "location": {"address1": "Haulover Beach", "address2": "", "address3": "", "city": "North Miami Beach", "zip_code": "33160", "country": "US", "state": "FL", "display_address": ["Haulover Beach", "North Miami Beach, FL 33160"]}, "phone": "+18556297770", "display_phone": "(855) 629-7770", "distance": 24140.210347985303}, {"id": "QDlVRY8UTOKA85ZW4QSGNg", "alias": "family-car-and-limo-service-coral-springs", "name": "Family Car & Limo Service", "image_url": "", "is_closed": false, "url": "https://www.yelp.com/biz/family-car-and-limo-service-coral-springs?adjust_creative=OD45_sigUUSBobJ_eVs01w&utm_campaign=yelp_api_v3&utm_medium=api_v3_business_search&utm_source=OD45_sigUUSBobJ_eVs01w", "review_count": 4, "categories": [{"alias": "limos", "title": "Limos"}, {"alias": "bustours", "title": "Bus Tours"}, {"alias": "airport_shuttles", "title": "Airport Shuttles"}], "rating": 5.0, "coordinates": {"latitude": 26.2880997, "longitude": -80.2493029}, "transactions": [], "location": {"address1": "4613 N University Dr", "address2": "Ste 168", "address3": "", "city": "Coral Springs", "zip_code": "33067", "country": "US", "state": "FL", "display_address": ["4613 N University Dr", "Ste 168", "Coral Springs, FL 33067"]}, "phone": "+18889279990", "display_phone": "(888) 927-9990", "distance": 59653.70054955403}, {"id": "rpkSMW0ysijI8duc80VngA", "alias": "premier-bus-charters-sunny-isles-beach", "name": "Premier Bus Charters", "image_url": "https://s3-media4.fl.yelpcdn.com/bphoto/UwArO-MPnCcUiBd4Nw-x3g/o.jpg", "is_closed": false, "url": "https://www.yelp.com/biz/premier-bus-charters-sunny-isles-beach?adjust_creative=OD45_sigUUSBobJ_eVs01w&utm_campaign=yelp_api_v3&utm_medium=api_v3_business_search&utm_source=OD45_sigUUSBobJ_eVs01w", "review_count": 4, "categories": [{"alias": "partybusrentals", "title": "Party Bus Rentals"}, {"alias": "bustours", "title": "Bus Tours"}, {"alias": "buses", "title": "Buses"}], "rating": 5.0, "coordinates": {"latitude": 25.95444, "longitude": -80.11969}, "transactions": [], "location": {"address1": "19201 Collins Ave", "address2": null, "address3": "", "city": "Sunny Isles Beach", "zip_code": "33160", "country": "US", "state": "FL", "display_address": ["19201 Collins Ave", "Sunny Isles Beach, FL 33160"]}, "phone": "+13052242368", "display_phone": "(305) 224-2368", "distance": 28028.057291681274}, {"id": "HZEZre1auwPiKDDJdB4VeA", "alias": "wynwood-miami", "name": "Wynwood", "image_url": "https://s3-media1.fl.yelpcdn.com/bphoto/ArmgWVQGDwLdrM-X4EEXNw/o.jpg", "is_closed": false, "url": "https://www.yelp.com/biz/wynwood-miami?adjust_creative=OD45_sigUUSBobJ_eVs01w&utm_campaign=yelp_api_v3&utm_medium=api_v3_business_search&utm_source=OD45_sigUUSBobJ_eVs01w", "review_count": 11, "categories": [{"alias": "arttours", "title": "Art Tours"}], "rating": 4.5, "coordinates": {"latitude": 25.80289, "longitude": -80.1948}, "transactions": [], "location": {"address1": "2751 N Miami Ave", "address2": "", "address3": null, "city": "Miami", "zip_code": "33127", "country": "US", "state": "FL", "display_address": ["2751 N Miami Ave", "Miami, FL 33127"]}, "phone": "+17866158828", "display_phone": "(786) 615-8828", "distance": 10878.842177950106}, {"id": "duZiApUEP3Jt3XSwedHEFw", "alias": "miami-vip-yacht-rentals-miami", "name": "Miami VIP Yacht Rentals", "image_url": "https://s3-media1.fl.yelpcdn.com/bphoto/JTQOaifFj4ndrHIBkoufYw/o.jpg", "is_closed": false, "url": "https://www.yelp.com/biz/miami-vip-yacht-rentals-miami?adjust_creative=OD45_sigUUSBobJ_eVs01w&utm_campaign=yelp_api_v3&utm_medium=api_v3_business_search&utm_source=OD45_sigUUSBobJ_eVs01w", "review_count": 25, "categories": [{"alias": "boatcharters", "title": "Boat Charters"}, {"alias": "boattours", "title": "Boat Tours"}], "rating": 4.5, "coordinates": {"latitude": 25.80724, "longitude": -80.1856}, "transactions": [], "location": {"address1": "3131 NE 7th Ave", "address2": null, "address3": "", "city": "Miami", "zip_code": "33137", "country": "US", "state": "FL", "display_address": ["3131 NE 7th Ave", "Miami, FL 33137"]}, "phone": "+13059989009", "display_phone": "(305) 998-9009", "distance": 11908.181797284707}, {"id": "EkQKMakzdrE0ljVx7n_35g", "alias": "south-florida-boat-tours-miami-beach", "name": "South Florida Boat Tours", "image_url": "https://s3-media2.fl.yelpcdn.com/bphoto/8vR_sf4o0iVND1qLdxrCDg/o.jpg", "is_closed": false, "url": "https://www.yelp.com/biz/south-florida-boat-tours-miami-beach?adjust_creative=OD45_sigUUSBobJ_eVs01w&utm_campaign=yelp_api_v3&utm_medium=api_v3_business_search&utm_source=OD45_sigUUSBobJ_eVs01w", "review_count": 3, "categories": [{"alias": "boattours", "title": "Boat Tours"}], "rating": 5.0, "coordinates": {"latitude": 25.8197161501058, "longitude": -80.1230774891795}, "transactions": [], "location": {"address1": null, "address2": null, "address3": "", "city": "Miami Beach", "zip_code": "33140", "country": "US", "state": "FL", "display_address": ["Miami Beach, FL 33140"]}, "phone": "+19542251877", "display_phone": "(954) 225-1877", "distance": 18121.416053271158}, {"id": "-UkN3kU7GXpB6gYuArOHZQ", "alias": "nautical-marine-charters-miami-beach", "name": "Nautical Marine Charters", "image_url": "https://s3-media4.fl.yelpcdn.com/bphoto/O7oic7ccS3hGEclhJZxKsA/o.jpg", "is_closed": false, "url": "https://www.yelp.com/biz/nautical-marine-charters-miami-beach?adjust_creative=OD45_sigUUSBobJ_eVs01w&utm_campaign=yelp_api_v3&utm_medium=api_v3_business_search&utm_source=OD45_sigUUSBobJ_eVs01w", "review_count": 3, "categories": [{"alias": "boatcharters", "title": "Boat Charters"}, {"alias": "boattours", "title": "Boat Tours"}, {"alias": "boating", "title": "Boating"}], "rating": 5.0, "coordinates": {"latitude": 25.7824954986572, "longitude": -80.1362457275391}, "transactions": [], "location": {"address1": "", "address2": "", "address3": "", "city": "Miami Beach", "zip_code": "33139", "country": "US", "state": "FL", "display_address": ["Miami Beach, FL 33139"]}, "phone": "+17863997813", "display_phone": "(786) 399-7813", "distance": 14390.67046812175}, {"id": "QAVS_8wcsh3Q1t2DotEeUw", "alias": "wings-over-miami-pembroke-pines", "name": "Wings Over Miami", "image_url": "https://s3-media3.fl.yelpcdn.com/bphoto/AKVWT4GJby3GfOQRjqqIDw/o.jpg", "is_closed": false, "url": "https://www.yelp.com/biz/wings-over-miami-pembroke-pines?adjust_creative=OD45_sigUUSBobJ_eVs01w&utm_campaign=yelp_api_v3&utm_medium=api_v3_business_search&utm_source=OD45_sigUUSBobJ_eVs01w", "review_count": 3, "categories": [{"alias": "aerialtours", "title": "Aerial Tours"}], "rating": 5.0, "coordinates": {"latitude": 25.9955413, "longitude": -80.2333077}, "transactions": [], "location": {"address1": "7201 S Airport Rd", "address2": null, "address3": "", "city": "Pembroke Pines", "zip_code": "33023", "country": "US", "state": "FL", "display_address": ["7201 S Airport Rd", "Pembroke Pines, FL 33023"]}, "phone": "+13057911792", "display_phone": "(305) 791-1792", "distance": 27547.37724978658}, {"id": "SMYrRWJ8OjqPFAPNkEC_hw", "alias": "redland-tropical-trail-homestead", "name": "Redland Tropical Trail", "image_url": "https://s3-media2.fl.yelpcdn.com/bphoto/FOQiw1rqrc7uL6sTkrnQcg/o.jpg", "is_closed": false, "url": "https://www.yelp.com/biz/redland-tropical-trail-homestead?adjust_creative=OD45_sigUUSBobJ_eVs01w&utm_campaign=yelp_api_v3&utm_medium=api_v3_business_search&utm_source=OD45_sigUUSBobJ_eVs01w", "review_count": 3, "categories": [{"alias": "tours", "title": "Tours"}], "rating": 5.0, "coordinates": {"latitude": 25.44586, "longitude": -80.50206}, "transactions": [], "location": {"address1": "19200 SW 344th St", "address2": "", "address3": "", "city": "Homestead", "zip_code": "33034", "country": "US", "state": "FL", "display_address": ["19200 SW 344th St", "Homestead, FL 33034"]}, "phone": "+18003889669", "display_phone": "(800) 388-9669", "distance": 40152.349054753664}, {"id": "MbtYJn4ZSNnVI91wUXY-Cg", "alias": "party-boat-charter-miami", "name": "Party Boat Charter", "image_url": "https://s3-media4.fl.yelpcdn.com/bphoto/wW_QzftfxfgueJhnTAUMXw/o.jpg", "is_closed": false, "url": "https://www.yelp.com/biz/party-boat-charter-miami?adjust_creative=OD45_sigUUSBobJ_eVs01w&utm_campaign=yelp_api_v3&utm_medium=api_v3_business_search&utm_source=OD45_sigUUSBobJ_eVs01w", "review_count": 4, "categories": [{"alias": "boatcharters", "title": "Boat Charters"}, {"alias": "boattours", "title": "Boat Tours"}], "rating": 5.0, "coordinates": {"latitude": 25.77786927267137, "longitude": -80.1741100543821}, "transactions": [], "location": {"address1": null, "address2": null, "address3": "", "city": "Miami", "zip_code": "33132", "country": "US", "state": "FL", "display_address": ["Miami, FL 33132"]}, "phone": "+17862629381", "display_phone": "(786) 262-9381", "distance": 11750.25102842112}, {"id": "d2Bchz6hxZwmVqUuaJjU8g", "alias": "uniq-yacht-charters-miami-miami-2", "name": "UNIQ Yacht Charters - Miami", "image_url": "https://s3-media4.fl.yelpcdn.com/bphoto/yZ4w4rtje7jfDCOKBAc0Hg/o.jpg", "is_closed": false, "url": "https://www.yelp.com/biz/uniq-yacht-charters-miami-miami-2?adjust_creative=OD45_sigUUSBobJ_eVs01w&utm_campaign=yelp_api_v3&utm_medium=api_v3_business_search&utm_source=OD45_sigUUSBobJ_eVs01w", "review_count": 3, "categories": [{"alias": "boatcharters", "title": "Boat Charters"}, {"alias": "boattours", "title": "Boat Tours"}, {"alias": "boating", "title": "Boating"}], "rating": 5.0, "coordinates": {"latitude": 25.7661, "longitude": -80.19447}, "transactions": [], "location": {"address1": "86 SW 8th St", "address2": "", "address3": "", "city": "Miami", "zip_code": "33130", "country": "US", "state": "FL", "display_address": ["86 SW 8th St", "Miami, FL 33130"]}, "phone": "+13058001010", "display_phone": "(305) 800-1010", "distance": 9490.058483205501}, {"id": "NIh72DXZ3QkA3wLwj5cqqA", "alias": "salt-luxury-miami-miami-beach-2", "name": "Salt Luxury Miami", "image_url": "https://s3-media2.fl.yelpcdn.com/bphoto/U0iqHO2l3IpufrwlD2xiRQ/o.jpg", "is_closed": false, "url": "https://www.yelp.com/biz/salt-luxury-miami-miami-beach-2?adjust_creative=OD45_sigUUSBobJ_eVs01w&utm_campaign=yelp_api_v3&utm_medium=api_v3_business_search&utm_source=OD45_sigUUSBobJ_eVs01w", "review_count": 3, "categories": [{"alias": "boatcharters", "title": "Boat Charters"}, {"alias": "boattours", "title": "Boat Tours"}], "rating": 5.0, "coordinates": {"latitude": 25.77243, "longitude": -80.1397}, "transactions": [], "location": {"address1": "300 Alton Rd", "address2": null, "address3": null, "city": "Miami Beach", "zip_code": "33139", "country": "US", "state": "FL", "display_address": ["300 Alton Rd", "Miami Beach, FL 33139"]}, "phone": "+18337258777", "display_phone": "(833) 725-8777", "distance": 14955.315793337006}, {"id": "rqmNIQyg9vQOqRKRGYm-lw", "alias": "pontoon-party-fort-lauderdale", "name": "Pontoon Party", "image_url": "https://s3-media4.fl.yelpcdn.com/bphoto/L6-luiaDI9XqsaW2Hw7myg/o.jpg", "is_closed": false, "url": "https://www.yelp.com/biz/pontoon-party-fort-lauderdale?adjust_creative=OD45_sigUUSBobJ_eVs01w&utm_campaign=yelp_api_v3&utm_medium=api_v3_business_search&utm_source=OD45_sigUUSBobJ_eVs01w", "review_count": 9, "categories": [{"alias": "boatcharters", "title": "Boat Charters"}, {"alias": "boattours", "title": "Boat Tours"}], "rating": 4.5, "coordinates": {"latitude": 26.11244, "longitude": -80.10576}, "transactions": [], "location": {"address1": "801 Seabreeze Blvd", "address2": null, "address3": "", "city": "Fort Lauderdale", "zip_code": "33316", "country": "US", "state": "FL", "display_address": ["801 Seabreeze Blvd", "Fort Lauderdale, FL 33316"]}, "phone": "+18334766866", "display_phone": "(833) 476-6866", "distance": 43936.034354801006}, {"id": "eyGzuSFz9-_V7nQ-mHbR8w", "alias": "cozymeal-miami-2", "name": "Cozymeal", "image_url": "https://s3-media4.fl.yelpcdn.com/bphoto/QvbGIT0naF7R3ut0mKcfOA/o.jpg", "is_closed": false, "url": "https://www.yelp.com/biz/cozymeal-miami-2?adjust_creative=OD45_sigUUSBobJ_eVs01w&utm_campaign=yelp_api_v3&utm_medium=api_v3_business_search&utm_source=OD45_sigUUSBobJ_eVs01w", "review_count": 21, "categories": [{"alias": "cookingclasses", "title": "Cooking Classes"}, {"alias": "teambuilding", "title": "Team Building Activities"}, {"alias": "foodtours", "title": "Food Tours"}], "rating": 4.5, "coordinates": {"latitude": 25.7657, "longitude": -80.19038}, "transactions": [], "location": {"address1": "801 Brickell Ave", "address2": "Ste 900", "address3": "", "city": "Miami", "zip_code": "33131", "country": "US", "state": "FL", "display_address": ["801 Brickell Ave", "Ste 900", "Miami, FL 33131"]}, "phone": "+17867010611", "display_phone": "(786) 701-0611", "distance": 9922.8768471279}, {"id": "GFPnXAq4utFlsSLOKVHL3A", "alias": "system-shuttle-miami-miami-springs", "name": "System Shuttle Miami", "image_url": "https://s3-media3.fl.yelpcdn.com/bphoto/E9cRKuEDYBjabXQefriDuw/o.jpg", "is_closed": false, "url": "https://www.yelp.com/biz/system-shuttle-miami-miami-springs?adjust_creative=OD45_sigUUSBobJ_eVs01w&utm_campaign=yelp_api_v3&utm_medium=api_v3_business_search&utm_source=OD45_sigUUSBobJ_eVs01w", "review_count": 9, "categories": [{"alias": "airport_shuttles", "title": "Airport Shuttles"}, {"alias": "tours", "title": "Tours"}, {"alias": "luggagestorage", "title": "Luggage Storage"}], "rating": 4.5, "coordinates": {"latitude": 25.808190149503, "longitude": -80.2777491398811}, "transactions": [], "location": {"address1": "5001 NW 36th St", "address2": null, "address3": "", "city": "Miami", "zip_code": "33166", "country": "US", "state": "FL", "display_address": ["5001 NW 36th St", "Miami, FL 33166"]}, "phone": "+13052406166", "display_phone": "(305) 240-6166", "distance": 6250.527128058006}, {"id": "a1k5bumaN1ixZHepavFW_g", "alias": "cuba-educational-travel-miami-2", "name": "Cuba Educational Travel", "image_url": "https://s3-media1.fl.yelpcdn.com/bphoto/TmS3XZAUNDgJGeJnzMaoiQ/o.jpg", "is_closed": false, "url": "https://www.yelp.com/biz/cuba-educational-travel-miami-2?adjust_creative=OD45_sigUUSBobJ_eVs01w&utm_campaign=yelp_api_v3&utm_medium=api_v3_business_search&utm_source=OD45_sigUUSBobJ_eVs01w", "review_count": 2, "categories": [{"alias": "tours", "title": "Tours"}, {"alias": "travelservices", "title": "Travel Services"}], "rating": 5.0, "coordinates": {"latitude": 25.76813, "longitude": -80.20693}, "transactions": [], "location": {"address1": "", "address2": "", "address3": "", "city": "Miami", "zip_code": "33130", "country": "US", "state": "FL", "display_address": ["Miami, FL 33130"]}, "phone": "+12022137050", "display_phone": "(202) 213-7050", "distance": 8265.728585199546}, {"id": "LGNpuY3exVMEeojqj04vXg", "alias": "captain-hook-rentals-miami", "name": "Captain Hook Rentals", "image_url": "https://s3-media4.fl.yelpcdn.com/bphoto/ESWs38klR_0UeXIIEpNaBQ/o.jpg", "is_closed": false, "url": "https://www.yelp.com/biz/captain-hook-rentals-miami?adjust_creative=OD45_sigUUSBobJ_eVs01w&utm_campaign=yelp_api_v3&utm_medium=api_v3_business_search&utm_source=OD45_sigUUSBobJ_eVs01w", "review_count": 2, "categories": [{"alias": "boatcharters", "title": "Boat Charters"}, {"alias": "boattours", "title": "Boat Tours"}, {"alias": "boating", "title": "Boating"}], "rating": 5.0, "coordinates": {"latitude": 25.9358167, "longitude": -80.1490512}, "transactions": [], "location": {"address1": "17301 Biscayne Blvd", "address2": null, "address3": "", "city": "Miami", "zip_code": "33160", "country": "US", "state": "FL", "display_address": ["17301 Biscayne Blvd", "Miami, FL 33160"]}, "phone": "+17869929764", "display_phone": "(786) 992-9764", "distance": 24656.48841044949}, {"id": "LbGKYOS2D9wVbhhFMW9ffg", "alias": "brit-olom-tours-inc-miami", "name": "Brit Olom Tours Inc", "image_url": "https://s3-media4.fl.yelpcdn.com/bphoto/Ax5wKvBu9g6JcmEazX6SXQ/o.jpg", "is_closed": false, "url": "https://www.yelp.com/biz/brit-olom-tours-inc-miami?adjust_creative=OD45_sigUUSBobJ_eVs01w&utm_campaign=yelp_api_v3&utm_medium=api_v3_business_search&utm_source=OD45_sigUUSBobJ_eVs01w", "review_count": 2, "categories": [{"alias": "tours", "title": "Tours"}, {"alias": "travelservices", "title": "Travel Services"}], "rating": 5.0, "coordinates": {"latitude": 25.69913839736978, "longitude": -80.37618628833448}, "transactions": [], "location": {"address1": "14421 SW 74th St", "address2": null, "address3": null, "city": "Miami", "zip_code": "33183", "country": "US", "state": "FL", "display_address": ["14421 SW 74th St", "Miami, FL 33183"]}, "phone": "+13054037548", "display_phone": "(305) 403-7548", "distance": 10650.271340994388}, {"id": "Q604d8NbJBERFYCxaHBmJg", "alias": "florida-everglades-adventures-fort-lauderdale", "name": "Florida Everglades Adventures", "image_url": "https://s3-media3.fl.yelpcdn.com/bphoto/FVdDe9R7HuuyMY-U-KTJiA/o.jpg", "is_closed": false, "url": "https://www.yelp.com/biz/florida-everglades-adventures-fort-lauderdale?adjust_creative=OD45_sigUUSBobJ_eVs01w&utm_campaign=yelp_api_v3&utm_medium=api_v3_business_search&utm_source=OD45_sigUUSBobJ_eVs01w", "review_count": 2, "categories": [{"alias": "boating", "title": "Boating"}, {"alias": "fishing", "title": "Fishing"}, {"alias": "tours", "title": "Tours"}], "rating": 5.0, "coordinates": {"latitude": 26.0877571105957, "longitude": -80.1823654174805}, "transactions": [], "location": {"address1": "", "address2": null, "address3": "", "city": "Fort Lauderdale", "zip_code": "33312", "country": "US", "state": "FL", "display_address": ["Fort Lauderdale, FL 33312"]}, "phone": "+19545884473", "display_phone": "(954) 588-4473", "distance": 38962.77703331146}, {"id": "QG2uD6nghcU09rqagvVUmA", "alias": "the-cuban-experience-key-west", "name": "The Cuban Experience", "image_url": "https://s3-media4.fl.yelpcdn.com/bphoto/A_nCh_A16Aeh6Ik9Ix9ETA/o.jpg", "is_closed": false, "url": "https://www.yelp.com/biz/the-cuban-experience-key-west?adjust_creative=OD45_sigUUSBobJ_eVs01w&utm_campaign=yelp_api_v3&utm_medium=api_v3_business_search&utm_source=OD45_sigUUSBobJ_eVs01w", "review_count": 3, "categories": [{"alias": "tours", "title": "Tours"}], "rating": 5.0, "coordinates": {"latitude": 24.5550593, "longitude": -81.7799871}, "transactions": [], "location": {"address1": "N/A", "address2": null, "address3": "", "city": "Key West", "zip_code": "33040", "country": "US", "state": "FL", "display_address": ["N/A", "Key West, FL 33040"]}, "phone": "+13059062945", "display_phone": "(305) 906-2945", "distance": 200705.4062796418}, {"id": "RDvo3kssOMeRJNqgy4a7RA", "alias": "h-and-h-harbor-time-boat-rentals-fort-lauderdale", "name": "H&H Harbor Time Boat rentals", "image_url": "https://s3-media2.fl.yelpcdn.com/bphoto/2S-hbTxt2eyq3bz3uzJp8g/o.jpg", "is_closed": false, "url": "https://www.yelp.com/biz/h-and-h-harbor-time-boat-rentals-fort-lauderdale?adjust_creative=OD45_sigUUSBobJ_eVs01w&utm_campaign=yelp_api_v3&utm_medium=api_v3_business_search&utm_source=OD45_sigUUSBobJ_eVs01w", "review_count": 2, "categories": [{"alias": "boatcharters", "title": "Boat Charters"}, {"alias": "boattours", "title": "Boat Tours"}], "rating": 5.0, "coordinates": {"latitude": 26.088302242313475, "longitude": -80.18163654251468}, "transactions": [], "location": {"address1": "", "address2": null, "address3": "", "city": "Fort Lauderdale", "zip_code": "33312", "country": "US", "state": "FL", "display_address": ["Fort Lauderdale, FL 33312"]}, "phone": "+19543945334", "display_phone": "(954) 394-5334", "distance": 38800.30175760586}, {"id": "-cp04oa3V2HXXQAiUaq_2g", "alias": "starwest-transportation-lauderhill", "name": "StarWest Transportation", "image_url": "https://s3-media3.fl.yelpcdn.com/bphoto/S-iuFr_WcHpeorOj0-lO0A/o.jpg", "is_closed": false, "url": "https://www.yelp.com/biz/starwest-transportation-lauderhill?adjust_creative=OD45_sigUUSBobJ_eVs01w&utm_campaign=yelp_api_v3&utm_medium=api_v3_business_search&utm_source=OD45_sigUUSBobJ_eVs01w", "review_count": 2, "categories": [{"alias": "buses", "title": "Buses"}, {"alias": "bustours", "title": "Bus Tours"}, {"alias": "busrental", "title": "Bus Rental"}], "rating": 5.0, "coordinates": {"latitude": 26.1865098, "longitude": -80.22655449999999}, "transactions": [], "location": {"address1": "", "address2": null, "address3": "", "city": "Lauderhill", "zip_code": "33319", "country": "US", "state": "FL", "display_address": ["Lauderhill, FL 33319"]}, "phone": "+19545336033", "display_phone": "(954) 533-6033", "distance": 48622.07179917321}, {"id": "TxO2KGaMjEG9luTXdA8E3A", "alias": "rumbachiva-miami", "name": "Rumbachiva", "image_url": "https://s3-media4.fl.yelpcdn.com/bphoto/lVvMRRG5TZRXfpbTa6ZDgw/o.jpg", "is_closed": false, "url": "https://www.yelp.com/biz/rumbachiva-miami?adjust_creative=OD45_sigUUSBobJ_eVs01w&utm_campaign=yelp_api_v3&utm_medium=api_v3_business_search&utm_source=OD45_sigUUSBobJ_eVs01w", "review_count": 34, "categories": [{"alias": "partybusrentals", "title": "Party Bus Rentals"}, {"alias": "barcrawl", "title": "Bar Crawl"}, {"alias": "bustours", "title": "Bus Tours"}], "rating": 4.0, "coordinates": {"latitude": 25.597799, "longitude": -80.415592}, "transactions": [], "location": {"address1": "", "address2": "", "address3": "", "city": "Miami", "zip_code": "33132", "country": "US", "state": "FL", "display_address": ["Miami, FL 33132"]}, "phone": "+13059257571", "display_phone": "(305) 925-7571", "distance": 21451.315314450912}, {"id": "1Guf6zvbrjv0dngtlpimUg", "alias": "hollywood-beach-trikke-hollywood", "name": "Hollywood Beach Trikke", "image_url": "https://s3-media4.fl.yelpcdn.com/bphoto/KrBlcf4CxUkZRAerIU1z_Q/o.jpg", "is_closed": false, "url": "https://www.yelp.com/biz/hollywood-beach-trikke-hollywood?adjust_creative=OD45_sigUUSBobJ_eVs01w&utm_campaign=yelp_api_v3&utm_medium=api_v3_business_search&utm_source=OD45_sigUUSBobJ_eVs01w", "review_count": 54, "categories": [{"alias": "bikerentals", "title": "Bike Rentals"}, {"alias": "bike_repair_maintenance", "title": "Bike Repair/Maintenance"}, {"alias": "biketours", "title": "Bike tours"}], "rating": 4.0, "coordinates": {"latitude": 26.0196212, "longitude": -80.1160491}, "transactions": [], "location": {"address1": "327 Johnson St", "address2": "", "address3": "", "city": "Hollywood", "zip_code": "33019", "country": "US", "state": "FL", "display_address": ["327 Johnson St", "Hollywood, FL 33019"]}, "phone": "+17544007429", "display_phone": "(754) 400-7429", "distance": 34303.8269312584}, {"id": "JsQSUTN7Q_F95yP3CEmx3w", "alias": "city-tour-in-an-antique-car-miami-beach", "name": "City Tour in an Antique Car", "image_url": "https://s3-media4.fl.yelpcdn.com/bphoto/MfQBhKYscqCByWVqPCs8Bw/o.jpg", "is_closed": false, "url": "https://www.yelp.com/biz/city-tour-in-an-antique-car-miami-beach?adjust_creative=OD45_sigUUSBobJ_eVs01w&utm_campaign=yelp_api_v3&utm_medium=api_v3_business_search&utm_source=OD45_sigUUSBobJ_eVs01w", "review_count": 3, "categories": [{"alias": "historicaltours", "title": "Historical Tours"}], "rating": 4.5, "coordinates": {"latitude": 25.7825, "longitude": -80.13625}, "transactions": [], "location": {"address1": null, "address2": null, "address3": "", "city": "Miami Beach", "zip_code": "33139", "country": "US", "state": "FL", "display_address": ["Miami Beach, FL 33139"]}, "phone": "+17865126128", "display_phone": "(786) 512-6128", "distance": 14390.67046812175}, {"id": "VgzBNnyNOP_RefjMnvRUvQ", "alias": "ipaddlemiami-miami-7", "name": "iPaddleMiami", "image_url": "https://s3-media2.fl.yelpcdn.com/bphoto/lh2YzyTvhXxU5y1wPItzVA/o.jpg", "is_closed": false, "url": "https://www.yelp.com/biz/ipaddlemiami-miami-7?adjust_creative=OD45_sigUUSBobJ_eVs01w&utm_campaign=yelp_api_v3&utm_medium=api_v3_business_search&utm_source=OD45_sigUUSBobJ_eVs01w", "review_count": 83, "categories": [{"alias": "paddleboarding", "title": "Paddleboarding"}, {"alias": "rafting", "title": "Rafting/Kayaking"}, {"alias": "tours", "title": "Tours"}], "rating": 4.0, "coordinates": {"latitude": 25.8495375272458, "longitude": -80.1673960073601}, "transactions": [], "location": {"address1": "1275 NE 79th St", "address2": null, "address3": "", "city": "Miami", "zip_code": "33138", "country": "US", "state": "FL", "display_address": ["1275 NE 79th St", "Miami, FL 33138"]}, "phone": "+13054723353", "display_phone": "(305) 472-3353", "distance": 16180.176088233766}, {"id": "Yu8o_ocDROQcIpB45Z1f9g", "alias": "miami-asap-tours-miami-beach-3", "name": "Miami Asap Tours", "image_url": "https://s3-media3.fl.yelpcdn.com/bphoto/iodZt_R8uiKkbmgytNWhEw/o.jpg", "is_closed": false, "url": "https://www.yelp.com/biz/miami-asap-tours-miami-beach-3?adjust_creative=OD45_sigUUSBobJ_eVs01w&utm_campaign=yelp_api_v3&utm_medium=api_v3_business_search&utm_source=OD45_sigUUSBobJ_eVs01w", "review_count": 1, "categories": [{"alias": "bustours", "title": "Bus Tours"}, {"alias": "boattours", "title": "Boat Tours"}], "rating": 5.0, "coordinates": {"latitude": 25.774422119585324, "longitude": -80.13229231743324}, "transactions": [], "location": {"address1": "", "address2": null, "address3": "", "city": "Miami Beach", "zip_code": "33139", "country": "US", "state": "FL", "display_address": ["Miami Beach, FL 33139"]}, "phone": "+17866302384", "display_phone": "(786) 630-2384", "distance": 15786.359581565332}, {"id": "0gazq1hF3lMRtHRGcPG5jw", "alias": "miami-haunts-miami-beach-2", "name": "Miami Haunts", "image_url": "https://s3-media2.fl.yelpcdn.com/bphoto/DtrnTmx2Ih3fIgsZifeumg/o.jpg", "is_closed": false, "url": "https://www.yelp.com/biz/miami-haunts-miami-beach-2?adjust_creative=OD45_sigUUSBobJ_eVs01w&utm_campaign=yelp_api_v3&utm_medium=api_v3_business_search&utm_source=OD45_sigUUSBobJ_eVs01w", "review_count": 1, "categories": [{"alias": "walkingtours", "title": "Walking Tours"}, {"alias": "historicaltours", "title": "Historical Tours"}], "rating": 5.0, "coordinates": {"latitude": 25.7822398, "longitude": -80.1303876}, "transactions": [], "location": {"address1": "1160 Ocean Dr", "address2": null, "address3": "", "city": "Miami Beach", "zip_code": "33139", "country": "US", "state": "FL", "display_address": ["1160 Ocean Dr", "Miami Beach, FL 33139"]}, "phone": "", "display_phone": "", "distance": 16132.900018756574}, {"id": "6rHTbNyeggP81Ev95hxFXA", "alias": "baymingo-fort-lauderdale-3", "name": "Baymingo - boat rentals and tours in Fort Lauderdale", "image_url": "https://s3-media1.fl.yelpcdn.com/bphoto/dekoYAkH3yHwxNqOBxCcXA/o.jpg", "is_closed": false, "url": "https://www.yelp.com/biz/baymingo-fort-lauderdale-3?adjust_creative=OD45_sigUUSBobJ_eVs01w&utm_campaign=yelp_api_v3&utm_medium=api_v3_business_search&utm_source=OD45_sigUUSBobJ_eVs01w", "review_count": 1, "categories": [{"alias": "boattours", "title": "Boat Tours"}, {"alias": "boating", "title": "Boating"}], "rating": 5.0, "coordinates": {"latitude": 26.0664683, "longitude": -80.1684609}, "transactions": [], "location": {"address1": "4492 Anglers Ave", "address2": null, "address3": "", "city": "Fort Lauderdale", "zip_code": "33312", "country": "US", "state": "FL", "display_address": ["4492 Anglers Ave", "Fort Lauderdale, FL 33312"]}, "phone": "+17866164323", "display_phone": "(786) 616-4323", "distance": 36878.26014710695}, {"id": "V7ntzRJC15whGsvMX1q9hA", "alias": "courtney-taylor-private-tours-jamaica-miami", "name": "Courtney Taylor Private Tours Jamaica", "image_url": "https://s3-media4.fl.yelpcdn.com/bphoto/yAmKtlS9Pc-Mm30sZSobIQ/o.jpg", "is_closed": false, "url": "https://www.yelp.com/biz/courtney-taylor-private-tours-jamaica-miami?adjust_creative=OD45_sigUUSBobJ_eVs01w&utm_campaign=yelp_api_v3&utm_medium=api_v3_business_search&utm_source=OD45_sigUUSBobJ_eVs01w", "review_count": 1, "categories": [{"alias": "tours", "title": "Tours"}], "rating": 5.0, "coordinates": {"latitude": 25.7801284790039, "longitude": -80.298469543457}, "transactions": [], "location": {"address1": "", "address2": null, "address3": "", "city": "Miami", "zip_code": "33126", "country": "US", "state": "FL", "display_address": ["Miami, FL 33126"]}, "phone": "+18763771561", "display_phone": "(876) 377-1561", "distance": 2992.7038141965663}, {"id": "2-BMR62-hZ9S4EuT-BysSg", "alias": "miami-waves-miami", "name": "Miami waves", "image_url": "https://s3-media2.fl.yelpcdn.com/bphoto/4ogBj-vhmaiYEJPE5vkU6g/o.jpg", "is_closed": false, "url": "https://www.yelp.com/biz/miami-waves-miami?adjust_creative=OD45_sigUUSBobJ_eVs01w&utm_campaign=yelp_api_v3&utm_medium=api_v3_business_search&utm_source=OD45_sigUUSBobJ_eVs01w", "review_count": 1, "categories": [{"alias": "boattours", "title": "Boat Tours"}, {"alias": "boating", "title": "Boating"}], "rating": 5.0, "coordinates": {"latitude": 25.893775866067802, "longitude": -80.18251641009437}, "transactions": [], "location": {"address1": "", "address2": null, "address3": "", "city": "Miami", "zip_code": "33161", "country": "US", "state": "FL", "display_address": ["Miami, FL 33161"]}, "phone": "+17864889031", "display_phone": "(786) 488-9031", "distance": 18908.829759074873}], "total": 122, "region": {"center": {"longitude": -80.2880859375, "latitude": 25.752753731496888}}}
{"businesses": [{"id": "74OwM6wraQnflwzwhF6fvg", "alias": "pelican-pontoon-tours-miami", "name": "Pelican Pontoon tours", "image_url": "https://s3-media4.fl.yelpcdn.com/bphoto/zKO5hFjtbGFPstkM-oUMvg/o.jpg", "is_closed": false, "url": "https://www.yelp.com/biz/pelican-pontoon-tours-miami?adjust_creative=OD45_sigUUSBobJ_eVs01w&utm_campaign=yelp_api_v3&utm_medium=api_v3_business_search&utm_source=OD45_sigUUSBobJ_eVs01w", "review_count": 1, "categories": [{"alias": "boattours", "title": "Boat Tours"}], "rating": 5.0, "coordinates": {"latitude": 25.78268, "longitude": -80.17513}, "transactions": [], "location": {"address1": "\u200b1050 MacArthur Causeway", "address2": null, "address3": "", "city": "Miami", "zip_code": "33132", "country": "US", "state": "FL", "display_address": ["\u200b1050 MacArthur Causeway", "Miami, FL 33132"]}, "phone": "+13057754624", "display_phone": "(305) 775-4624", "distance": 11886.849509951566}, {"id": "8OymvUkoUDD5Tq_L-HRxZw", "alias": "quasar-expeditions-doral", "name": "Quasar Expeditions", "image_url": "https://s3-media3.fl.yelpcdn.com/bphoto/UmF1x-b3SP9SGVEd7wYQow/o.jpg", "is_closed": false, "url": "https://www.yelp.com/biz/quasar-expeditions-doral?adjust_creative=OD45_sigUUSBobJ_eVs01w&utm_campaign=yelp_api_v3&utm_medium=api_v3_business_search&utm_source=OD45_sigUUSBobJ_eVs01w", "review_count": 4, "categories": [{"alias": "tours", "title": "Tours"}, {"alias": "travelservices", "title": "Travel Services"}], "rating": 4.5, "coordinates": {"latitude": 25.7834802, "longitude": -80.3233446}, "transactions": [], "location": {"address1": "7855 NW 12th St", "address2": "Ste 111", "address3": "", "city": "Doral", "zip_code": "33126", "country": "US", "state": "FL", "display_address": ["7855 NW 12th St", "Ste 111", "Doral, FL 33126"]}, "phone": "+13055999008", "display_phone": "(305) 599-9008", "distance": 4913.176738768624}, {"id": "sj4CqQsLnGSujpgAMsWMrg", "alias": "boat-rentals-of-miami-miami", "name": "Boat Rentals of Miami", "image_url": "https://s3-media4.fl.yelpcdn.com/bphoto/nIc33nMPMFlF2RQiSMt0fQ/o.jpg", "is_closed": false, "url": "https://www.yelp.com/biz/boat-rentals-of-miami-miami?adjust_creative=OD45_sigUUSBobJ_eVs01w&utm_campaign=yelp_api_v3&utm_medium=api_v3_business_search&utm_source=OD45_sigUUSBobJ_eVs01w", "review_count": 1, "categories": [{"alias": "boatcharters", "title": "Boat Charters"}, {"alias": "boattours", "title": "Boat Tours"}], "rating": 5.0, "coordinates": {"latitude": 25.81146, "longitude": -80.12316}, "transactions": [], "location": {"address1": "", "address2": null, "address3": "", "city": "Miami", "zip_code": "33140", "country": "US", "state": "FL", "display_address": ["Miami, FL 33140"]}, "phone": "+19544837756", "display_phone": "(954) 483-7756", "distance": 16736.72765403618}, {"id": "MmuHZTcQOXs-nhyY2jsfuA", "alias": "boat-day-charter-miami", "name": "Boat Day Charter", "image_url": "https://s3-media1.fl.yelpcdn.com/bphoto/s7dxdXkxSc96B0d4l4SCLg/o.jpg", "is_closed": false, "url": "https://www.yelp.com/biz/boat-day-charter-miami?adjust_creative=OD45_sigUUSBobJ_eVs01w&utm_campaign=yelp_api_v3&utm_medium=api_v3_business_search&utm_source=OD45_sigUUSBobJ_eVs01w", "review_count": 1, "categories": [{"alias": "fishing", "title": "Fishing"}, {"alias": "boatcharters", "title": "Boat Charters"}, {"alias": "boattours", "title": "Boat Tours"}], "rating": 5.0, "coordinates": {"latitude": 25.729823300050224, "longitude": -80.2431873018273}, "transactions": [], "location": {"address1": null, "address2": null, "address3": "", "city": "Miami", "zip_code": "33133", "country": "US", "state": "FL", "display_address": ["Miami, FL 33133"]}, "phone": "+17864205231", "display_phone": "(786) 420-5231", "distance": 5169.599302415808}, {"id": "B_8y3UtyFWaJ83VSzT5xeA", "alias": "miami-vip-tours-sunny-isles-beach", "name": "Miami VIP Tours", "image_url": "https://s3-media2.fl.yelpcdn.com/bphoto/bo7xbz980vDnZIOESkn_lg/o.jpg", "is_closed": false, "url": "https://www.yelp.com/biz/miami-vip-tours-sunny-isles-beach?adjust_creative=OD45_sigUUSBobJ_eVs01w&utm_campaign=yelp_api_v3&utm_medium=api_v3_business_search&utm_source=OD45_sigUUSBobJ_eVs01w", "review_count": 1, "categories": [{"alias": "tours", "title": "Tours"}], "rating": 5.0, "coordinates": {"latitude": 25.949121, "longitude": -80.121109}, "transactions": [], "location": {"address1": "18660 Collins Ave", "address2": "Ste 104", "address3": "", "city": "Sunny Isles Beach", "zip_code": "33160", "country": "US", "state": "FL", "display_address": ["18660 Collins Ave", "Ste 104", "Sunny Isles Beach, FL 33160"]}, "phone": "+18885256454", "display_phone": "(888) 525-6454", "distance": 27494.721994499283}, {"id": "hE0pBeaupl2DaqaQ1OEg5g", "alias": "craft-food-tours-fort-lauderdale", "name": "Craft Food Tours", "image_url": "https://s3-media1.fl.yelpcdn.com/bphoto/eVwlC-GQLWRSOJOKm91zXA/o.jpg", "is_closed": false, "url": "https://www.yelp.com/biz/craft-food-tours-fort-lauderdale?adjust_creative=OD45_sigUUSBobJ_eVs01w&utm_campaign=yelp_api_v3&utm_medium=api_v3_business_search&utm_source=OD45_sigUUSBobJ_eVs01w", "review_count": 1, "categories": [{"alias": "foodtours", "title": "Food Tours"}], "rating": 5.0, "coordinates": {"latitude": 26.12118426784519, "longitude": -80.1275115001674}, "transactions": [], "location": {"address1": null, "address2": null, "address3": "", "city": "Fort Lauderdale", "zip_code": "33301", "country": "US", "state": "FL", "display_address": ["Fort Lauderdale, FL 33301"]}, "phone": "+19545598456", "display_phone": "(954) 559-8456", "distance": 44001.751568431246}, {"id": "ULIXC0Wam0A-xCL_xKTLhg", "alias": "miami-bonefishing-miami-beach", "name": "Miami Bonefishing", "image_url": "https://s3-media1.fl.yelpcdn.com/bphoto/c9BngRd9me50tPdwaAn21w/o.jpg", "is_closed": false, "url": "https://www.yelp.com/biz/miami-bonefishing-miami-beach?adjust_creative=OD45_sigUUSBobJ_eVs01w&utm_campaign=yelp_api_v3&utm_medium=api_v3_business_search&utm_source=OD45_sigUUSBobJ_eVs01w", "review_count": 1, "categories": [{"alias": "fishing", "title": "Fishing"}, {"alias": "boatcharters", "title": "Boat Charters"}, {"alias": "tours", "title": "Tours"}], "rating": 5.0, "coordinates": {"latitude": 25.795269, "longitude": -80.1446152}, "transactions": [], "location": {"address1": "1928 Sunset Harbour Dr", "address2": "", "address3": "Sunset Harbor Marina", "city": "Miami Beach", "zip_code": "33139", "country": "US", "state": "FL", "display_address": ["1928 Sunset Harbour Dr", "Sunset Harbor Marina", "Miami Beach, FL 33139"]}, "phone": "+17868531409", "display_phone": "(786) 853-1409", "distance": 15091.033485047397}, {"id": "8R5_bTlaTyAzcWIMAvozOA", "alias": "alpha-lifestyle-vip-miami", "name": "Alpha Lifestyle VIP", "image_url": "https://s3-media3.fl.yelpcdn.com/bphoto/haSxVrZf26SEN5QEnnq9cw/o.jpg", "is_closed": false, "url": "https://www.yelp.com/biz/alpha-lifestyle-vip-miami?adjust_creative=OD45_sigUUSBobJ_eVs01w&utm_campaign=yelp_api_v3&utm_medium=api_v3_business_search&utm_source=OD45_sigUUSBobJ_eVs01w", "review_count": 1, "categories": [{"alias": "eventplanning", "title": "Party & Event Planning"}, {"alias": "tours", "title": "Tours"}], "rating": 5.0, "coordinates": {"latitude": 25.78119, "longitude": -80.19068}, "transactions": [], "location": {"address1": null, "address2": null, "address3": "", "city": "Miami ", "zip_code": "33132", "country": "US", "state": "FL", "display_address": ["Miami , FL 33132"]}, "phone": "+13056102042", "display_phone": "(305) 610-2042", "distance": 12180.161597918126}, {"id": "voVObQTPaqCgj59MaltwVQ", "alias": "le-tour-guy-miami-gardens", "name": "Le Tour Guy", "image_url": "https://s3-media3.fl.yelpcdn.com/bphoto/Ykr6C9ONLMZfLri9003Ztw/o.jpg", "is_closed": false, "url": "https://www.yelp.com/biz/le-tour-guy-miami-gardens?adjust_creative=OD45_sigUUSBobJ_eVs01w&utm_campaign=yelp_api_v3&utm_medium=api_v3_business_search&utm_source=OD45_sigUUSBobJ_eVs01w", "review_count": 1, "categories": [{"alias": "airport_shuttles", "title": "Airport Shuttles"}, {"alias": "tours", "title": "Tours"}, {"alias": "notaries", "title": "Notaries"}], "rating": 5.0, "coordinates": {"latitude": 25.943015824370622, "longitude": -80.2145594939109}, "transactions": [], "location": {"address1": null, "address2": null, "address3": "", "city": "Miami Gardens", "zip_code": "33169", "country": "US", "state": "FL", "display_address": ["Miami Gardens, FL 33169"]}, "phone": "+19543485173", "display_phone": "(954) 348-5173", "distance": 22399.11276821598}, {"id": "fjWhWAO18qMrF0Wc3TyHnw", "alias": "ecoboats-fort-lauderdale", "name": "Ecoboats", "image_url": "https://s3-media3.fl.yelpcdn.com/bphoto/e8kAjoBzl6G1WFPavlktPg/o.jpg", "is_closed": false, "url": "https://www.yelp.com/biz/ecoboats-fort-lauderdale?adjust_creative=OD45_sigUUSBobJ_eVs01w&utm_campaign=yelp_api_v3&utm_medium=api_v3_business_search&utm_source=OD45_sigUUSBobJ_eVs01w", "review_count": 1, "categories": [{"alias": "boattours", "title": "Boat Tours"}, {"alias": "boatcharters", "title": "Boat Charters"}], "rating": 5.0, "coordinates": {"latitude": 26.09059, "longitude": -80.17088}, "transactions": [], "location": {"address1": "2525 Marina Bay Dr W", "address2": "", "address3": null, "city": "Fort Lauderdale", "zip_code": "33312", "country": "US", "state": "FL", "display_address": ["2525 Marina Bay Dr W", "Fort Lauderdale, FL 33312"]}, "phone": "+19545000326", "display_phone": "(954) 500-0326", "distance": 39351.769935500226}, {"id": "wSiB6AzPUEDQX_tG8PFEXw", "alias": "flash-transportation-hollywood-23", "name": "Flash Transportation", "image_url": "https://s3-media1.fl.yelpcdn.com/bphoto/2twUL2FbPWDLNAdwf9DMKA/o.jpg", "is_closed": false, "url": "https://www.yelp.com/biz/flash-transportation-hollywood-23?adjust_creative=OD45_sigUUSBobJ_eVs01w&utm_campaign=yelp_api_v3&utm_medium=api_v3_business_search&utm_source=OD45_sigUUSBobJ_eVs01w", "review_count": 1, "categories": [{"alias": "airport_shuttles", "title": "Airport Shuttles"}, {"alias": "tours", "title": "Tours"}], "rating": 5.0, "coordinates": {"latitude": 26.0618970373015, "longitude": -80.1671642030028}, "transactions": [], "location": {"address1": "", "address2": null, "address3": "", "city": "Hollywood", "zip_code": "33312", "country": "US", "state": "FL", "display_address": ["Hollywood, FL 33312"]}, "phone": "+17542002001", "display_phone": "(754) 200-2001", "distance": 36440.74450029025}, {"id": "7vr5QVqDm1PJPKUKWoDhbg", "alias": "bookouryacht-miramar", "name": "Bookouryacht", "image_url": "https://s3-media1.fl.yelpcdn.com/bphoto/SpfWFJpVBIyJDYLyxX0UCQ/o.jpg", "is_closed": false, "url": "https://www.yelp.com/biz/bookouryacht-miramar?adjust_creative=OD45_sigUUSBobJ_eVs01w&utm_campaign=yelp_api_v3&utm_medium=api_v3_business_search&utm_source=OD45_sigUUSBobJ_eVs01w", "review_count": 1, "categories": [{"alias": "boatcharters", "title": "Boat Charters"}, {"alias": "boattours", "title": "Boat Tours"}], "rating": 5.0, "coordinates": {"latitude": 25.98822, "longitude": -80.25521}, "transactions": [], "location": {"address1": null, "address2": null, "address3": null, "city": "Miramar", "zip_code": "33025", "country": "US", "state": "FL", "display_address": ["Miramar, FL 33025"]}, "phone": "+13054792889", "display_phone": "(305) 479-2889", "distance": 26466.43343739015}, {"id": "ZsOOXk_icoHaCVyFxAVnng", "alias": "flowboat-sunset-cruise-fort-lauderdale-2", "name": "Flowboat Sunset Cruise", "image_url": "https://s3-media3.fl.yelpcdn.com/bphoto/pq7DG_Pec4Wiaqp_xYPl_Q/o.jpg", "is_closed": false, "url": "https://www.yelp.com/biz/flowboat-sunset-cruise-fort-lauderdale-2?adjust_creative=OD45_sigUUSBobJ_eVs01w&utm_campaign=yelp_api_v3&utm_medium=api_v3_business_search&utm_source=OD45_sigUUSBobJ_eVs01w", "review_count": 1, "categories": [{"alias": "boatcharters", "title": "Boat Charters"}, {"alias": "boattours", "title": "Boat Tours"}], "rating": 5.0, "coordinates": {"latitude": 26.0898957, "longitude": -80.1819268}, "transactions": [], "location": {"address1": null, "address2": null, "address3": null, "city": "Fort Lauderdale", "zip_code": "33312", "country": "US", "state": "FL", "display_address": ["Fort Lauderdale, FL 33312"]}, "phone": "+19549186559", "display_phone": "(954) 918-6559", "distance": 38962.77703331146}, {"id": "ywL9yF8Ms4oJlA4wgxua5w", "alias": "celebz-transportation-miami-2", "name": "Celebz Transportation", "image_url": "https://s3-media1.fl.yelpcdn.com/bphoto/bxIMLnpyCeYnO3hg52187g/o.jpg", "is_closed": false, "url": "https://www.yelp.com/biz/celebz-transportation-miami-2?adjust_creative=OD45_sigUUSBobJ_eVs01w&utm_campaign=yelp_api_v3&utm_medium=api_v3_business_search&utm_source=OD45_sigUUSBobJ_eVs01w", "review_count": 1, "categories": [{"alias": "partybusrentals", "title": "Party Bus Rentals"}, {"alias": "winetours", "title": "Wine Tours"}], "rating": 5.0, "coordinates": {"latitude": 25.809280395507812, "longitude": -80.23497009277344}, "transactions": [], "location": {"address1": null, "address2": null, "address3": null, "city": "Miami", "zip_code": "33142", "country": "US", "state": "FL", "display_address": ["Miami, FL 33142"]}, "phone": "+13054230047", "display_phone": "(305) 423-0047", "distance": 8366.139232801519}, {"id": "cBoAIbla9xBnkIbOyAeOwQ", "alias": "flamingo-yacht-charters-fort-lauderdale-2", "name": "Flamingo Yacht Charters", "image_url": "https://s3-media2.fl.yelpcdn.com/bphoto/-5RhyVnsAhkUiyV3nYt7wA/o.jpg", "is_closed": false, "url": "https://www.yelp.com/biz/flamingo-yacht-charters-fort-lauderdale-2?adjust_creative=OD45_sigUUSBobJ_eVs01w&utm_campaign=yelp_api_v3&utm_medium=api_v3_business_search&utm_source=OD45_sigUUSBobJ_eVs01w", "review_count": 1, "categories": [{"alias": "boattours", "title": "Boat Tours"}, {"alias": "boatcharters", "title": "Boat Charters"}, {"alias": "boating", "title": "Boating"}], "rating": 5.0, "coordinates": {"latitude": 26.1033833, "longitude": -80.1224742}, "transactions": [], "location": {"address1": "1781 SE 15 St", "address2": null, "address3": "", "city": "Fort Lauderdale", "zip_code": "33316", "country": "US", "state": "FL", "display_address": ["1781 SE 15 St", "Fort Lauderdale, FL 33316"]}, "phone": "+13054501066", "display_phone": "(305) 450-1066", "distance": 42359.91592337446}, {"id": "pNHKpnw7N9o9-ig9gZpgjw", "alias": "netan-tours-miami-2", "name": "Netan Tours", "image_url": "https://s3-media2.fl.yelpcdn.com/bphoto/dXzQgePDMFqno_RrTG_irw/o.jpg", "is_closed": false, "url": "https://www.yelp.com/biz/netan-tours-miami-2?adjust_creative=OD45_sigUUSBobJ_eVs01w&utm_campaign=yelp_api_v3&utm_medium=api_v3_business_search&utm_source=OD45_sigUUSBobJ_eVs01w", "review_count": 1, "categories": [{"alias": "airport_shuttles", "title": "Airport Shuttles"}, {"alias": "bustours", "title": "Bus Tours"}, {"alias": "limos", "title": "Limos"}], "rating": 5.0, "coordinates": {"latitude": 25.8136506, "longitude": -80.1888808}, "transactions": [], "location": {"address1": "3915 Biscayne Blvd", "address2": "", "address3": "", "city": "Miami", "zip_code": "33137", "country": "US", "state": "FL", "display_address": ["3915 Biscayne Blvd", "Miami, FL 33137"]}, "phone": "+19543300277", "display_phone": "(954) 330-0277", "distance": 12021.42838220587}, {"id": "2iKqJFWKx7uLWN5tdwnuEA", "alias": "ultimate-florida-tours-hollywood", "name": "Ultimate Florida Tours", "image_url": "https://s3-media1.fl.yelpcdn.com/bphoto/RiGYYa7Yh7oO-88vLauSiQ/o.jpg", "is_closed": false, "url": "https://www.yelp.com/biz/ultimate-florida-tours-hollywood?adjust_creative=OD45_sigUUSBobJ_eVs01w&utm_campaign=yelp_api_v3&utm_medium=api_v3_business_search&utm_source=OD45_sigUUSBobJ_eVs01w", "review_count": 1, "categories": [{"alias": "tours", "title": "Tours"}], "rating": 5.0, "coordinates": {"latitude": 26.01232, "longitude": -80.116286}, "transactions": [], "location": {"address1": "2501 N Ocean Dr", "address2": "", "address3": "", "city": "Hollywood", "zip_code": "33019", "country": "US", "state": "FL", "display_address": ["2501 N Ocean Dr", "Hollywood, FL 33019"]}, "phone": "+19549037049", "display_phone": "(954) 903-7049", "distance": 33592.14721260738}, {"id": "DN-8BzqcvDNLcf3KiarDZw", "alias": "everglades-airboat-tours-miami", "name": "Everglades Airboat Tours", "image_url": "https://s3-media3.fl.yelpcdn.com/bphoto/9VMxQM-TPIXSZrouhH2inQ/o.jpg", "is_closed": false, "url": "https://www.yelp.com/biz/everglades-airboat-tours-miami?adjust_creative=OD45_sigUUSBobJ_eVs01w&utm_campaign=yelp_api_v3&utm_medium=api_v3_business_search&utm_source=OD45_sigUUSBobJ_eVs01w", "review_count": 1, "categories": [{"alias": "boattours", "title": "Boat Tours"}], "rating": 5.0, "coordinates": {"latitude": 25.757076263427734, "longitude": -80.44589233398438}, "transactions": [], "location": {"address1": null, "address2": null, "address3": null, "city": "Miami", "zip_code": "33194", "country": "US", "state": "FL", "display_address": ["Miami, FL 33194"]}, "phone": "+13052473274", "display_phone": "(305) 247-3274", "distance": 32575.00932137909}, {"id": "Ehy2sqRcLXSWEZWsJEHsQQ", "alias": "miamitour-miami-2", "name": "MiamiTour", "image_url": "https://s3-media3.fl.yelpcdn.com/bphoto/F_nY9zRa-sUEqpD1PCoM5Q/o.jpg", "is_closed": false, "url": "https://www.yelp.com/biz/miamitour-miami-2?adjust_creative=OD45_sigUUSBobJ_eVs01w&utm_campaign=yelp_api_v3&utm_medium=api_v3_business_search&utm_source=OD45_sigUUSBobJ_eVs01w", "review_count": 1, "categories": [{"alias": "boatcharters", "title": "Boat Charters"}, {"alias": "boattours", "title": "Boat Tours"}, {"alias": "jetskis", "title": "Jet Skis"}], "rating": 5.0, "coordinates": {"latitude": 25.77914, "longitude": -80.1868}, "transactions": [], "location": {"address1": "401 Biscayne Blvd", "address2": null, "address3": "", "city": "Miami", "zip_code": "33132", "country": "US", "state": "FL", "display_address": ["401 Biscayne Blvd", "Miami, FL 33132"]}, "phone": "+13059150391", "display_phone": "(305) 915-0391", "distance": 10419.849654760641}, {"id": "mGK6hNXIFzawpS-tvOuD3w", "alias": "airboat-rides-florida-everglades-oakland-park-2", "name": "Airboat Rides Florida Everglades", "image_url": "https://s3-media3.fl.yelpcdn.com/bphoto/4CyTUK-lUiGUHunrFQwTog/o.jpg", "is_closed": false, "url": "https://www.yelp.com/biz/airboat-rides-florida-everglades-oakland-park-2?adjust_creative=OD45_sigUUSBobJ_eVs01w&utm_campaign=yelp_api_v3&utm_medium=api_v3_business_search&utm_source=OD45_sigUUSBobJ_eVs01w", "review_count": 1, "categories": [{"alias": "boattours", "title": "Boat Tours"}], "rating": 5.0, "coordinates": {"latitude": 26.13709, "longitude": -80.13714}, "transactions": [], "location": {"address1": null, "address2": null, "address3": null, "city": "Oakland Park", "zip_code": "33304", "country": "US", "state": "FL", "display_address": ["Oakland Park, FL 33304"]}, "phone": "+19543384890", "display_phone": "(954) 338-4890", "distance": 45810.165155168055}, {"id": "6BAuTUA1ytghfOPFl6mSOw", "alias": "helicopter-academy-hollywood", "name": "Helicopter Academy", "image_url": "https://s3-media4.fl.yelpcdn.com/bphoto/D9IRgCgd1txle2YUzxKTYg/o.jpg", "is_closed": false, "url": "https://www.yelp.com/biz/helicopter-academy-hollywood?adjust_creative=OD45_sigUUSBobJ_eVs01w&utm_campaign=yelp_api_v3&utm_medium=api_v3_business_search&utm_source=OD45_sigUUSBobJ_eVs01w", "review_count": 1, "categories": [{"alias": "flightinstruction", "title": "Flight Instruction"}, {"alias": "aerialtours", "title": "Aerial Tours"}], "rating": 5.0, "coordinates": {"latitude": 26.0052774, "longitude": -80.2419894}, "transactions": [], "location": {"address1": "603 SW 77th Way", "address2": "", "address3": "", "city": "Hollywood", "zip_code": "33023", "country": "US", "state": "FL", "display_address": ["603 SW 77th Way", "Hollywood, FL 33023"]}, "phone": "+15613462816", "display_phone": "(561) 346-2816", "distance": 28395.404397723574}, {"id": "EWcQtiLOPMfPwwrRz9CpTw", "alias": "cruise-soflo-miami", "name": "Cruise SoFlo", "image_url": "https://s3-media3.fl.yelpcdn.com/bphoto/RqrI6YXF7b-JVATBLYGwAQ/o.jpg", "is_closed": false, "url": "https://www.yelp.com/biz/cruise-soflo-miami?adjust_creative=OD45_sigUUSBobJ_eVs01w&utm_campaign=yelp_api_v3&utm_medium=api_v3_business_search&utm_source=OD45_sigUUSBobJ_eVs01w", "review_count": 1, "categories": [{"alias": "tours", "title": "Tours"}, {"alias": "boatcharters", "title": "Boat Charters"}, {"alias": "limos", "title": "Limos"}], "rating": 5.0, "coordinates": {"latitude": 25.7356, "longitude": -80.34472}, "transactions": [], "location": {"address1": null, "address2": null, "address3": "", "city": "Miami", "zip_code": "33165", "country": "US", "state": "FL", "display_address": ["Miami, FL 33165"]}, "phone": "+18003311624", "display_phone": "(800) 331-1624", "distance": 7035.439071631894}, {"id": "13yfmXufRKhtzB8M2aX5Xg", "alias": "out-of-the-blue-charters-tavernier", "name": "Out of the Blue Charters", "image_url": "https://s3-media2.fl.yelpcdn.com/bphoto/ibhhJvRh0bIjDwIRo9uAvA/o.jpg", "is_closed": false, "url": "https://www.yelp.com/biz/out-of-the-blue-charters-tavernier?adjust_creative=OD45_sigUUSBobJ_eVs01w&utm_campaign=yelp_api_v3&utm_medium=api_v3_business_search&utm_source=OD45_sigUUSBobJ_eVs01w", "review_count": 1, "categories": [{"alias": "fishing", "title": "Fishing"}, {"alias": "boatcharters", "title": "Boat Charters"}, {"alias": "tours", "title": "Tours"}], "rating": 5.0, "coordinates": {"latitude": 24.987215, "longitude": -80.548309}, "transactions": [], "location": {"address1": "202 Navajo St", "address2": "", "address3": "", "city": "Tavernier", "zip_code": "33070", "country": "US", "state": "FL", "display_address": ["202 Navajo St", "Tavernier, FL 33070"]}, "phone": "+13053935003", "display_phone": "(305) 393-5003", "distance": 89046.08650572602}, {"id": "77qtwWYQ7Hyxkmi0X95IgA", "alias": "ipaddlemiami-palmetto-bay-3", "name": "ipaddlemiami", "image_url": "https://s3-media1.fl.yelpcdn.com/bphoto/zLfEoji_wWuC6O13maitzA/o.jpg", "is_closed": false, "url": "https://www.yelp.com/biz/ipaddlemiami-palmetto-bay-3?adjust_creative=OD45_sigUUSBobJ_eVs01w&utm_campaign=yelp_api_v3&utm_medium=api_v3_business_search&utm_source=OD45_sigUUSBobJ_eVs01w", "review_count": 1, "categories": [{"alias": "paddleboarding", "title": "Paddleboarding"}, {"alias": "rafting", "title": "Rafting/Kayaking"}, {"alias": "tours", "title": "Tours"}], "rating": 5.0, "coordinates": {"latitude": 25.61113, "longitude": -80.308474}, "transactions": [], "location": {"address1": "17350 Old Cutler Rd", "address2": null, "address3": "", "city": "Palmetto Bay", "zip_code": "33157", "country": "US", "state": "FL", "display_address": ["17350 Old Cutler Rd", "Palmetto Bay, FL 33157"]}, "phone": "+13054723353", "display_phone": "(305) 472-3353", "distance": 15880.21867381138}, {"id": "Rbp4Bp-Ux0CeUHVKsMZBwQ", "alias": "jp-outfitters-pembroke-pines", "name": "JP Outfitters", "image_url": "https://s3-media3.fl.yelpcdn.com/bphoto/jkQbNStibWfA_MX--A-wOA/o.jpg", "is_closed": false, "url": "https://www.yelp.com/biz/jp-outfitters-pembroke-pines?adjust_creative=OD45_sigUUSBobJ_eVs01w&utm_campaign=yelp_api_v3&utm_medium=api_v3_business_search&utm_source=OD45_sigUUSBobJ_eVs01w", "review_count": 1, "categories": [{"alias": "fishing", "title": "Fishing"}, {"alias": "wildlifehunting", "title": "Wildlife Hunting Ranges"}, {"alias": "boattours", "title": "Boat Tours"}], "rating": 5.0, "coordinates": {"latitude": 26.0221751, "longitude": -80.2549794}, "transactions": [], "location": {"address1": "8421 NW 15th Court", "address2": null, "address3": "", "city": "Pembroke Pines", "zip_code": "33023", "country": "US", "state": "FL", "display_address": ["8421 NW 15th Court", "Pembroke Pines, FL 33023"]}, "phone": "+19544966588", "display_phone": "(954) 496-6588", "distance": 30140.762495911054}, {"id": "gLPZGQ4foj1_Ku4jaeRoFw", "alias": "diamond-yacht-rentals-miami-beach", "name": "Diamond Yacht Rentals", "image_url": "https://s3-media1.fl.yelpcdn.com/bphoto/lbANqD3D83XM1Wa6MHYYsw/o.jpg", "is_closed": false, "url": "https://www.yelp.com/biz/diamond-yacht-rentals-miami-beach?adjust_creative=OD45_sigUUSBobJ_eVs01w&utm_campaign=yelp_api_v3&utm_medium=api_v3_business_search&utm_source=OD45_sigUUSBobJ_eVs01w", "review_count": 1, "categories": [{"alias": "boatcharters", "title": "Boat Charters"}, {"alias": "boattours", "title": "Boat Tours"}, {"alias": "boating", "title": "Boating"}], "rating": 5.0, "coordinates": {"latitude": 25.7739503, "longitude": -80.1385842}, "transactions": [], "location": {"address1": "1000 5th St", "address2": null, "address3": null, "city": "Miami Beach", "zip_code": "33139", "country": "US", "state": "FL", "display_address": ["1000 5th St", "Miami Beach, FL 33139"]}, "phone": "+13058474040", "display_phone": "(305) 847-4040", "distance": 15155.749941634003}, {"id": "vvst8OJzHyicyBd63XlnOA", "alias": "take-me-out-miami-miami", "name": "Take Me Out Miami", "image_url": "https://s3-media1.fl.yelpcdn.com/bphoto/-dIyY9QWeobJiFPhdwMZqw/o.jpg", "is_closed": false, "url": "https://www.yelp.com/biz/take-me-out-miami-miami?adjust_creative=OD45_sigUUSBobJ_eVs01w&utm_campaign=yelp_api_v3&utm_medium=api_v3_business_search&utm_source=OD45_sigUUSBobJ_eVs01w", "review_count": 1, "categories": [{"alias": "tours", "title": "Tours"}], "rating": 5.0, "coordinates": {"latitude": 25.7689209, "longitude": -80.1324387}, "transactions": [], "location": {"address1": "1 Ocean Dr", "address2": null, "address3": "", "city": "Miami", "zip_code": "33139", "country": "US", "state": "FL", "display_address": ["1 Ocean Dr", "Miami, FL 33139"]}, "phone": "+18773131815", "display_phone": "(877) 313-1815", "distance": 15700.522352198748}, {"id": "H1c_tkOhCSQu1STPtkWdRw", "alias": "hollywood-beach-trikke-hollywood-2", "name": "Hollywood Beach Trikke", "image_url": "https://s3-media4.fl.yelpcdn.com/bphoto/hPAYgO_SDFAZ0Cm8GIUF5A/o.jpg", "is_closed": false, "url": "https://www.yelp.com/biz/hollywood-beach-trikke-hollywood-2?adjust_creative=OD45_sigUUSBobJ_eVs01w&utm_campaign=yelp_api_v3&utm_medium=api_v3_business_search&utm_source=OD45_sigUUSBobJ_eVs01w", "review_count": 10, "categories": [{"alias": "bike_repair_maintenance", "title": "Bike Repair/Maintenance"}, {"alias": "bikerentals", "title": "Bike Rentals"}, {"alias": "scootertours", "title": "Scooter Tours"}], "rating": 4.0, "coordinates": {"latitude": 26.01971, "longitude": -80.11608}, "transactions": [], "location": {"address1": "327 Johnson St", "address2": null, "address3": null, "city": "Hollywood", "zip_code": "33019", "country": "US", "state": "FL", "display_address": ["327 Johnson St", "Hollywood, FL 33019"]}, "phone": "+17544007429", "display_phone": "(754) 400-7429", "distance": 34303.8269312584}, {"id": "ITq3zEmI011IjsUOLOjRhQ", "alias": "loco-bus-miami-miami", "name": "Loco Bus Miami", "image_url": "https://s3-media3.fl.yelpcdn.com/bphoto/zYp_WL3h73uP9h7HDRHWaA/o.jpg", "is_closed": false, "url": "https://www.yelp.com/biz/loco-bus-miami-miami?adjust_creative=OD45_sigUUSBobJ_eVs01w&utm_campaign=yelp_api_v3&utm_medium=api_v3_business_search&utm_source=OD45_sigUUSBobJ_eVs01w", "review_count": 10, "categories": [{"alias": "partybusrentals", "title": "Party Bus Rentals"}, {"alias": "bustours", "title": "Bus Tours"}], "rating": 4.0, "coordinates": {"latitude": 25.73460578918457, "longitude": -80.4110107421875}, "transactions": [], "location": {"address1": null, "address2": null, "address3": "", "city": "Miami", "zip_code": "33175", "country": "US", "state": "FL", "display_address": ["Miami, FL 33175"]}, "phone": "+13054793171", "display_phone": "(305) 479-3171", "distance": 11295.563995272983}, {"id": "O1AkZ4tT-3M4WIYq1G5JcA", "alias": "bjm-jetski-rentals-miami-3", "name": "BJM Jetski Rentals", "image_url": "https://s3-media1.fl.yelpcdn.com/bphoto/sSlsrUm68sCYRdTQQLpQaw/o.jpg", "is_closed": false, "url": "https://www.yelp.com/biz/bjm-jetski-rentals-miami-3?adjust_creative=OD45_sigUUSBobJ_eVs01w&utm_campaign=yelp_api_v3&utm_medium=api_v3_business_search&utm_source=OD45_sigUUSBobJ_eVs01w", "review_count": 20, "categories": [{"alias": "flyboarding", "title": "Flyboarding"}, {"alias": "jetskis", "title": "Jet Skis"}, {"alias": "boattours", "title": "Boat Tours"}], "rating": 4.0, "coordinates": {"latitude": 25.853954641198357, "longitude": -80.17842494237686}, "transactions": [], "location": {"address1": null, "address2": null, "address3": "", "city": "Miami ", "zip_code": "33138", "country": "US", "state": "FL", "display_address": ["Miami , FL 33138"]}, "phone": "+13059887400", "display_phone": "(305) 988-7400", "distance": 15720.857695865305}, {"id": "obIdTOuUqUXd57wrTxhjNQ", "alias": "whitski-yacht-rentals-miami-3", "name": "Whitski Yacht Rentals", "image_url": "https://s3-media1.fl.yelpcdn.com/bphoto/WMt3p78d9UbgF2Gz-YsOOA/o.jpg", "is_closed": false, "url": "https://www.yelp.com/biz/whitski-yacht-rentals-miami-3?adjust_creative=OD45_sigUUSBobJ_eVs01w&utm_campaign=yelp_api_v3&utm_medium=api_v3_business_search&utm_source=OD45_sigUUSBobJ_eVs01w", "review_count": 13, "categories": [{"alias": "boatcharters", "title": "Boat Charters"}, {"alias": "boattours", "title": "Boat Tours"}, {"alias": "boating", "title": "Boating"}], "rating": 4.0, "coordinates": {"latitude": 25.781475983637808, "longitude": -80.17208701431572}, "transactions": [], "location": {"address1": "1099 MacArthur Cswy", "address2": null, "address3": "", "city": "Miami", "zip_code": "33132", "country": "US", "state": "FL", "display_address": ["1099 MacArthur Cswy", "Miami, FL 33132"]}, "phone": "+13057531123", "display_phone": "(305) 753-1123", "distance": 12047.019746426362}, {"id": "M2-XUAr99j8Aa_s7KdhQIQ", "alias": "cutting-edge-fishing-key-biscayne", "name": "Cutting Edge Fishing", "image_url": "https://s3-media3.fl.yelpcdn.com/bphoto/9mYw9XTNUWFOY3Dcu41VdQ/o.jpg", "is_closed": false, "url": "https://www.yelp.com/biz/cutting-edge-fishing-key-biscayne?adjust_creative=OD45_sigUUSBobJ_eVs01w&utm_campaign=yelp_api_v3&utm_medium=api_v3_business_search&utm_source=OD45_sigUUSBobJ_eVs01w", "review_count": 4, "categories": [{"alias": "boatcharters", "title": "Boat Charters"}, {"alias": "fishing", "title": "Fishing"}, {"alias": "boattours", "title": "Boat Tours"}], "rating": 4.0, "coordinates": {"latitude": 25.7242982, "longitude": -80.15565}, "transactions": [], "location": {"address1": "4000 Crandon Blvd", "address2": "", "address3": "", "city": "Key Biscayne", "zip_code": "33149", "country": "US", "state": "FL", "display_address": ["4000 Crandon Blvd", "Key Biscayne, FL 33149"]}, "phone": "+13053619740", "display_phone": "(305) 361-9740", "distance": 13637.275958605751}, {"id": "tvwVPSE9dY3YHkBZXndDjw", "alias": "banana-joe-tours-miami-beach", "name": "Banana Joe Tours", "image_url": "https://s3-media2.fl.yelpcdn.com/bphoto/6INNxx5or6GeLC5fxIek_w/o.jpg", "is_closed": false, "url": "https://www.yelp.com/biz/banana-joe-tours-miami-beach?adjust_creative=OD45_sigUUSBobJ_eVs01w&utm_campaign=yelp_api_v3&utm_medium=api_v3_business_search&utm_source=OD45_sigUUSBobJ_eVs01w", "review_count": 9, "categories": [{"alias": "bustours", "title": "Bus Tours"}], "rating": 3.5, "coordinates": {"latitude": 25.76077, "longitude": -80.14075}, "transactions": [], "location": {"address1": "", "address2": null, "address3": "", "city": "Miami Beach", "zip_code": "33109", "country": "US", "state": "FL", "display_address": ["Miami Beach, FL 33109"]}, "phone": "+17868389075", "display_phone": "(786) 838-9075", "distance": 15387.37142325139}, {"id": "_RhVaip9RnxRE0A6xs3aMQ", "alias": "miami-discount-tours-miami-beach-4", "name": "Miami Discount Tours", "image_url": "https://s3-media1.fl.yelpcdn.com/bphoto/jjAzFm2atmDnpQoJ1k3lBA/o.jpg", "is_closed": false, "url": "https://www.yelp.com/biz/miami-discount-tours-miami-beach-4?adjust_creative=OD45_sigUUSBobJ_eVs01w&utm_campaign=yelp_api_v3&utm_medium=api_v3_business_search&utm_source=OD45_sigUUSBobJ_eVs01w", "review_count": 4, "categories": [{"alias": "bustours", "title": "Bus Tours"}, {"alias": "historicaltours", "title": "Historical Tours"}, {"alias": "boattours", "title": "Boat Tours"}], "rating": 4.0, "coordinates": {"latitude": 25.7824954986572, "longitude": -80.1362457275391}, "transactions": [], "location": {"address1": "", "address2": "", "address3": "", "city": "Miami Beach", "zip_code": "33139", "country": "US", "state": "FL", "display_address": ["Miami Beach, FL 33139"]}, "phone": "+17865192413", "display_phone": "(786) 519-2413", "distance": 14390.67046812175}, {"id": "UH3P0CVRy0fRCh5ZtQuC7g", "alias": "fish-jumanji-miami", "name": "Fish Jumanji", "image_url": "https://s3-media4.fl.yelpcdn.com/bphoto/CbvvtHh3AePG3Zy5QVSC0w/o.jpg", "is_closed": false, "url": "https://www.yelp.com/biz/fish-jumanji-miami?adjust_creative=OD45_sigUUSBobJ_eVs01w&utm_campaign=yelp_api_v3&utm_medium=api_v3_business_search&utm_source=OD45_sigUUSBobJ_eVs01w", "review_count": 3, "categories": [{"alias": "fishing", "title": "Fishing"}, {"alias": "boattours", "title": "Boat Tours"}], "rating": 4.0, "coordinates": {"latitude": 25.774252, "longitude": -80.190262}, "transactions": [], "location": {"address1": "401 Biscayne Blvd", "address2": "", "address3": "", "city": "Miami", "zip_code": "33132", "country": "US", "state": "FL", "display_address": ["401 Biscayne Blvd", "Miami, FL 33132"]}, "phone": "+17864867200", "display_phone": "(786) 486-7200", "distance": 10083.692076951713}, {"id": "w7p7ghSfyqwXKLmiytm6Xw", "alias": "miami-tour-miami", "name": "Miami Tour", "image_url": "https://s3-media4.fl.yelpcdn.com/bphoto/15rQ3XXf-YrF3mPrX7DOSQ/o.jpg", "is_closed": false, "url": "https://www.yelp.com/biz/miami-tour-miami?adjust_creative=OD45_sigUUSBobJ_eVs01w&utm_campaign=yelp_api_v3&utm_medium=api_v3_business_search&utm_source=OD45_sigUUSBobJ_eVs01w", "review_count": 59, "categories": [{"alias": "tours", "title": "Tours"}], "rating": 3.5, "coordinates": {"latitude": 25.77408, "longitude": -80.13914}, "transactions": [], "location": {"address1": null, "address2": "", "address3": "", "city": "Miami", "zip_code": "33139", "country": "US", "state": "FL", "display_address": ["Miami, FL 33139"]}, "phone": "+13052606855", "display_phone": "(305) 260-6855", "distance": 15103.02051361664}, {"id": "PbH3B6n_N789Dvi36rndrw", "alias": "fiesta-cruises-of-miami-miami", "name": "Fiesta Cruises of Miami", "image_url": "https://s3-media1.fl.yelpcdn.com/bphoto/mR6OR-WJFtIhaJ8a_zATIg/o.jpg", "is_closed": false, "url": "https://www.yelp.com/biz/fiesta-cruises-of-miami-miami?adjust_creative=OD45_sigUUSBobJ_eVs01w&utm_campaign=yelp_api_v3&utm_medium=api_v3_business_search&utm_source=OD45_sigUUSBobJ_eVs01w", "review_count": 52, "categories": [{"alias": "boattours", "title": "Boat Tours"}, {"alias": "boatcharters", "title": "Boat Charters"}], "rating": 3.5, "coordinates": {"latitude": 25.7790092, "longitude": -80.1866565}, "transactions": [], "location": {"address1": "401 Biscayne Blvd", "address2": "PIer 5, Slip 6", "address3": null, "city": "Miami", "zip_code": "33132", "country": "US", "state": "FL", "display_address": ["401 Biscayne Blvd", "PIer 5, Slip 6", "Miami, FL 33132"]}, "phone": "+13053713033", "display_phone": "(305) 371-3033", "distance": 10568.348556218696}, {"id": "cz4e7ENWXFFiWSPzvk6CkA", "alias": "fort-lauderdale-water-taxi-fort-lauderdale-2", "name": "Fort Lauderdale Water Taxi", "image_url": "https://s3-media1.fl.yelpcdn.com/bphoto/9MgKvSMo-F-eVdtPwTiq5g/o.jpg", "is_closed": false, "url": "https://www.yelp.com/biz/fort-lauderdale-water-taxi-fort-lauderdale-2?adjust_creative=OD45_sigUUSBobJ_eVs01w&utm_campaign=yelp_api_v3&utm_medium=api_v3_business_search&utm_source=OD45_sigUUSBobJ_eVs01w", "review_count": 467, "categories": [{"alias": "boattours", "title": "Boat Tours"}, {"alias": "ferries", "title": "Ferries"}], "rating": 3.0, "coordinates": {"latitude": 26.118260884264, "longitude": -80.1376128148804}, "transactions": [], "location": {"address1": "335 SE 6th Ave", "address2": "", "address3": "", "city": "Fort Lauderdale", "zip_code": "33301", "country": "US", "state": "FL", "display_address": ["335 SE 6th Ave", "Fort Lauderdale, FL 33301"]}, "phone": "+19544676677", "display_phone": "(954) 467-6677", "distance": 43338.37531753584}, {"id": "k3eHCUquXD6S8T7UdzKTqQ", "alias": "exotic-bus-and-limo-fort-lauderdale-3", "name": "Exotic Bus & Limo", "image_url": "https://s3-media1.fl.yelpcdn.com/bphoto/U-g3cCgUcPa4TvGuBefJxg/o.jpg", "is_closed": false, "url": "https://www.yelp.com/biz/exotic-bus-and-limo-fort-lauderdale-3?adjust_creative=OD45_sigUUSBobJ_eVs01w&utm_campaign=yelp_api_v3&utm_medium=api_v3_business_search&utm_source=OD45_sigUUSBobJ_eVs01w", "review_count": 3, "categories": [{"alias": "bustours", "title": "Bus Tours"}, {"alias": "buses", "title": "Buses"}, {"alias": "busrental", "title": "Bus Rental"}], "rating": 3.5, "coordinates": {"latitude": 26.062869, "longitude": -80.170344}, "transactions": [], "location": {"address1": "2231 Griffin Rd", "address2": null, "address3": null, "city": "Fort Lauderdale", "zip_code": "33312", "country": "US", "state": "FL", "display_address": ["2231 Griffin Rd", "Fort Lauderdale, FL 33312"]}, "phone": "+19548008693", "display_phone": "(954) 800-8693", "distance": 36443.38968172218}, {"id": "OQvd3X4VEuWOBXKBiSrVOg", "alias": "norwegian-getaway-downtown-miami", "name": "Norwegian Getaway", "image_url": "https://s3-media2.fl.yelpcdn.com/bphoto/yIZrP3yPaYU52hOVhwFTJw/o.jpg", "is_closed": false, "url": "https://www.yelp.com/biz/norwegian-getaway-downtown-miami?adjust_creative=OD45_sigUUSBobJ_eVs01w&utm_campaign=yelp_api_v3&utm_medium=api_v3_business_search&utm_source=OD45_sigUUSBobJ_eVs01w", "review_count": 78, "categories": [{"alias": "tours", "title": "Tours"}], "rating": 3.0, "coordinates": {"latitude": 25.76913, "longitude": -80.18998}, "transactions": [], "location": {"address1": null, "address2": "", "address3": "", "city": "Downtown Miami", "zip_code": "33132", "country": "US", "state": "FL", "display_address": ["Downtown Miami, FL 33132"]}, "phone": "", "display_phone": "", "distance": 12180.161597918126}, {"id": "PF4Y9ewXb_K4OEdzN9j5qA", "alias": "rental-boat-hollywood", "name": "Rental Boat", "image_url": "https://s3-media3.fl.yelpcdn.com/bphoto/S7mT-jAzTOf0OorzKY1Bpg/o.jpg", "is_closed": false, "url": "https://www.yelp.com/biz/rental-boat-hollywood?adjust_creative=OD45_sigUUSBobJ_eVs01w&utm_campaign=yelp_api_v3&utm_medium=api_v3_business_search&utm_source=OD45_sigUUSBobJ_eVs01w", "review_count": 9, "categories": [{"alias": "boating", "title": "Boating"}, {"alias": "boattours", "title": "Boat Tours"}, {"alias": "boatcharters", "title": "Boat Charters"}], "rating": 3.0, "coordinates": {"latitude": 26.04825, "longitude": -80.11487}, "transactions": [], "location": {"address1": "5400 North Ocean Dr", "address2": null, "address3": "", "city": "Hollywood", "zip_code": "33019", "country": "US", "state": "FL", "display_address": ["5400 North Ocean Dr", "Hollywood, FL 33019"]}, "phone": "+19548157925", "display_phone": "(954) 815-7925", "distance": 37163.64081260674}, {"id": "9kMrYd_JT5dMz-I5G15yiA", "alias": "all-access-miami-miami", "name": "All Access Miami", "image_url": "https://s3-media4.fl.yelpcdn.com/bphoto/Gd-B5CsVddLcwHl-3s_tYw/o.jpg", "is_closed": false, "url": "https://www.yelp.com/biz/all-access-miami-miami?adjust_creative=OD45_sigUUSBobJ_eVs01w&utm_campaign=yelp_api_v3&utm_medium=api_v3_business_search&utm_source=OD45_sigUUSBobJ_eVs01w", "review_count": 1, "categories": [{"alias": "walkingtours", "title": "Walking Tours"}, {"alias": "arttours", "title": "Art Tours"}, {"alias": "barcrawl", "title": "Bar Crawl"}], "rating": 4.0, "coordinates": {"latitude": 25.805139541626, "longitude": -80.1890335083008}, "transactions": [], "location": {"address1": "", "address2": "", "address3": "", "city": "Miami", "zip_code": "33137", "country": "US", "state": "FL", "display_address": ["Miami, FL 33137"]}, "phone": "+12398101197", "display_phone": "(239) 810-1197", "distance": 13041.53106981161}, {"id": "nMki_0lt81XKGvnOI0t4NQ", "alias": "sea-miami-rentals-miami-2", "name": "Sea Miami Rentals", "image_url": "https://s3-media2.fl.yelpcdn.com/bphoto/Vj5ZNSnqh3E4QRzYIOquvQ/o.jpg", "is_closed": false, "url": "https://www.yelp.com/biz/sea-miami-rentals-miami-2?adjust_creative=OD45_sigUUSBobJ_eVs01w&utm_campaign=yelp_api_v3&utm_medium=api_v3_business_search&utm_source=OD45_sigUUSBobJ_eVs01w", "review_count": 1, "categories": [{"alias": "boatcharters", "title": "Boat Charters"}, {"alias": "boating", "title": "Boating"}, {"alias": "boattours", "title": "Boat Tours"}], "rating": 4.0, "coordinates": {"latitude": 25.790914, "longitude": -80.184362}, "transactions": [], "location": {"address1": "1635 N Bayshore Dr", "address2": null, "address3": "", "city": "Miami", "zip_code": "33132", "country": "US", "state": "FL", "display_address": ["1635 N Bayshore Dr", "Miami, FL 33132"]}, "phone": "+17865478217", "display_phone": "(786) 547-8217", "distance": 11216.084509385499}, {"id": "mMi1BErG7hxCBYw7N31j0g", "alias": "south-florida-helicopter-charter-and-tours-miami", "name": "South Florida Helicopter Charter & Tours", "image_url": "https://s3-media2.fl.yelpcdn.com/bphoto/4oTdtKP6OpuVB9ULgTuLWQ/o.jpg", "is_closed": false, "url": "https://www.yelp.com/biz/south-florida-helicopter-charter-and-tours-miami?adjust_creative=OD45_sigUUSBobJ_eVs01w&utm_campaign=yelp_api_v3&utm_medium=api_v3_business_search&utm_source=OD45_sigUUSBobJ_eVs01w", "review_count": 9, "categories": [{"alias": "aerialtours", "title": "Aerial Tours"}], "rating": 3.0, "coordinates": {"latitude": 25.6470572508923, "longitude": -80.4243683200092}, "transactions": [], "location": {"address1": "12800 SW 145th Ave", "address2": "", "address3": "Miami Executive Airport", "city": "Miami", "zip_code": "33186", "country": "US", "state": "FL", "display_address": ["12800 SW 145th Ave", "Miami Executive Airport", "Miami, FL 33186"]}, "phone": "+13052041818", "display_phone": "(305) 204-1818", "distance": 18016.244503320737}, {"id": "EWX-Q71nj8pTttrte8fSkg", "alias": "pink-shuttle-miami", "name": "Pink shuttle", "image_url": "https://s3-media3.fl.yelpcdn.com/bphoto/8E_-_MDEBg6JhXMiRwS_0Q/o.jpg", "is_closed": false, "url": "https://www.yelp.com/biz/pink-shuttle-miami?adjust_creative=OD45_sigUUSBobJ_eVs01w&utm_campaign=yelp_api_v3&utm_medium=api_v3_business_search&utm_source=OD45_sigUUSBobJ_eVs01w", "review_count": 7, "categories": [{"alias": "airport_shuttles", "title": "Airport Shuttles"}, {"alias": "tours", "title": "Tours"}], "rating": 2.5, "coordinates": {"latitude": 25.7473, "longitude": -80.34299}, "transactions": [], "location": {"address1": "9100 SW 24st", "address2": "", "address3": "", "city": "Miami", "zip_code": "33165", "country": "US", "state": "FL", "display_address": ["9100 SW 24st", "Miami, FL 33165"]}, "phone": "+15615840480", "display_phone": "(561) 584-0480", "distance": 5496.592202650252}, {"id": "mwN9ieZLZsPgUKSo9mSyMg", "alias": "305-miami-tours-miami-2", "name": "305 Miami Tours", "image_url": "https://s3-media4.fl.yelpcdn.com/bphoto/M3VOhOICk06ES9kbl-E7cA/o.jpg", "is_closed": false, "url": "https://www.yelp.com/biz/305-miami-tours-miami-2?adjust_creative=OD45_sigUUSBobJ_eVs01w&utm_campaign=yelp_api_v3&utm_medium=api_v3_business_search&utm_source=OD45_sigUUSBobJ_eVs01w", "review_count": 49, "categories": [{"alias": "travelservices", "title": "Travel Services"}, {"alias": "bustours", "title": "Bus Tours"}, {"alias": "boattours", "title": "Boat Tours"}], "rating": 2.5, "coordinates": {"latitude": 25.779011, "longitude": -80.18666}, "transactions": [], "location": {"address1": "401 Biscayne Blvd", "address2": "S225", "address3": "", "city": "Miami", "zip_code": "33132", "country": "US", "state": "FL", "display_address": ["401 Biscayne Blvd", "S225", "Miami, FL 33132"]}, "phone": "+13056770333", "display_phone": "(305) 677-0333", "distance": 10568.066927284679}, {"id": "HYe_UdJ6A6TxOlh4JI-xNw", "alias": "luxury-experience-miami-miami", "name": "Luxury Experience Miami", "image_url": "https://s3-media1.fl.yelpcdn.com/bphoto/MYAvcW8km-bOvxMk_omYXg/o.jpg", "is_closed": false, "url": "https://www.yelp.com/biz/luxury-experience-miami-miami?adjust_creative=OD45_sigUUSBobJ_eVs01w&utm_campaign=yelp_api_v3&utm_medium=api_v3_business_search&utm_source=OD45_sigUUSBobJ_eVs01w", "review_count": 2, "categories": [{"alias": "boatcharters", "title": "Boat Charters"}, {"alias": "vacation_rentals", "title": "Vacation Rentals"}, {"alias": "boattours", "title": "Boat Tours"}], "rating": 3.0, "coordinates": {"latitude": 25.811927653741606, "longitude": -80.23856922669717}, "transactions": [], "location": {"address1": "", "address2": null, "address3": "", "city": "Miami", "zip_code": "33142", "country": "US", "state": "FL", "display_address": ["Miami, FL 33142"]}, "phone": "+19547748236", "display_phone": "(954) 774-8236", "distance": 8238.623062197135}, {"id": "hjeOU0AJwDQezSuR3WWimw", "alias": "305-booking-tours-corp-miami", "name": "305 booking tours corp", "image_url": "https://s3-media3.fl.yelpcdn.com/bphoto/j6JpsrzizJwuf5iMu-7HuQ/o.jpg", "is_closed": false, "url": "https://www.yelp.com/biz/305-booking-tours-corp-miami?adjust_creative=OD45_sigUUSBobJ_eVs01w&utm_campaign=yelp_api_v3&utm_medium=api_v3_business_search&utm_source=OD45_sigUUSBobJ_eVs01w", "review_count": 2, "categories": [{"alias": "boattours", "title": "Boat Tours"}, {"alias": "aerialtours", "title": "Aerial Tours"}, {"alias": "bustours", "title": "Bus Tours"}], "rating": 3.0, "coordinates": {"latitude": 25.76543, "longitude": -80.22033}, "transactions": [], "location": {"address1": "1548 SW 8th St", "address2": null, "address3": "", "city": "Miami", "zip_code": "33135", "country": "US", "state": "FL", "display_address": ["1548 SW 8th St", "Miami, FL 33135"]}, "phone": "+17868322640", "display_phone": "(786) 832-2640", "distance": 6933.771545936083}, {"id": "UkTQ9esV9pA24sD8OkOO0Q", "alias": "sun-island-tours-and-transportation-pembroke-pines-2", "name": "Sun Island Tours and Transportation", "image_url": "https://s3-media2.fl.yelpcdn.com/bphoto/Zh3YZj6miLz2pwmMFLOrVA/o.jpg", "is_closed": false, "url": "https://www.yelp.com/biz/sun-island-tours-and-transportation-pembroke-pines-2?adjust_creative=OD45_sigUUSBobJ_eVs01w&utm_campaign=yelp_api_v3&utm_medium=api_v3_business_search&utm_source=OD45_sigUUSBobJ_eVs01w", "review_count": 2, "categories": [{"alias": "bustours", "title": "Bus Tours"}, {"alias": "towncarservice", "title": "Town Car Service"}, {"alias": "airport_shuttles", "title": "Airport Shuttles"}], "rating": 3.0, "coordinates": {"latitude": 25.9932984, "longitude": -80.3096203}, "transactions": [], "location": {"address1": "12289 Pembroke Rd", "address2": "Ste 110", "address3": "", "city": "Pembroke Pines", "zip_code": "33025", "country": "US", "state": "FL", "display_address": ["12289 Pembroke Rd", "Ste 110", "Pembroke Pines, FL 33025"]}, "phone": "+19542747988", "display_phone": "(954) 274-7988", "distance": 26833.94854316468}, {"id": "dSn-NnzmMx6kGsDDqs0flg", "alias": "miami-exotic-yachts-miami", "name": "Miami Exotic Yachts", "image_url": "https://s3-media3.fl.yelpcdn.com/bphoto/gJ-E686j3V7PNp4uZe4KlA/o.jpg", "is_closed": false, "url": "https://www.yelp.com/biz/miami-exotic-yachts-miami?adjust_creative=OD45_sigUUSBobJ_eVs01w&utm_campaign=yelp_api_v3&utm_medium=api_v3_business_search&utm_source=OD45_sigUUSBobJ_eVs01w", "review_count": 2, "categories": [{"alias": "boattours", "title": "Boat Tours"}, {"alias": "boatcharters", "title": "Boat Charters"}], "rating": 3.0, "coordinates": {"latitude": 25.785435725844245, "longitude": -80.2188214}, "transactions": [], "location": {"address1": "1400 NW N River Dr", "address2": null, "address3": "", "city": "Miami", "zip_code": "33125", "country": "US", "state": "FL", "display_address": ["1400 NW N River Dr", "Miami, FL 33125"]}, "phone": "+17868432084", "display_phone": "(786) 843-2084", "distance": 7830.301126183513}], "total": 122, "region": {"center": {"longitude": -80.2880859375, "latitude": 25.752753731496888}}}
{"businesses": [{"id": "c_QOZtWOdmyIaGr4JD9axw", "alias": "gofloridaboating-miami", "name": "GoFloridaBoating", "image_url": "https://s3-media1.fl.yelpcdn.com/bphoto/dpGRAQAdPSO9gIyS6dnoDQ/o.jpg", "is_closed": false, "url": "https://www.yelp.com/biz/gofloridaboating-miami?adjust_creative=OD45_sigUUSBobJ_eVs01w&utm_campaign=yelp_api_v3&utm_medium=api_v3_business_search&utm_source=OD45_sigUUSBobJ_eVs01w", "review_count": 2, "categories": [{"alias": "boating", "title": "Boating"}, {"alias": "boatcharters", "title": "Boat Charters"}, {"alias": "boattours", "title": "Boat Tours"}], "rating": 3.0, "coordinates": {"latitude": 25.7639107, "longitude": -80.1918227}, "transactions": [], "location": {"address1": null, "address2": null, "address3": null, "city": "Miami", "zip_code": "33131", "country": "US", "state": "FL", "display_address": ["Miami, FL 33131"]}, "phone": "+16467891412", "display_phone": "(646) 789-1412", "distance": 9719.868892005974}, {"id": "6k8p-IjNZNswDmIn36qu3g", "alias": "lolas-tour-miami-beach", "name": "Lola's Tour", "image_url": "https://s3-media4.fl.yelpcdn.com/bphoto/seCElpRFNPuV1CVzlQppxQ/o.jpg", "is_closed": false, "url": "https://www.yelp.com/biz/lolas-tour-miami-beach?adjust_creative=OD45_sigUUSBobJ_eVs01w&utm_campaign=yelp_api_v3&utm_medium=api_v3_business_search&utm_source=OD45_sigUUSBobJ_eVs01w", "review_count": 5, "categories": [{"alias": "tours", "title": "Tours"}], "rating": 2.0, "coordinates": {"latitude": 25.834146, "longitude": -80.120255}, "transactions": [], "location": {"address1": "5445 Collins Ave", "address2": "", "address3": "", "city": "Miami Beach", "zip_code": "33140", "country": "US", "state": "FL", "display_address": ["5445 Collins Ave", "Miami Beach, FL 33140"]}, "phone": "+17866578743", "display_phone": "(786) 657-8743", "distance": 19100.853306177112}, {"id": "GkHP-IudbcZfwXhqrEdEnA", "alias": "funwaves-watersports-miami-beach", "name": "Funwaves Watersports", "image_url": "https://s3-media2.fl.yelpcdn.com/bphoto/rMidNX_iqAopo4wVmVLkag/o.jpg", "is_closed": false, "url": "https://www.yelp.com/biz/funwaves-watersports-miami-beach?adjust_creative=OD45_sigUUSBobJ_eVs01w&utm_campaign=yelp_api_v3&utm_medium=api_v3_business_search&utm_source=OD45_sigUUSBobJ_eVs01w", "review_count": 1, "categories": [{"alias": "jetskis", "title": "Jet Skis"}, {"alias": "boattours", "title": "Boat Tours"}], "rating": 3.0, "coordinates": {"latitude": 25.81951, "longitude": -80.12193}, "transactions": [], "location": {"address1": "4525 Collins Ave", "address2": null, "address3": "", "city": "Miami Beach", "zip_code": "33140", "country": "US", "state": "FL", "display_address": ["4525 Collins Ave", "Miami Beach, FL 33140"]}, "phone": "+17865537644", "display_phone": "(786) 553-7644", "distance": 18212.765522638292}, {"id": "iYNXAdcQ9ttgD3VntSpHjQ", "alias": "miami-tours-miami-beach-2", "name": "Miami Tours", "image_url": "https://s3-media4.fl.yelpcdn.com/bphoto/hrKoSjs5-6yYwuLiYR9MyQ/o.jpg", "is_closed": false, "url": "https://www.yelp.com/biz/miami-tours-miami-beach-2?adjust_creative=OD45_sigUUSBobJ_eVs01w&utm_campaign=yelp_api_v3&utm_medium=api_v3_business_search&utm_source=OD45_sigUUSBobJ_eVs01w", "review_count": 138, "categories": [{"alias": "bustours", "title": "Bus Tours"}], "rating": 2.0, "coordinates": {"latitude": 25.790894568159985, "longitude": -80.13099777366486}, "transactions": [], "location": {"address1": "305 Lincoln Rd", "address2": "", "address3": "", "city": "Miami Beach", "zip_code": "33139", "country": "US", "state": "FL", "display_address": ["305 Lincoln Rd", "Miami Beach, FL 33139"]}, "phone": "+13052220111", "display_phone": "(305) 222-0111", "distance": 16291.654474088453}, {"id": "2ugBMDfJ13wr10maSr3Faw", "alias": "miami-double-decker-miami-beach", "name": "Miami Double Decker", "image_url": "https://s3-media3.fl.yelpcdn.com/bphoto/hT9lNp4dsptoXTf7q3C11w/o.jpg", "is_closed": false, "url": "https://www.yelp.com/biz/miami-double-decker-miami-beach?adjust_creative=OD45_sigUUSBobJ_eVs01w&utm_campaign=yelp_api_v3&utm_medium=api_v3_business_search&utm_source=OD45_sigUUSBobJ_eVs01w", "review_count": 109, "categories": [{"alias": "tours", "title": "Tours"}], "rating": 2.0, "coordinates": {"latitude": 25.7910195778965, "longitude": -80.1318028441803}, "transactions": [], "location": {"address1": "", "address2": null, "address3": null, "city": "Miami Beach", "zip_code": "33139", "country": "US", "state": "FL", "display_address": ["Miami Beach, FL 33139"]}, "phone": "+13058659999", "display_phone": "(305) 865-9999", "distance": 16217.465682230877}, {"id": "FesJtw_hVWctg7pNM2XNlQ", "alias": "jetski-with-z-miami", "name": "Jetski With Z", "image_url": "https://s3-media2.fl.yelpcdn.com/bphoto/WOXeqkhgjTUN6iQMQ1_Wyg/o.jpg", "is_closed": false, "url": "https://www.yelp.com/biz/jetski-with-z-miami?adjust_creative=OD45_sigUUSBobJ_eVs01w&utm_campaign=yelp_api_v3&utm_medium=api_v3_business_search&utm_source=OD45_sigUUSBobJ_eVs01w", "review_count": 3, "categories": [{"alias": "boattours", "title": "Boat Tours"}, {"alias": "boating", "title": "Boating"}, {"alias": "boatcharters", "title": "Boat Charters"}], "rating": 2.5, "coordinates": {"latitude": 25.78141, "longitude": -80.19064}, "transactions": [], "location": {"address1": "", "address2": null, "address3": "", "city": "Miami", "zip_code": "33132", "country": "US", "state": "FL", "display_address": ["Miami, FL 33132"]}, "phone": "+19544837756", "display_phone": "(954) 483-7756", "distance": 12180.161597918126}, {"id": "OyxzbYPWYLrQSnwfTQ2kzA", "alias": "metro-shuttle-service-weston-2", "name": "Metro Shuttle Service", "image_url": "https://s3-media1.fl.yelpcdn.com/bphoto/4c7Hjb7o4APP0rvzR8xuXQ/o.jpg", "is_closed": false, "url": "https://www.yelp.com/biz/metro-shuttle-service-weston-2?adjust_creative=OD45_sigUUSBobJ_eVs01w&utm_campaign=yelp_api_v3&utm_medium=api_v3_business_search&utm_source=OD45_sigUUSBobJ_eVs01w", "review_count": 13, "categories": [{"alias": "tours", "title": "Tours"}, {"alias": "airport_shuttles", "title": "Airport Shuttles"}, {"alias": "limos", "title": "Limos"}], "rating": 1.5, "coordinates": {"latitude": 26.10382, "longitude": -80.37954}, "transactions": [], "location": {"address1": "1311 Saint Tropez Cir", "address2": "Ste 1604", "address3": "", "city": "Weston", "zip_code": "33326", "country": "US", "state": "FL", "display_address": ["1311 Saint Tropez Cir", "Ste 1604", "Weston, FL 33326"]}, "phone": "+19546001562", "display_phone": "(954) 600-1562", "distance": 40116.906557101036}, {"id": "R_uS4Hts-Dpj0R4wLr27HQ", "alias": "xcursions-usa-north-miami", "name": "Xcursions USA", "image_url": "https://s3-media4.fl.yelpcdn.com/bphoto/8Lc4YXW3QPDWGX_s4AvZFQ/o.jpg", "is_closed": false, "url": "https://www.yelp.com/biz/xcursions-usa-north-miami?adjust_creative=OD45_sigUUSBobJ_eVs01w&utm_campaign=yelp_api_v3&utm_medium=api_v3_business_search&utm_source=OD45_sigUUSBobJ_eVs01w", "review_count": 7, "categories": [{"alias": "buses", "title": "Buses"}, {"alias": "bustours", "title": "Bus Tours"}], "rating": 1.5, "coordinates": {"latitude": 25.8863859407299, "longitude": -80.1714910466716}, "transactions": [], "location": {"address1": "12050 NE 14th Ave", "address2": "Ste 2-A", "address3": "", "city": "North Miami", "zip_code": "33161", "country": "US", "state": "FL", "display_address": ["12050 NE 14th Ave", "Ste 2-A", "North Miami, FL 33161"]}, "phone": "+18888846934", "display_phone": "(888) 884-6934", "distance": 18894.336170755872}, {"id": "kHqFuizTvnWVQf6zC9wjBg", "alias": "seabreeze-yacht-and-jetski-rentals-miami-beach", "name": "Seabreeze Yacht and Jetski Rentals", "image_url": "https://s3-media2.fl.yelpcdn.com/bphoto/W80dmkxBoJxsjxtTf-1GKQ/o.jpg", "is_closed": false, "url": "https://www.yelp.com/biz/seabreeze-yacht-and-jetski-rentals-miami-beach?adjust_creative=OD45_sigUUSBobJ_eVs01w&utm_campaign=yelp_api_v3&utm_medium=api_v3_business_search&utm_source=OD45_sigUUSBobJ_eVs01w", "review_count": 1, "categories": [{"alias": "boatcharters", "title": "Boat Charters"}, {"alias": "boattours", "title": "Boat Tours"}, {"alias": "jetskis", "title": "Jet Skis"}], "rating": 2.0, "coordinates": {"latitude": 25.8003921, "longitude": -80.1272888}, "transactions": [], "location": {"address1": "2400 Collins Ave", "address2": null, "address3": "", "city": "Miami Beach", "zip_code": "33140", "country": "US", "state": "FL", "display_address": ["2400 Collins Ave", "Miami Beach, FL 33140"]}, "phone": "+17866703013", "display_phone": "(786) 670-3013", "distance": 16949.70037923839}, {"id": "O0hySLIRwXemEQvXQa8Dyw", "alias": "tour-now-miami-miami-beach", "name": "Tour NOW Miami", "image_url": "https://s3-media2.fl.yelpcdn.com/bphoto/TWkkSZV2rspxAgjEtdyFCg/o.jpg", "is_closed": false, "url": "https://www.yelp.com/biz/tour-now-miami-miami-beach?adjust_creative=OD45_sigUUSBobJ_eVs01w&utm_campaign=yelp_api_v3&utm_medium=api_v3_business_search&utm_source=OD45_sigUUSBobJ_eVs01w", "review_count": 4, "categories": [{"alias": "bustours", "title": "Bus Tours"}], "rating": 1.0, "coordinates": {"latitude": 25.7727657441107, "longitude": -80.1326086744666}, "transactions": [], "location": {"address1": "334 Ocean Dr", "address2": "", "address3": null, "city": "Miami Beach", "zip_code": "33139", "country": "US", "state": "FL", "display_address": ["334 Ocean Dr", "Miami Beach, FL 33139"]}, "phone": "+13053035032", "display_phone": "(305) 303-5032", "distance": 15728.045193872511}, {"id": "dIocbPGMyyDWnZBHxY1ErA", "alias": "cruise-and-tour-center-dba-admiral-cruise-miami-beach", "name": "cruise and tour center dba admiral cruise", "image_url": "https://s3-media3.fl.yelpcdn.com/bphoto/FRYh67LCbwsWJTiI9oPo0Q/o.jpg", "is_closed": false, "url": "https://www.yelp.com/biz/cruise-and-tour-center-dba-admiral-cruise-miami-beach?adjust_creative=OD45_sigUUSBobJ_eVs01w&utm_campaign=yelp_api_v3&utm_medium=api_v3_business_search&utm_source=OD45_sigUUSBobJ_eVs01w", "review_count": 2, "categories": [{"alias": "tours", "title": "Tours"}, {"alias": "transport", "title": "Transportation"}, {"alias": "travelservices", "title": "Travel Services"}], "rating": 1.5, "coordinates": {"latitude": 25.7701, "longitude": -80.13462}, "transactions": [], "location": {"address1": "227 1st Street Suite", "address2": null, "address3": "", "city": "Miami Beach", "zip_code": "33139", "country": "US", "state": "FL", "display_address": ["227 1st Street Suite", "Miami Beach, FL 33139"]}, "phone": "+13053978170", "display_phone": "(305) 397-8170", "distance": 15486.716260309402}, {"id": "_qy5Sjs5ns6-nPZcb4YcDQ", "alias": "miami-boat-charter-miami-3", "name": "Miami Boat Charter", "image_url": "https://s3-media3.fl.yelpcdn.com/bphoto/w6TmE8hKLx_v5c5mOhRxgg/o.jpg", "is_closed": false, "url": "https://www.yelp.com/biz/miami-boat-charter-miami-3?adjust_creative=OD45_sigUUSBobJ_eVs01w&utm_campaign=yelp_api_v3&utm_medium=api_v3_business_search&utm_source=OD45_sigUUSBobJ_eVs01w", "review_count": 3, "categories": [{"alias": "boatcharters", "title": "Boat Charters"}, {"alias": "boattours", "title": "Boat Tours"}], "rating": 1.0, "coordinates": {"latitude": 25.5408042, "longitude": -80.2024692}, "transactions": [], "location": {"address1": "250 NW N River Dr", "address2": null, "address3": "", "city": "Miami", "zip_code": "33128", "country": "US", "state": "FL", "display_address": ["250 NW N River Dr", "Miami, FL 33128"]}, "phone": "+13059150391", "display_phone": "(305) 915-0391", "distance": 25081.666248064248}, {"id": "nWwcmyvSw2xfN8Kniu4fGQ", "alias": "eagle-air-tours-miami", "name": "Eagle Air Tours", "image_url": "https://s3-media3.fl.yelpcdn.com/bphoto/fuBL0FHzQCGxSUXo61lzOA/o.jpg", "is_closed": false, "url": "https://www.yelp.com/biz/eagle-air-tours-miami?adjust_creative=OD45_sigUUSBobJ_eVs01w&utm_campaign=yelp_api_v3&utm_medium=api_v3_business_search&utm_source=OD45_sigUUSBobJ_eVs01w", "review_count": 2, "categories": [{"alias": "aerialtours", "title": "Aerial Tours"}], "rating": 1.0, "coordinates": {"latitude": 25.64632, "longitude": -80.42218}, "transactions": [], "location": {"address1": "14150 SW 129th St", "address2": "", "address3": null, "city": "Miami", "zip_code": "33186", "country": "US", "state": "FL", "display_address": ["14150 SW 129th St", "Miami, FL 33186"]}, "phone": "+17865423316", "display_phone": "(786) 542-3316", "distance": 18054.926480820595}, {"id": "wJzxD0qnoNAediS6-W6XMg", "alias": "concierge-hotline-miami", "name": "Concierge Hotline", "image_url": "https://s3-media3.fl.yelpcdn.com/bphoto/h2yNWT7Ld1wEqv6j4-STHg/o.jpg", "is_closed": false, "url": "https://www.yelp.com/biz/concierge-hotline-miami?adjust_creative=OD45_sigUUSBobJ_eVs01w&utm_campaign=yelp_api_v3&utm_medium=api_v3_business_search&utm_source=OD45_sigUUSBobJ_eVs01w", "review_count": 2, "categories": [{"alias": "tours", "title": "Tours"}], "rating": 1.0, "coordinates": {"latitude": 25.776087, "longitude": -80.1882476}, "transactions": [], "location": {"address1": "146 Biscayne Blvd", "address2": null, "address3": "", "city": "Miami", "zip_code": "33132", "country": "US", "state": "FL", "display_address": ["146 Biscayne Blvd", "Miami, FL 33132"]}, "phone": "+18442350168", "display_phone": "(844) 235-0168", "distance": 10329.058511441868}, {"id": "zV4WTjaUQuMsAGCFKQl52Q", "alias": "miami-shuttle-service-miami-2", "name": "Miami shuttle service", "image_url": "", "is_closed": false, "url": "https://www.yelp.com/biz/miami-shuttle-service-miami-2?adjust_creative=OD45_sigUUSBobJ_eVs01w&utm_campaign=yelp_api_v3&utm_medium=api_v3_business_search&utm_source=OD45_sigUUSBobJ_eVs01w", "review_count": 1, "categories": [{"alias": "airport_shuttles", "title": "Airport Shuttles"}, {"alias": "tours", "title": "Tours"}], "rating": 1.0, "coordinates": {"latitude": 25.78146, "longitude": -80.23568}, "transactions": [], "location": {"address1": null, "address2": null, "address3": "", "city": "Miami", "zip_code": "33125", "country": "US", "state": "FL", "display_address": ["Miami, FL 33125"]}, "phone": "+17863654236", "display_phone": "(786) 365-4236", "distance": 6496.795513991602}, {"id": "q04LKXJioyZXJkuImItBtQ", "alias": "jano-coaches-davie", "name": "Jano Coaches", "image_url": "https://s3-media1.fl.yelpcdn.com/bphoto/8aJw0wFHhAomwy3i0x_CvA/o.jpg", "is_closed": false, "url": "https://www.yelp.com/biz/jano-coaches-davie?adjust_creative=OD45_sigUUSBobJ_eVs01w&utm_campaign=yelp_api_v3&utm_medium=api_v3_business_search&utm_source=OD45_sigUUSBobJ_eVs01w", "review_count": 1, "categories": [{"alias": "buses", "title": "Buses"}, {"alias": "bustours", "title": "Bus Tours"}, {"alias": "limos", "title": "Limos"}], "rating": 1.0, "coordinates": {"latitude": 26.1027452, "longitude": -80.2676977}, "transactions": [], "location": {"address1": "8930 W St Rd 84", "address2": null, "address3": "", "city": "Davie", "zip_code": "33324", "country": "US", "state": "FL", "display_address": ["8930 W St Rd 84", "Davie, FL 33324"]}, "phone": "+13055266287", "display_phone": "(305) 526-6287", "distance": 38728.21943528343}, {"id": "IrfyP-TT5p15jV41biJJAA", "alias": "sunnies-unique-travel-miami-2", "name": "Sunnie's Unique Travel", "image_url": "https://s3-media2.fl.yelpcdn.com/bphoto/-hq_V0IWu21WtazEkgyRfA/o.jpg", "is_closed": false, "url": "https://www.yelp.com/biz/sunnies-unique-travel-miami-2?adjust_creative=OD45_sigUUSBobJ_eVs01w&utm_campaign=yelp_api_v3&utm_medium=api_v3_business_search&utm_source=OD45_sigUUSBobJ_eVs01w", "review_count": 1, "categories": [{"alias": "travelagents", "title": "Travel Agents"}, {"alias": "tours", "title": "Tours"}, {"alias": "towncarservice", "title": "Town Car Service"}], "rating": 1.0, "coordinates": {"latitude": 25.893775866067802, "longitude": -80.18251641009437}, "transactions": [], "location": {"address1": "", "address2": null, "address3": "", "city": "Miami", "zip_code": "33161", "country": "US", "state": "FL", "display_address": ["Miami, FL 33161"]}, "phone": "+13054823680", "display_phone": "(305) 482-3680", "distance": 18908.829759074873}, {"id": "Gw6sIh29-PiKupd5HmCA_Q", "alias": "miami-beach-luxury-boat-rental-miami-beach", "name": "Miami Beach Luxury Boat Rental", "image_url": "https://s3-media3.fl.yelpcdn.com/bphoto/JmhBwMMoC-gfJgFx6wnbkA/o.jpg", "is_closed": false, "url": "https://www.yelp.com/biz/miami-beach-luxury-boat-rental-miami-beach?adjust_creative=OD45_sigUUSBobJ_eVs01w&utm_campaign=yelp_api_v3&utm_medium=api_v3_business_search&utm_source=OD45_sigUUSBobJ_eVs01w", "review_count": 1, "categories": [{"alias": "boatcharters", "title": "Boat Charters"}, {"alias": "boattours", "title": "Boat Tours"}], "rating": 1.0, "coordinates": {"latitude": 25.82634, "longitude": -80.12102}, "transactions": [], "location": {"address1": "5005 Collins Ave", "address2": null, "address3": "", "city": "Miami Beach", "zip_code": "33140", "country": "US", "state": "FL", "display_address": ["5005 Collins Ave", "Miami Beach, FL 33140"]}, "phone": "+13059444323", "display_phone": "(305) 944-4323", "distance": 18620.41633872108}, {"id": "dAGFFqNT-txxE4IEaZX6ZQ", "alias": "arpic-life-key-biscayne-2", "name": "Arpic Life", "image_url": "https://s3-media2.fl.yelpcdn.com/bphoto/bgH1ClFHpONRO4sofgLoiw/o.jpg", "is_closed": false, "url": "https://www.yelp.com/biz/arpic-life-key-biscayne-2?adjust_creative=OD45_sigUUSBobJ_eVs01w&utm_campaign=yelp_api_v3&utm_medium=api_v3_business_search&utm_source=OD45_sigUUSBobJ_eVs01w", "review_count": 1, "categories": [{"alias": "boatcharters", "title": "Boat Charters"}, {"alias": "tours", "title": "Tours"}, {"alias": "beaches", "title": "Beaches"}], "rating": 1.0, "coordinates": {"latitude": 25.745166, "longitude": -80.174103}, "transactions": [], "location": {"address1": "3301 Rickenbacker Cswy", "address2": null, "address3": "", "city": "Key Biscayne", "zip_code": "33149", "country": "US", "state": "FL", "display_address": ["3301 Rickenbacker Cswy", "Key Biscayne, FL 33149"]}, "phone": "+17862804318", "display_phone": "(786) 280-4318", "distance": 11446.961429755458}, {"id": "FpMXaQInqMu15qPeoDtt0A", "alias": "arpiclife-miami-3", "name": "ArpicLife", "image_url": "https://s3-media1.fl.yelpcdn.com/bphoto/3aoyPJXLfcovnhGOrr1NjA/o.jpg", "is_closed": false, "url": "https://www.yelp.com/biz/arpiclife-miami-3?adjust_creative=OD45_sigUUSBobJ_eVs01w&utm_campaign=yelp_api_v3&utm_medium=api_v3_business_search&utm_source=OD45_sigUUSBobJ_eVs01w", "review_count": 1, "categories": [{"alias": "boattours", "title": "Boat Tours"}, {"alias": "boatcharters", "title": "Boat Charters"}, {"alias": "beaches", "title": "Beaches"}], "rating": 1.0, "coordinates": {"latitude": 25.69256, "longitude": -80.16557}, "transactions": [], "location": {"address1": null, "address2": null, "address3": null, "city": "Miami", "zip_code": "33149", "country": "US", "state": "FL", "display_address": ["Miami, FL 33149"]}, "phone": "+13059049041", "display_phone": "(305) 904-9041", "distance": 13578.9947703132}, {"id": "rfx6xh6qvlwvQbcIYKWXFA", "alias": "key-biscayne-charters-miami-2", "name": "Key Biscayne Charters", "image_url": "https://s3-media2.fl.yelpcdn.com/bphoto/8G7m_rjIJYxq9EZ7GgTtog/o.jpg", "is_closed": false, "url": "https://www.yelp.com/biz/key-biscayne-charters-miami-2?adjust_creative=OD45_sigUUSBobJ_eVs01w&utm_campaign=yelp_api_v3&utm_medium=api_v3_business_search&utm_source=OD45_sigUUSBobJ_eVs01w", "review_count": 1, "categories": [{"alias": "boatcharters", "title": "Boat Charters"}, {"alias": "boattours", "title": "Boat Tours"}], "rating": 1.0, "coordinates": {"latitude": 25.74673, "longitude": -80.1759}, "transactions": [], "location": {"address1": "3301 Rickenbacker Cswy", "address2": null, "address3": null, "city": "Miami", "zip_code": "33149", "country": "US", "state": "FL", "display_address": ["3301 Rickenbacker Cswy", "Miami, FL 33149"]}, "phone": "+13059037789", "display_phone": "(305) 903-7789", "distance": 11446.961429755458}, {"id": "x8pGB_P3KgIsUEo8FQjtUg", "alias": "miami-beach-boat-rental-miami-4", "name": "Miami Beach Boat Rental", "image_url": "https://s3-media1.fl.yelpcdn.com/bphoto/-hrpCnjgUu7EehTmBfknDA/o.jpg", "is_closed": false, "url": "https://www.yelp.com/biz/miami-beach-boat-rental-miami-4?adjust_creative=OD45_sigUUSBobJ_eVs01w&utm_campaign=yelp_api_v3&utm_medium=api_v3_business_search&utm_source=OD45_sigUUSBobJ_eVs01w", "review_count": 1, "categories": [{"alias": "boatcharters", "title": "Boat Charters"}, {"alias": "boattours", "title": "Boat Tours"}], "rating": 1.0, "coordinates": {"latitude": 25.80023800755, "longitude": -80.2608936453357}, "transactions": [], "location": {"address1": "3936 NW 27th St", "address2": "", "address3": null, "city": "Miami", "zip_code": "33142", "country": "US", "state": "FL", "display_address": ["3936 NW 27th St", "Miami, FL 33142"]}, "phone": "+13059519990", "display_phone": "(305) 951-9990", "distance": 5930.113764004044}], "total": 122, "region": {"center": {"longitude": -80.2880859375, "latitude": 25.752753731496888}}}
{"businesses": [], "total": 122, "region": {"center": {"longitude": -80.2880859375, "latitude": 25.752753731496888}}}
{"businesses": [], "total": 122, "region": {"center": {"longitude": -80.2880859375, "latitude": 25.752753731496888}}}
{"businesses": [], "total": 122, "region": {"center": {"longitude": -80.2880859375, "latitude": 25.752753731496888}}}
{"businesses": [], "total": 122, "region": {"center": {"longitude": -80.2880859375, "latitude": 25.752753731496888}}}
{"businesses": [], "total": 122, "region": {"center": {"longitude": -80.2880859375, "latitude": 25.752753731496888}}}
{"businesses": [], "total": 122, "region": {"center": {"longitude": -80.2880859375, "latitude": 25.752753731496888}}}
{"businesses": [], "total": 122, "region": {"center": {"longitude": -80.2880859375, "latitude": 25.752753731496888}}}
{"businesses": [], "total": 122, "region": {"center": {"longitude": -80.2880859375, "latitude": 25.752753731496888}}}
{"businesses": [], "total": 122, "region": {"center": {"longitude": -80.2880859375, "latitude": 25.752753731496888}}}
{"businesses": [], "total": 122, "region": {"center": {"longitude": -80.2880859375, "latitude": 25.752753731496888}}}
{"businesses": [], "total": 122, "region": {"center": {"longitude": -80.2880859375, "latitude": 25.752753731496888}}}
{"businesses": [], "total": 122, "region": {"center": {"longitude": -80.2880859375, "latitude": 25.752753731496888}}}
{"businesses": [], "total": 122, "region": {"center": {"longitude": -80.2880859375, "latitude": 25.752753731496888}}}
{"businesses": [], "total": 122, "region": {"center": {"longitude": -80.2880859375, "latitude": 25.752753731496888}}}
{"businesses": [], "total": 122, "region": {"center": {"longitude": -80.2880859375, "latitude": 25.752753731496888}}}
{"businesses": [], "total": 122, "region": {"center": {"longitude": -80.2880859375, "latitude": 25.752753731496888}}}
{"businesses": [], "total": 122, "region": {"center": {"longitude": -80.2880859375, "latitude": 25.752753731496888}}}
