{"businesses": [{"id": "x3SHUCtsVdw-XlyW7wYQKA", "alias": "flea-mart-wine-and-liquor-brooklyn", "name": "Flea Mart Wine & Liquor", "image_url": "https://s3-media3.fl.yelpcdn.com/bphoto/VaUIpHo0XtF3CX4lV5emlQ/o.jpg", "is_closed": false, "url": "https://www.yelp.com/biz/flea-mart-wine-and-liquor-brooklyn?adjust_creative=OD45_sigUUSBobJ_eVs01w&utm_campaign=yelp_api_v3&utm_medium=api_v3_business_search&utm_source=OD45_sigUUSBobJ_eVs01w", "review_count": 4, "categories": [{"alias": "beer_and_wine", "title": "Beer, Wine & Spirits"}, {"alias": "wineries", "title": "Wineries"}], "rating": 5.0, "coordinates": {"latitude": 40.5911618471146, "longitude": -73.9607099443674}, "transactions": [], "price": "$$", "location": {"address1": "2686 Coney Island Ave", "address2": "", "address3": "", "city": "Brooklyn", "zip_code": "11235", "country": "US", "state": "NY", "display_address": ["2686 Coney Island Ave", "Brooklyn, NY 11235"]}, "phone": "+17186483000", "display_phone": "(718) 648-3000", "distance": 12978.30151722087}, {"id": "VKzLYPX7qdzPegu1v30S3A", "alias": "noho-wine-and-spirits-new-york-3", "name": "Noho Wine & Spirits", "image_url": "https://s3-media3.fl.yelpcdn.com/bphoto/VDm9yrFhECgG-Z5M5f6U5Q/o.jpg", "is_closed": false, "url": "https://www.yelp.com/biz/noho-wine-and-spirits-new-york-3?adjust_creative=OD45_sigUUSBobJ_eVs01w&utm_campaign=yelp_api_v3&utm_medium=api_v3_business_search&utm_source=OD45_sigUUSBobJ_eVs01w", "review_count": 6, "categories": [{"alias": "beer_and_wine", "title": "Beer, Wine & Spirits"}, {"alias": "wineries", "title": "Wineries"}], "rating": 4.0, "coordinates": {"latitude": 40.7264210144185, "longitude": -73.9960852707054}, "transactions": [], "price": "$$", "location": {"address1": "639 Broadway", "address2": null, "address3": "", "city": "New York", "zip_code": "10012", "country": "US", "state": "NY", "display_address": ["639 Broadway", "New York, NY 10012"]}, "phone": "+12124775550", "display_phone": "(212) 477-5550", "distance": 2588.918156643711}, {"id": "jjfGeWbm0kTbFPCPOzaFQg", "alias": "craigie-on-park-fine-wine-and-spirits-west-new-york", "name": "Craigie on Park Fine Wine & Spirits", "image_url": "https://s3-media4.fl.yelpcdn.com/bphoto/S0nz61Ltw7C0InrnqilvyA/o.jpg", "is_closed": false, "url": "https://www.yelp.com/biz/craigie-on-park-fine-wine-and-spirits-west-new-york?adjust_creative=OD45_sigUUSBobJ_eVs01w&utm_campaign=yelp_api_v3&utm_medium=api_v3_business_search&utm_source=OD45_sigUUSBobJ_eVs01w", "review_count": 3, "categories": [{"alias": "beer_and_wine", "title": "Beer, Wine & Spirits"}, {"alias": "winetastingroom", "title": "Wine Tasting Room"}], "rating": 4.5, "coordinates": {"latitude": 40.78072, "longitude": -74.01343}, "transactions": [], "location": {"address1": "5102 Park Ave", "address2": null, "address3": "", "city": "West New York", "zip_code": "07093", "country": "US", "state": "NJ", "display_address": ["5102 Park Ave", "West New York, NJ 07093"]}, "phone": "+12017668862", "display_phone": "(201) 766-8862", "distance": 8698.080129209988}, {"id": "4hR_9GXDkehujrKY5qmMqw", "alias": "amsterdam-wine-new-york", "name": "Amsterdam Wine", "image_url": "https://s3-media1.fl.yelpcdn.com/bphoto/XULyHtZdKU9lDRQWOwiknw/o.jpg", "is_closed": false, "url": "https://www.yelp.com/biz/amsterdam-wine-new-york?adjust_creative=OD45_sigUUSBobJ_eVs01w&utm_campaign=yelp_api_v3&utm_medium=api_v3_business_search&utm_source=OD45_sigUUSBobJ_eVs01w", "review_count": 25, "categories": [{"alias": "beer_and_wine", "title": "Beer, Wine & Spirits"}, {"alias": "winetastingroom", "title": "Wine Tasting Room"}], "rating": 4.0, "coordinates": {"latitude": 40.7790042, "longitude": -73.981027}, "transactions": ["pickup", "delivery"], "price": "$$", "location": {"address1": "271 Amsterdam Ave", "address2": "", "address3": "", "city": "New York", "zip_code": "10023", "country": "US", "state": "NY", "display_address": ["271 Amsterdam Ave", "New York, NY 10023"]}, "phone": "+12122011224", "display_phone": "(212) 201-1224", "distance": 8010.471295205475}, {"id": "rwVYlc3axjEZKEk9nkj1Fg", "alias": "honeys-brooklyn", "name": "Honey's", "image_url": "https://s3-media3.fl.yelpcdn.com/bphoto/WAN-KrRv0VvI1D9Ur5emnw/o.jpg", "is_closed": false, "url": "https://www.yelp.com/biz/honeys-brooklyn?adjust_creative=OD45_sigUUSBobJ_eVs01w&utm_campaign=yelp_api_v3&utm_medium=api_v3_business_search&utm_source=OD45_sigUUSBobJ_eVs01w", "review_count": 61, "categories": [{"alias": "cocktailbars", "title": "Cocktail Bars"}, {"alias": "winetastingroom", "title": "Wine Tasting Room"}, {"alias": "italian", "title": "Italian"}], "rating": 4.0, "coordinates": {"latitude": 40.7104296, "longitude": -73.9231562}, "transactions": ["pickup", "delivery"], "price": "$$", "location": {"address1": "93 Scott Ave", "address2": "", "address3": null, "city": "Brooklyn", "zip_code": "11237", "country": "US", "state": "NY", "display_address": ["93 Scott Ave", "Brooklyn, NY 11237"]}, "phone": "+13476691473", "display_phone": "(347) 669-1473", "distance": 4740.653197741502}, {"id": "lxHFVi4iZZRuNtbVW-ysQQ", "alias": "the-winery-new-york", "name": "The Winery", "image_url": "https://s3-media4.fl.yelpcdn.com/bphoto/p6BSD_CQehkSbBAhkL0y9g/o.jpg", "is_closed": false, "url": "https://www.yelp.com/biz/the-winery-new-york?adjust_creative=OD45_sigUUSBobJ_eVs01w&utm_campaign=yelp_api_v3&utm_medium=api_v3_business_search&utm_source=OD45_sigUUSBobJ_eVs01w", "review_count": 101, "categories": [{"alias": "wineries", "title": "Wineries"}], "rating": 4.0, "coordinates": {"latitude": 40.80435, "longitude": -73.955036}, "transactions": ["pickup", "delivery"], "price": "$$", "location": {"address1": "257 W 116th St", "address2": "", "address3": "", "city": "New York", "zip_code": "10026", "country": "US", "state": "NY", "display_address": ["257 W 116th St", "New York, NY 10026"]}, "phone": "+12122224866", "display_phone": "(212) 222-4866", "distance": 11016.732890547091}, {"id": "jNX7Zzt3_2AoCXa4xDPnGg", "alias": "september-wines-and-spirits-new-york", "name": "September Wines & Spirits", "image_url": "https://s3-media3.fl.yelpcdn.com/bphoto/IQAn_Cp9PqNZJvdx4DcvJg/o.jpg", "is_closed": false, "url": "https://www.yelp.com/biz/september-wines-and-spirits-new-york?adjust_creative=OD45_sigUUSBobJ_eVs01w&utm_campaign=yelp_api_v3&utm_medium=api_v3_business_search&utm_source=OD45_sigUUSBobJ_eVs01w", "review_count": 84, "categories": [{"alias": "beer_and_wine", "title": "Beer, Wine & Spirits"}, {"alias": "winetastingroom", "title": "Wine Tasting Room"}], "rating": 4.0, "coordinates": {"latitude": 40.721359220593875, "longitude": -73.98782197690565}, "transactions": ["pickup"], "price": "$$", "location": {"address1": "100 Stanton St", "address2": "", "address3": "", "city": "New York", "zip_code": "10002", "country": "US", "state": "NY", "display_address": ["100 Stanton St", "New York, NY 10002"]}, "phone": "+12123880770", "display_phone": "(212) 388-0770", "distance": 1756.9686172170902}, {"id": "FZCjHiHFv2vnuTG6R-1crQ", "alias": "ship-to-shore-wine-shop-queens", "name": "Ship To Shore Wine Shop", "image_url": "https://s3-media1.fl.yelpcdn.com/bphoto/UuhHIug8fQdRWUeRQ0gPoQ/o.jpg", "is_closed": false, "url": "https://www.yelp.com/biz/ship-to-shore-wine-shop-queens?adjust_creative=OD45_sigUUSBobJ_eVs01w&utm_campaign=yelp_api_v3&utm_medium=api_v3_business_search&utm_source=OD45_sigUUSBobJ_eVs01w", "review_count": 11, "categories": [{"alias": "winetasteclasses", "title": "Wine Tasting Classes"}, {"alias": "beer_and_wine", "title": "Beer, Wine & Spirits"}, {"alias": "wineries", "title": "Wineries"}], "rating": 4.0, "coordinates": {"latitude": 40.5874886022569, "longitude": -73.8134858384728}, "transactions": [], "price": "$$", "location": {"address1": "88-08 Rockaway Beach Blvd", "address2": "", "address3": null, "city": "Queens", "zip_code": "11693", "country": "US", "state": "NY", "display_address": ["88-08 Rockaway Beach Blvd", "Queens, NY 11693"]}, "phone": "+13477277730", "display_phone": "(347) 727-7730", "distance": 19286.432997195316}, {"id": "HO83Oi2aqQP1N4DMm95HCA", "alias": "vin-de-table-bedford-stuyvesant", "name": "Vin De Table", "image_url": "https://s3-media2.fl.yelpcdn.com/bphoto/0dp1C8rsqYTePfzip_17JA/o.jpg", "is_closed": false, "url": "https://www.yelp.com/biz/vin-de-table-bedford-stuyvesant?adjust_creative=OD45_sigUUSBobJ_eVs01w&utm_campaign=yelp_api_v3&utm_medium=api_v3_business_search&utm_source=OD45_sigUUSBobJ_eVs01w", "review_count": 19, "categories": [{"alias": "wineries", "title": "Wineries"}], "rating": 3.5, "coordinates": {"latitude": 40.6920204, "longitude": -73.9429245}, "transactions": ["pickup", "delivery"], "price": "$$", "location": {"address1": "354 Throop Ave", "address2": "", "address3": "", "city": "Bedford-Stuyvesant", "zip_code": "11221", "country": "US", "state": "NY", "display_address": ["354 Throop Ave", "Bedford-Stuyvesant, NY 11221"]}, "phone": "+17183871526", "display_phone": "(718) 387-1526", "distance": 3478.925534195505}, {"id": "6TJp0yF_bAgv1pzmZJ7jbA", "alias": "slyce-ardsley", "name": "Slyce", "image_url": "https://s3-media1.fl.yelpcdn.com/bphoto/JdM88qkTK1Ahoy1pQqCnVA/o.jpg", "is_closed": false, "url": "https://www.yelp.com/biz/slyce-ardsley?adjust_creative=OD45_sigUUSBobJ_eVs01w&utm_campaign=yelp_api_v3&utm_medium=api_v3_business_search&utm_source=OD45_sigUUSBobJ_eVs01w", "review_count": 109, "categories": [{"alias": "pizza", "title": "Pizza"}, {"alias": "bars", "title": "Bars"}, {"alias": "wineries", "title": "Wineries"}], "rating": 3.5, "coordinates": {"latitude": 41.0127485418759, "longitude": -73.8459586724639}, "transactions": ["pickup", "delivery"], "price": "$$", "location": {"address1": "27 Center St", "address2": "", "address3": "", "city": "Ardsley", "zip_code": "10502", "country": "US", "state": "NY", "display_address": ["27 Center St", "Ardsley, NY 10502"]}, "phone": "+19146932664", "display_phone": "(914) 693-2664", "distance": 35798.63786854935}, {"id": "xDYm12GIT-wMqAwtb2LI4g", "alias": "middle-village-wines-and-liquors-middle-village", "name": "Middle Village Wines & Liquors", "image_url": "https://s3-media2.fl.yelpcdn.com/bphoto/7o7ZtvlvjwOnQw231x9HDg/o.jpg", "is_closed": false, "url": "https://www.yelp.com/biz/middle-village-wines-and-liquors-middle-village?adjust_creative=OD45_sigUUSBobJ_eVs01w&utm_campaign=yelp_api_v3&utm_medium=api_v3_business_search&utm_source=OD45_sigUUSBobJ_eVs01w", "review_count": 14, "categories": [{"alias": "beer_and_wine", "title": "Beer, Wine & Spirits"}, {"alias": "wineries", "title": "Wineries"}], "rating": 3.5, "coordinates": {"latitude": 40.718112, "longitude": -73.872646}, "transactions": [], "price": "$$", "location": {"address1": "64-74 Dry Harbor Rd", "address2": null, "address3": "", "city": "Middle Village", "zip_code": "11379", "country": "US", "state": "NY", "display_address": ["64-74 Dry Harbor Rd", "Middle Village, NY 11379"]}, "phone": "+17188943545", "display_phone": "(718) 894-3545", "distance": 9063.603186235227}, {"id": "1tyiTVIcTrXX2jPw6CtFyw", "alias": "nb-liquors-teterboro", "name": "NB Liquors", "image_url": "https://s3-media1.fl.yelpcdn.com/bphoto/UXSji_0JpzvU8WXJO-KGSw/o.jpg", "is_closed": false, "url": "https://www.yelp.com/biz/nb-liquors-teterboro?adjust_creative=OD45_sigUUSBobJ_eVs01w&utm_campaign=yelp_api_v3&utm_medium=api_v3_business_search&utm_source=OD45_sigUUSBobJ_eVs01w", "review_count": 3, "categories": [{"alias": "discountstore", "title": "Discount Store"}, {"alias": "beer_and_wine", "title": "Beer, Wine & Spirits"}, {"alias": "winetastingroom", "title": "Wine Tasting Room"}], "rating": 3.5, "coordinates": {"latitude": 40.8600491121123, "longitude": -74.0577116981149}, "transactions": [], "price": "$$$$", "location": {"address1": "2 Teterboro Landing Dr", "address2": "", "address3": "", "city": "Teterboro", "zip_code": "07608", "country": "US", "state": "NJ", "display_address": ["2 Teterboro Landing Dr", "Teterboro, NJ 07608"]}, "phone": "+12012880157", "display_phone": "(201) 288-0157", "distance": 18259.67933992005}, {"id": "Lw4YAXQ-pwYJuxlKE3Jvog", "alias": "mezzanine-new-york", "name": "Mezzanine", "image_url": "https://s3-media4.fl.yelpcdn.com/bphoto/MSMxxSDAVVkdoEc7XdqZ_g/o.jpg", "is_closed": false, "url": "https://www.yelp.com/biz/mezzanine-new-york?adjust_creative=OD45_sigUUSBobJ_eVs01w&utm_campaign=yelp_api_v3&utm_medium=api_v3_business_search&utm_source=OD45_sigUUSBobJ_eVs01w", "review_count": 4, "categories": [{"alias": "newamerican", "title": "American (New)"}, {"alias": "breakfast_brunch", "title": "Breakfast & Brunch"}, {"alias": "wineries", "title": "Wineries"}], "rating": 3.0, "coordinates": {"latitude": 40.72554820927547, "longitude": -74.00542478288966}, "transactions": [], "location": {"address1": "246 Spring St", "address2": null, "address3": "", "city": "New York", "zip_code": "10013", "country": "US", "state": "NY", "display_address": ["246 Spring St", "New York, NY 10013"]}, "phone": "+12128425572", "display_phone": "(212) 842-5572", "distance": 3025.545252958373}, {"id": "an6OS5iRKoqsggZG9_7qkQ", "alias": "wi-bar-east-elmhurst", "name": "Wi-Bar", "image_url": "https://s3-media3.fl.yelpcdn.com/bphoto/0dazQn0cPJHrh4X2Mi7lgA/o.jpg", "is_closed": false, "url": "https://www.yelp.com/biz/wi-bar-east-elmhurst?adjust_creative=OD45_sigUUSBobJ_eVs01w&utm_campaign=yelp_api_v3&utm_medium=api_v3_business_search&utm_source=OD45_sigUUSBobJ_eVs01w", "review_count": 15, "categories": [{"alias": "tradamerican", "title": "American (Traditional)"}, {"alias": "wineries", "title": "Wineries"}], "rating": 2.5, "coordinates": {"latitude": 40.77402, "longitude": -73.87493}, "transactions": [], "price": "$$", "location": {"address1": "LaGuardia Aiport Queens", "address2": "Terminal C", "address3": null, "city": "East Elmhurst", "zip_code": "11371", "country": "US", "state": "NY", "display_address": ["LaGuardia Aiport Queens", "Terminal C", "East Elmhurst, NY 11371"]}, "phone": "+18665083558", "display_phone": "(866) 508-3558", "distance": 11957.53810269709}, {"id": "X_PBZVxd-FPGcrZzcWG9DA", "alias": "enlightenment-wines-brooklyn", "name": "Enlightenment Wines", "image_url": "https://s3-media4.fl.yelpcdn.com/bphoto/u1hAbKFVX_yVHoxPGWGlWQ/o.jpg", "is_closed": false, "url": "https://www.yelp.com/biz/enlightenment-wines-brooklyn?adjust_creative=OD45_sigUUSBobJ_eVs01w&utm_campaign=yelp_api_v3&utm_medium=api_v3_business_search&utm_source=OD45_sigUUSBobJ_eVs01w", "review_count": 1, "categories": [{"alias": "winetastingroom", "title": "Wine Tasting Room"}], "rating": 3.0, "coordinates": {"latitude": 40.7104920587704, "longitude": -73.9230628419878}, "transactions": ["delivery"], "location": {"address1": "93 Scott Ave", "address2": "", "address3": null, "city": "Brooklyn", "zip_code": "11237", "country": "US", "state": "NY", "display_address": ["93 Scott Ave", "Brooklyn, NY 11237"]}, "phone": "+13476691473", "display_phone": "(347) 669-1473", "distance": 4740.653197742569}, {"id": "FnRKoXqzhkn1qqsMjYWQ5g", "alias": "j-and-j-fine-wines-and-liquors-lyndhurst", "name": "J&J Fine Wines & Liquors", "image_url": "https://s3-media1.fl.yelpcdn.com/bphoto/8KZHwzX5_vGoTu3fWp8TRw/o.jpg", "is_closed": false, "url": "https://www.yelp.com/biz/j-and-j-fine-wines-and-liquors-lyndhurst?adjust_creative=OD45_sigUUSBobJ_eVs01w&utm_campaign=yelp_api_v3&utm_medium=api_v3_business_search&utm_source=OD45_sigUUSBobJ_eVs01w", "review_count": 2, "categories": [{"alias": "beer_and_wine", "title": "Beer, Wine & Spirits"}, {"alias": "wineries", "title": "Wineries"}], "rating": 1.5, "coordinates": {"latitude": 40.81491, "longitude": -74.11435}, "transactions": [], "price": "$$", "location": {"address1": "39 Ridge Rd", "address2": null, "address3": null, "city": "Lyndhurst", "zip_code": "07071", "country": "US", "state": "NJ", "display_address": ["39 Ridge Rd", "Lyndhurst, NJ 07071"]}, "phone": "+12017290080", "display_phone": "(201) 729-0080", "distance": 16543.01135733749}]}