{"businesses": [{"id": "PRKVj-QNl0_7FbxV4n1EAw", "alias": "aero-cruise-balloon-adventures-broomfield-3", "name": "Aero-Cruise Balloon Adventures", "image_url": "https://s3-media2.fl.yelpcdn.com/bphoto/7cAKg-4xO7fi5Zss8grsCQ/o.jpg", "is_closed": false, "url": "https://www.yelp.com/biz/aero-cruise-balloon-adventures-broomfield-3?adjust_creative=OD45_sigUUSBobJ_eVs01w&utm_campaign=yelp_api_v3&utm_medium=api_v3_business_search&utm_source=OD45_sigUUSBobJ_eVs01w", "review_count": 5, "categories": [{"alias": "hot_air_balloons", "title": "Hot Air Balloons"}, {"alias": "aerialtours", "title": "Aerial Tours"}], "rating": 5.0, "coordinates": {"latitude": 39.927059, "longitude": -105.080493}, "transactions": [], "location": {"address1": "890 Hemlock Way", "address2": null, "address3": "", "city": "Broomfield", "zip_code": "80020", "country": "US", "state": "CO", "display_address": ["890 Hemlock Way", "Broomfield, CO 80020"]}, "phone": "+13034691243", "display_phone": "(303) 469-1243", "distance": 23285.51889040894}, {"id": "Y2QiC40VQMygUDdTstIOgQ", "alias": "golden-history-tours-golden", "name": "Golden History Tours", "image_url": "https://s3-media2.fl.yelpcdn.com/bphoto/ZYVQHwTy1EZ3Km9_rbZKgg/o.jpg", "is_closed": false, "url": "https://www.yelp.com/biz/golden-history-tours-golden?adjust_creative=OD45_sigUUSBobJ_eVs01w&utm_campaign=yelp_api_v3&utm_medium=api_v3_business_search&utm_source=OD45_sigUUSBobJ_eVs01w", "review_count": 7, "categories": [{"alias": "walkingtours", "title": "Walking Tours"}, {"alias": "historicaltours", "title": "Historical Tours"}, {"alias": "beertours", "title": "Beer Tours"}], "rating": 5.0, "coordinates": {"latitude": 39.75337, "longitude": -105.21945}, "transactions": [], "location": {"address1": "", "address2": null, "address3": null, "city": "Golden", "zip_code": "80401", "country": "US", "state": "CO", "display_address": ["Golden, CO 80401"]}, "phone": "+17204321162", "display_phone": "(720) 432-1162", "distance": 21562.432437832118}, {"id": "Hffi90pfWIlcccUYJl55iA", "alias": "boulder-bike-tours-boulder", "name": "Boulder Bike Tours", "image_url": "https://s3-media2.fl.yelpcdn.com/bphoto/jCOUN8CdPB9UZMjquQgPhg/o.jpg", "is_closed": false, "url": "https://www.yelp.com/biz/boulder-bike-tours-boulder?adjust_creative=OD45_sigUUSBobJ_eVs01w&utm_campaign=yelp_api_v3&utm_medium=api_v3_business_search&utm_source=OD45_sigUUSBobJ_eVs01w", "review_count": 5, "categories": [{"alias": "biketours", "title": "Bike tours"}], "rating": 5.0, "coordinates": {"latitude": 40.0004063006652, "longitude": -105.230439101758}, "transactions": [], "location": {"address1": null, "address2": "", "address3": "", "city": "Boulder", "zip_code": "80303", "country": "US", "state": "CO", "display_address": ["Boulder, CO 80303"]}, "phone": "+13037476191", "display_phone": "(303) 747-6191", "distance": 36886.56988012506}, {"id": "32sskOG7KI_KiaBpza-9cw", "alias": "outdoorsco-denver", "name": "Outdoorsco", "image_url": "https://s3-media3.fl.yelpcdn.com/bphoto/nBx--O6nBtVrAA8tvRQMPQ/o.jpg", "is_closed": false, "url": "https://www.yelp.com/biz/outdoorsco-denver?adjust_creative=OD45_sigUUSBobJ_eVs01w&utm_campaign=yelp_api_v3&utm_medium=api_v3_business_search&utm_source=OD45_sigUUSBobJ_eVs01w", "review_count": 5, "categories": [{"alias": "tours", "title": "Tours"}], "rating": 5.0, "coordinates": {"latitude": 39.6799926757812, "longitude": -104.942817687988}, "transactions": [], "location": {"address1": "", "address2": null, "address3": "", "city": "Denver", "zip_code": "80250", "country": "US", "state": "CO", "display_address": ["Denver, CO 80250"]}, "phone": "+18006808081", "display_phone": "(800) 680-8081", "distance": 6577.876777126095}, {"id": "rYC4gCNA7gt_81FEveUZNQ", "alias": "adventure-colorado-tours-aurora-2", "name": "Adventure Colorado Tours", "image_url": "https://s3-media4.fl.yelpcdn.com/bphoto/aP_JjN_S15leKBqqEaO1Ow/o.jpg", "is_closed": false, "url": "https://www.yelp.com/biz/adventure-colorado-tours-aurora-2?adjust_creative=OD45_sigUUSBobJ_eVs01w&utm_campaign=yelp_api_v3&utm_medium=api_v3_business_search&utm_source=OD45_sigUUSBobJ_eVs01w", "review_count": 7, "categories": [{"alias": "walkingtours", "title": "Walking Tours"}, {"alias": "hiking", "title": "Hiking"}, {"alias": "mountainbiking", "title": "Mountain Biking"}], "rating": 5.0, "coordinates": {"latitude": 39.74924087524414, "longitude": -104.99501037597656}, "transactions": [], "location": {"address1": null, "address2": null, "address3": null, "city": "Aurora", "zip_code": "80202", "country": "US", "state": "CO", "display_address": ["Aurora, CO 80202"]}, "phone": "+17207080567", "display_phone": "(720) 708-0567", "distance": 3292.031921569482}, {"id": "o6AJNW-BbbYukqBZdkyDqQ", "alias": "titus-adventure-company-denver", "name": "Titus Adventure Company", "image_url": "https://s3-media1.fl.yelpcdn.com/bphoto/Xa_NCc_eP9Uw7vFvJZBbaw/o.jpg", "is_closed": false, "url": "https://www.yelp.com/biz/titus-adventure-company-denver?adjust_creative=OD45_sigUUSBobJ_eVs01w&utm_campaign=yelp_api_v3&utm_medium=api_v3_business_search&utm_source=OD45_sigUUSBobJ_eVs01w", "review_count": 7, "categories": [{"alias": "travelservices", "title": "Travel Services"}, {"alias": "rvrental", "title": "RV Rental"}, {"alias": "tours", "title": "Tours"}], "rating": 5.0, "coordinates": {"latitude": 39.81548, "longitude": -105.00906}, "transactions": [], "location": {"address1": "1830 W 64th Ln", "address2": "Unit A", "address3": "", "city": "Denver", "zip_code": "80221", "country": "US", "state": "CO", "display_address": ["1830 W 64th Ln", "Unit A", "Denver, CO 80221"]}, "phone": "+17208788586", "display_phone": "(720) 878-8586", "distance": 9487.142145344234}, {"id": "hYX9AVtmOlwXCq3oaa3rgQ", "alias": "cultivating-spirits-breckenridge", "name": "Cultivating Spirits", "image_url": "https://s3-media2.fl.yelpcdn.com/bphoto/UrNX918QiPGwMljT7zbzRg/o.jpg", "is_closed": false, "url": "https://www.yelp.com/biz/cultivating-spirits-breckenridge?adjust_creative=OD45_sigUUSBobJ_eVs01w&utm_campaign=yelp_api_v3&utm_medium=api_v3_business_search&utm_source=OD45_sigUUSBobJ_eVs01w", "review_count": 5, "categories": [{"alias": "eventplanning", "title": "Party & Event Planning"}, {"alias": "winetours", "title": "Wine Tours"}, {"alias": "foodtours", "title": "Food Tours"}], "rating": 5.0, "coordinates": {"latitude": 39.4822, "longitude": -106.04719}, "transactions": [], "location": {"address1": "", "address2": null, "address3": "", "city": "Breckenridge", "zip_code": "80424", "country": "US", "state": "CO", "display_address": ["Breckenridge, CO 80424"]}, "phone": "+19703682446", "display_phone": "(970) 368-2446", "distance": 95755.68640743326}, {"id": "CgnKhih4xgPwEafw0O7G8Q", "alias": "galvin-guiding-denver", "name": "Galvin Guiding", "image_url": "https://s3-media2.fl.yelpcdn.com/bphoto/Vim6LknmDB8YzMI5tH1i6A/o.jpg", "is_closed": false, "url": "https://www.yelp.com/biz/galvin-guiding-denver?adjust_creative=OD45_sigUUSBobJ_eVs01w&utm_campaign=yelp_api_v3&utm_medium=api_v3_business_search&utm_source=OD45_sigUUSBobJ_eVs01w", "review_count": 7, "categories": [{"alias": "tours", "title": "Tours"}, {"alias": "fishing", "title": "Fishing"}], "rating": 5.0, "coordinates": {"latitude": 39.727881, "longitude": -104.940312}, "transactions": [], "location": {"address1": "700 Colorado Blvd", "address2": "Ste 676", "address3": "", "city": "Denver", "zip_code": "80206", "country": "US", "state": "CO", "display_address": ["700 Colorado Blvd", "Ste 676", "Denver, CO 80206"]}, "phone": "+13035204656", "display_phone": "(303) 520-4656", "distance": 2697.1219275282265}, {"id": "vks0tiAmJ2GL0sCcWHa8ZQ", "alias": "estes-park-trolleys-estes-park", "name": "Estes Park Trolleys", "image_url": "https://s3-media4.fl.yelpcdn.com/bphoto/qCsDlssmW_bk_qOstfJOog/o.jpg", "is_closed": false, "url": "https://www.yelp.com/biz/estes-park-trolleys-estes-park?adjust_creative=OD45_sigUUSBobJ_eVs01w&utm_campaign=yelp_api_v3&utm_medium=api_v3_business_search&utm_source=OD45_sigUUSBobJ_eVs01w", "review_count": 6, "categories": [{"alias": "tours", "title": "Tours"}], "rating": 5.0, "coordinates": {"latitude": 40.382515, "longitude": -105.499033}, "transactions": [], "location": {"address1": "1360 Big Thompson Ave", "address2": null, "address3": "", "city": "Estes Park", "zip_code": "80517", "country": "US", "state": "CO", "display_address": ["1360 Big Thompson Ave", "Estes Park, CO 80517"]}, "phone": "+19704818531", "display_phone": "(970) 481-8531", "distance": 84857.96140175423}, {"id": "0oIXzNJDUS3ipESzgNxmgg", "alias": "rocky-mountain-biking-lakewood", "name": "Rocky Mountain Biking", "image_url": "https://s3-media1.fl.yelpcdn.com/bphoto/KCcodpiZ9emG-yBUEWwzkQ/o.jpg", "is_closed": false, "url": "https://www.yelp.com/biz/rocky-mountain-biking-lakewood?adjust_creative=OD45_sigUUSBobJ_eVs01w&utm_campaign=yelp_api_v3&utm_medium=api_v3_business_search&utm_source=OD45_sigUUSBobJ_eVs01w", "review_count": 9, "categories": [{"alias": "mountainbiking", "title": "Mountain Biking"}, {"alias": "bikerentals", "title": "Bike Rentals"}, {"alias": "biketours", "title": "Bike tours"}], "rating": 5.0, "coordinates": {"latitude": 39.7141647338867, "longitude": -105.23600769043}, "transactions": [], "location": {"address1": "", "address2": "", "address3": "", "city": "Lakewood", "zip_code": "80401", "country": "US", "state": "CO", "display_address": ["Lakewood, CO 80401"]}, "phone": "+17205834122", "display_phone": "(720) 583-4122", "distance": 22422.387988436665}, {"id": "t9a6_oeoOQk32K4WKLa48g", "alias": "meier-skis-denver", "name": "Meier Skis", "image_url": "https://s3-media1.fl.yelpcdn.com/bphoto/eNXhvRYnW7eLVZKbC7ehSQ/o.jpg", "is_closed": false, "url": "https://www.yelp.com/biz/meier-skis-denver?adjust_creative=OD45_sigUUSBobJ_eVs01w&utm_campaign=yelp_api_v3&utm_medium=api_v3_business_search&utm_source=OD45_sigUUSBobJ_eVs01w", "review_count": 7, "categories": [{"alias": "outdoorgear", "title": "Outdoor Gear"}, {"alias": "skishops", "title": "Ski & Snowboard Shops"}, {"alias": "tours", "title": "Tours"}], "rating": 5.0, "coordinates": {"latitude": 39.6843817, "longitude": -104.9879455}, "transactions": [], "price": "$$", "location": {"address1": "1775 S Broadway", "address2": "", "address3": null, "city": "Denver", "zip_code": "80210", "country": "US", "state": "CO", "display_address": ["1775 S Broadway", "Denver, CO 80210"]}, "phone": "+18449663754", "display_phone": "(844) 966-3754", "distance": 5884.890798818313}, {"id": "jT5VYGdX63LxQlJm8_z8aw", "alias": "front-range-ride-guides-fort-collins", "name": "Front Range Ride Guides", "image_url": "https://s3-media3.fl.yelpcdn.com/bphoto/3mD5Dd3v4CE3X1vD5UDI9g/o.jpg", "is_closed": false, "url": "https://www.yelp.com/biz/front-range-ride-guides-fort-collins?adjust_creative=OD45_sigUUSBobJ_eVs01w&utm_campaign=yelp_api_v3&utm_medium=api_v3_business_search&utm_source=OD45_sigUUSBobJ_eVs01w", "review_count": 42, "categories": [{"alias": "mountainbiking", "title": "Mountain Biking"}, {"alias": "tours", "title": "Tours"}], "rating": 5.0, "coordinates": {"latitude": 40.5484183, "longitude": -105.0264054}, "transactions": [], "location": {"address1": "2821 Canby Way", "address2": "", "address3": "", "city": "Fort Collins", "zip_code": "80525", "country": "US", "state": "CO", "display_address": ["2821 Canby Way", "Fort Collins, CO 80525"]}, "phone": "+17204701627", "display_phone": "(720) 470-1627", "distance": 90515.56249213695}, {"id": "SkSfSSM3srBgpboUvNnPBQ", "alias": "best-tours-of-denver-denver", "name": "Best Tours of Denver", "image_url": "https://s3-media3.fl.yelpcdn.com/bphoto/5iRBtGRvJfeEPDBi9cmynA/o.jpg", "is_closed": false, "url": "https://www.yelp.com/biz/best-tours-of-denver-denver?adjust_creative=OD45_sigUUSBobJ_eVs01w&utm_campaign=yelp_api_v3&utm_medium=api_v3_business_search&utm_source=OD45_sigUUSBobJ_eVs01w", "review_count": 24, "categories": [{"alias": "historicaltours", "title": "Historical Tours"}, {"alias": "walkingtours", "title": "Walking Tours"}, {"alias": "hauntedhouses", "title": "Haunted Houses"}], "rating": 5.0, "coordinates": {"latitude": 39.7312126159668, "longitude": -104.98225402832}, "transactions": [], "location": {"address1": "", "address2": "", "address3": null, "city": "Denver", "zip_code": "80203", "country": "US", "state": "CO", "display_address": ["Denver, CO 80203"]}, "phone": "+17203659464", "display_phone": "(720) 365-9464", "distance": 1167.8232974182863}, {"id": "J1ZYh6oZ75PGRzsf2lKhGQ", "alias": "delicious-denver-food-tours-denver", "name": "Delicious Denver Food Tours", "image_url": "https://s3-media2.fl.yelpcdn.com/bphoto/tvcGLpkcJ4_QdGt3f31cQw/o.jpg", "is_closed": false, "url": "https://www.yelp.com/biz/delicious-denver-food-tours-denver?adjust_creative=OD45_sigUUSBobJ_eVs01w&utm_campaign=yelp_api_v3&utm_medium=api_v3_business_search&utm_source=OD45_sigUUSBobJ_eVs01w", "review_count": 69, "categories": [{"alias": "foodtours", "title": "Food Tours"}, {"alias": "walkingtours", "title": "Walking Tours"}, {"alias": "historicaltours", "title": "Historical Tours"}], "rating": 5.0, "coordinates": {"latitude": 39.754513, "longitude": -104.990974}, "transactions": [], "location": {"address1": "2129 Larimer St", "address2": null, "address3": "", "city": "Denver", "zip_code": "80205", "country": "US", "state": "CO", "display_address": ["2129 Larimer St", "Denver, CO 80205"]}, "phone": "+13039972210", "display_phone": "(303) 997-2210", "distance": 2756.644927970084}, {"id": "wpO2mK4yhdOBqjBYB9QrLw", "alias": "aspire-tours-wheat-ridge", "name": "Aspire Tours", "image_url": "https://s3-media1.fl.yelpcdn.com/bphoto/MGTrlqzcV8YU29LF9Xxejg/o.jpg", "is_closed": false, "url": "https://www.yelp.com/biz/aspire-tours-wheat-ridge?adjust_creative=OD45_sigUUSBobJ_eVs01w&utm_campaign=yelp_api_v3&utm_medium=api_v3_business_search&utm_source=OD45_sigUUSBobJ_eVs01w", "review_count": 110, "categories": [{"alias": "bustours", "title": "Bus Tours"}, {"alias": "hiking", "title": "Hiking"}], "rating": 5.0, "coordinates": {"latitude": 39.7690869, "longitude": -105.0630706}, "transactions": [], "location": {"address1": "6000 W 38th Ave", "address2": null, "address3": "", "city": "Wheat Ridge", "zip_code": "80033", "country": "US", "state": "CO", "display_address": ["6000 W 38th Ave", "Wheat Ridge, CO 80033"]}, "phone": "+17205830654", "display_phone": "(720) 583-0654", "distance": 8769.240625966879}, {"id": "90PO39QLowV65UIOrTe3bw", "alias": "capital-prize-gold-mine-tours-georgetown", "name": "Capital Prize Gold Mine Tours", "image_url": "https://s3-media1.fl.yelpcdn.com/bphoto/bB5RSFPa_NlGv83dmFFJkA/o.jpg", "is_closed": false, "url": "https://www.yelp.com/biz/capital-prize-gold-mine-tours-georgetown?adjust_creative=OD45_sigUUSBobJ_eVs01w&utm_campaign=yelp_api_v3&utm_medium=api_v3_business_search&utm_source=OD45_sigUUSBobJ_eVs01w", "review_count": 32, "categories": [{"alias": "tours", "title": "Tours"}], "rating": 5.0, "coordinates": {"latitude": 39.7096175854054, "longitude": -105.692500990738}, "transactions": [], "location": {"address1": "1016 Biddle St", "address2": null, "address3": "", "city": "Georgetown", "zip_code": "80444", "country": "US", "state": "CO", "display_address": ["1016 Biddle St", "Georgetown, CO 80444"]}, "phone": "+13035692468", "display_phone": "(303) 569-2468", "distance": 61838.054847878055}, {"id": "WIHB8q2uocOmHi73YNxeoA", "alias": "liquid-descent-idaho-springs", "name": "Liquid Descent", "image_url": "https://s3-media1.fl.yelpcdn.com/bphoto/tanpoBnqfJLFuC0xAhc73w/o.jpg", "is_closed": false, "url": "https://www.yelp.com/biz/liquid-descent-idaho-springs?adjust_creative=OD45_sigUUSBobJ_eVs01w&utm_campaign=yelp_api_v3&utm_medium=api_v3_business_search&utm_source=OD45_sigUUSBobJ_eVs01w", "review_count": 470, "categories": [{"alias": "rafting", "title": "Rafting/Kayaking"}, {"alias": "tours", "title": "Tours"}], "rating": 5.0, "coordinates": {"latitude": 39.755867, "longitude": -105.565056}, "transactions": [], "location": {"address1": "1896 Stanley Rd", "address2": "", "address3": "", "city": "Idaho Springs", "zip_code": "80452", "country": "US", "state": "CO", "display_address": ["1896 Stanley Rd", "Idaho Springs, CO 80452"]}, "phone": "+19703722870", "display_phone": "(970) 372-2870", "distance": 50904.45061301703}, {"id": "VpubJevgp2GmRmOVRFvC-A", "alias": "denver-brews-cruise-denver-2", "name": "Denver Brews Cruise", "image_url": "https://s3-media4.fl.yelpcdn.com/bphoto/-aZcfDUKqzJP0TAZSg9V0g/o.jpg", "is_closed": false, "url": "https://www.yelp.com/biz/denver-brews-cruise-denver-2?adjust_creative=OD45_sigUUSBobJ_eVs01w&utm_campaign=yelp_api_v3&utm_medium=api_v3_business_search&utm_source=OD45_sigUUSBobJ_eVs01w", "review_count": 39, "categories": [{"alias": "beertours", "title": "Beer Tours"}], "rating": 5.0, "coordinates": {"latitude": 39.7393394314217, "longitude": -104.990786080859}, "transactions": [], "location": {"address1": null, "address2": "", "address3": "", "city": "Denver", "zip_code": "80223", "country": "US", "state": "CO", "display_address": ["Denver, CO 80223"]}, "phone": "+13039937308", "display_phone": "(303) 993-7308", "distance": 1806.879578751763}, {"id": "swzTjga1lvhWBvlRfhhOJQ", "alias": "front-range-climbing-co-colorado-springs", "name": "Front Range Climbing Co", "image_url": "https://s3-media4.fl.yelpcdn.com/bphoto/OF5irgBsv6gyDm4WA1_9Dg/o.jpg", "is_closed": false, "url": "https://www.yelp.com/biz/front-range-climbing-co-colorado-springs?adjust_creative=OD45_sigUUSBobJ_eVs01w&utm_campaign=yelp_api_v3&utm_medium=api_v3_business_search&utm_source=OD45_sigUUSBobJ_eVs01w", "review_count": 49, "categories": [{"alias": "climbing", "title": "Climbing"}, {"alias": "tours", "title": "Tours"}], "rating": 5.0, "coordinates": {"latitude": 38.829409, "longitude": -104.8595341}, "transactions": [], "location": {"address1": "1676 S 21st St", "address2": "", "address3": "", "city": "Colorado Springs", "zip_code": "80904", "country": "US", "state": "CO", "display_address": ["1676 S 21st St", "Colorado Springs, CO 80904"]}, "phone": "+17196325822", "display_phone": "(719) 632-5822", "distance": 101204.85453743445}, {"id": "Ew_c3pHi9zRPVUvVFqwtiA", "alias": "a-ride-in-luxury-colorado-springs", "name": "A Ride In Luxury", "image_url": "https://s3-media4.fl.yelpcdn.com/bphoto/x16__LrsYcTbItDRSVACVQ/o.jpg", "is_closed": false, "url": "https://www.yelp.com/biz/a-ride-in-luxury-colorado-springs?adjust_creative=OD45_sigUUSBobJ_eVs01w&utm_campaign=yelp_api_v3&utm_medium=api_v3_business_search&utm_source=OD45_sigUUSBobJ_eVs01w", "review_count": 15, "categories": [{"alias": "airport_shuttles", "title": "Airport Shuttles"}, {"alias": "limos", "title": "Limos"}, {"alias": "tours", "title": "Tours"}], "rating": 5.0, "coordinates": {"latitude": 38.8443348, "longitude": -104.7403357}, "transactions": [], "location": {"address1": "741 Clark Pl", "address2": "Ste 180", "address3": null, "city": "Colorado Springs", "zip_code": "80915", "country": "US", "state": "CO", "display_address": ["741 Clark Pl", "Ste 180", "Colorado Springs, CO 80915"]}, "phone": "+17192433365", "display_phone": "(719) 243-3365", "distance": 101051.47915313423}, {"id": "awZXhi45ZMXROQkWrZUoeQ", "alias": "denver-microbrew-tour-denver", "name": "Denver Microbrew Tour", "image_url": "https://s3-media1.fl.yelpcdn.com/bphoto/lnMhXqpVJh1ttkNJTHJV1w/o.jpg", "is_closed": false, "url": "https://www.yelp.com/biz/denver-microbrew-tour-denver?adjust_creative=OD45_sigUUSBobJ_eVs01w&utm_campaign=yelp_api_v3&utm_medium=api_v3_business_search&utm_source=OD45_sigUUSBobJ_eVs01w", "review_count": 244, "categories": [{"alias": "walkingtours", "title": "Walking Tours"}, {"alias": "beertours", "title": "Beer Tours"}], "rating": 5.0, "coordinates": {"latitude": 39.758931, "longitude": -104.986182}, "transactions": [], "location": {"address1": "2590 Walnut St", "address2": "", "address3": "", "city": "Denver", "zip_code": "80205", "country": "US", "state": "CO", "display_address": ["2590 Walnut St", "Denver, CO 80205"]}, "phone": "+13035789548", "display_phone": "(303) 578-9548", "distance": 2933.176546467208}, {"id": "kbBOrfaOMmg1z80tnvjWqg", "alias": "etuk-ride-denver-denver", "name": "eTuk Ride Denver", "image_url": "https://s3-media3.fl.yelpcdn.com/bphoto/BcEW9T8Ja3kCfUU-acMeZg/o.jpg", "is_closed": false, "url": "https://www.yelp.com/biz/etuk-ride-denver-denver?adjust_creative=OD45_sigUUSBobJ_eVs01w&utm_campaign=yelp_api_v3&utm_medium=api_v3_business_search&utm_source=OD45_sigUUSBobJ_eVs01w", "review_count": 43, "categories": [{"alias": "tours", "title": "Tours"}, {"alias": "partybusrentals", "title": "Party Bus Rentals"}], "rating": 5.0, "coordinates": {"latitude": 39.77133, "longitude": -104.97194}, "transactions": [], "location": {"address1": "3860 Blake St", "address2": null, "address3": "", "city": "Denver", "zip_code": "80205", "country": "US", "state": "CO", "display_address": ["3860 Blake St", "Denver, CO 80205"]}, "phone": "+17205938857", "display_phone": "(720) 593-8857", "distance": 3975.7664858346657}, {"id": "hyxXsZq5--jaVcGR5SIKsA", "alias": "boulder-brew-tours-boulder", "name": "Boulder Brew Tours", "image_url": "https://s3-media1.fl.yelpcdn.com/bphoto/vsIbJTF5GskJdx8ht_iu1g/o.jpg", "is_closed": false, "url": "https://www.yelp.com/biz/boulder-brew-tours-boulder?adjust_creative=OD45_sigUUSBobJ_eVs01w&utm_campaign=yelp_api_v3&utm_medium=api_v3_business_search&utm_source=OD45_sigUUSBobJ_eVs01w", "review_count": 14, "categories": [{"alias": "tours", "title": "Tours"}], "rating": 5.0, "coordinates": {"latitude": 40.0187531, "longitude": -105.2790527}, "transactions": [], "location": {"address1": "2027 13th St", "address2": null, "address3": "", "city": "Boulder", "zip_code": "80302", "country": "US", "state": "CO", "display_address": ["2027 13th St", "Boulder, CO 80302"]}, "phone": "+13035223236", "display_phone": "(303) 522-3236", "distance": 41071.15314142998}, {"id": "rCByXgk3ItU-KTTYs6YKPw", "alias": "historic-denver-walking-tours-denver", "name": "Historic Denver Walking Tours", "image_url": "https://s3-media4.fl.yelpcdn.com/bphoto/9DK90_gcCDqbxa5LtSHjXQ/o.jpg", "is_closed": false, "url": "https://www.yelp.com/biz/historic-denver-walking-tours-denver?adjust_creative=OD45_sigUUSBobJ_eVs01w&utm_campaign=yelp_api_v3&utm_medium=api_v3_business_search&utm_source=OD45_sigUUSBobJ_eVs01w", "review_count": 38, "categories": [{"alias": "architecturaltours", "title": "Architectural Tours"}, {"alias": "historicaltours", "title": "Historical Tours"}, {"alias": "walkingtours", "title": "Walking Tours"}], "rating": 5.0, "coordinates": {"latitude": 39.739018, "longitude": -104.974997}, "transactions": [], "location": {"address1": "1420 Ogden St", "address2": "Ste 202", "address3": "", "city": "Denver", "zip_code": "80218", "country": "US", "state": "CO", "display_address": ["1420 Ogden St", "Ste 202", "Denver, CO 80218"]}, "phone": "+13035345288", "display_phone": "(303) 534-5288", "distance": 545.943124278959}, {"id": "iGihFp2MKbYV8bi6-uPWEg", "alias": "pedego-electric-bikes-boulder-boulder", "name": "Pedego Electric Bikes Boulder", "image_url": "https://s3-media1.fl.yelpcdn.com/bphoto/ODUHdHiyEB2qtfkbvcI8fg/o.jpg", "is_closed": false, "url": "https://www.yelp.com/biz/pedego-electric-bikes-boulder-boulder?adjust_creative=OD45_sigUUSBobJ_eVs01w&utm_campaign=yelp_api_v3&utm_medium=api_v3_business_search&utm_source=OD45_sigUUSBobJ_eVs01w", "review_count": 41, "categories": [{"alias": "bikes", "title": "Bikes"}, {"alias": "bikerentals", "title": "Bike Rentals"}, {"alias": "biketours", "title": "Bike tours"}], "rating": 5.0, "coordinates": {"latitude": 40.02365, "longitude": -105.2814488}, "transactions": [], "price": "$$", "location": {"address1": "2512 Broadway", "address2": "", "address3": null, "city": "Boulder", "zip_code": "80304", "country": "US", "state": "CO", "display_address": ["2512 Broadway", "Boulder, CO 80304"]}, "phone": "+13034159999", "display_phone": "(303) 415-9999", "distance": 41612.551312067844}, {"id": "Uwg1fYnPxDk0QKfkxwGmTA", "alias": "303-limo-bus-boulder", "name": "303 Limo Bus", "image_url": "https://s3-media2.fl.yelpcdn.com/bphoto/7m0etywI7CfJNYXsOn_28w/o.jpg", "is_closed": false, "url": "https://www.yelp.com/biz/303-limo-bus-boulder?adjust_creative=OD45_sigUUSBobJ_eVs01w&utm_campaign=yelp_api_v3&utm_medium=api_v3_business_search&utm_source=OD45_sigUUSBobJ_eVs01w", "review_count": 11, "categories": [{"alias": "limos", "title": "Limos"}, {"alias": "partybusrentals", "title": "Party Bus Rentals"}, {"alias": "beertours", "title": "Beer Tours"}], "rating": 5.0, "coordinates": {"latitude": 39.9823799133301, "longitude": -105.242805480957}, "transactions": [], "location": {"address1": "", "address2": null, "address3": "", "city": "Boulder", "zip_code": "80305", "country": "US", "state": "CO", "display_address": ["Boulder, CO 80305"]}, "phone": "+13035466287", "display_phone": "(303) 546-6287", "distance": 36111.77915597064}, {"id": "yE4oKc8ExPKHjaSNk716qQ", "alias": "colorado-sightseer-denver", "name": "Colorado Sightseer", "image_url": "https://s3-media2.fl.yelpcdn.com/bphoto/_ECXTnnrxKLNN51beArB9g/o.jpg", "is_closed": false, "url": "https://www.yelp.com/biz/colorado-sightseer-denver?adjust_creative=OD45_sigUUSBobJ_eVs01w&utm_campaign=yelp_api_v3&utm_medium=api_v3_business_search&utm_source=OD45_sigUUSBobJ_eVs01w", "review_count": 59, "categories": [{"alias": "tours", "title": "Tours"}, {"alias": "hiking", "title": "Hiking"}], "rating": 5.0, "coordinates": {"latitude": 39.706242, "longitude": -104.921492}, "transactions": [], "location": {"address1": "600 South Holly St", "address2": "Ste 200", "address3": "", "city": "Denver", "zip_code": "80246", "country": "US", "state": "CO", "display_address": ["600 South Holly St", "Ste 200", "Denver, CO 80246"]}, "phone": "+13034238200", "display_phone": "(303) 423-8200", "distance": 5290.416236463987}, {"id": "0-MqY9sbiQFguqx-97E7Kg", "alias": "mile-high-tap-tours-englewood", "name": "Mile High Tap Tours", "image_url": "https://s3-media1.fl.yelpcdn.com/bphoto/dOHBpHG7dzT-5Au19-MY0g/o.jpg", "is_closed": false, "url": "https://www.yelp.com/biz/mile-high-tap-tours-englewood?adjust_creative=OD45_sigUUSBobJ_eVs01w&utm_campaign=yelp_api_v3&utm_medium=api_v3_business_search&utm_source=OD45_sigUUSBobJ_eVs01w", "review_count": 5, "categories": [{"alias": "breweries", "title": "Breweries"}, {"alias": "winetours", "title": "Wine Tours"}], "rating": 5.0, "coordinates": {"latitude": 39.654156, "longitude": -104.988047}, "transactions": [], "location": {"address1": "3445 S Bdwy", "address2": null, "address3": "", "city": "Englewood", "zip_code": "80113", "country": "US", "state": "CO", "display_address": ["3445 S Bdwy", "Englewood, CO 80113"]}, "phone": "+17203188727", "display_phone": "(720) 318-8727", "distance": 9179.292111146397}, {"id": "dEEztTEXIZavLti5NlPt5w", "alias": "colorado-adventure-trips-denver", "name": "Colorado Adventure Trips", "image_url": "https://s3-media4.fl.yelpcdn.com/bphoto/-UVl2pQ6ofdlbygPb_g5pw/o.jpg", "is_closed": false, "url": "https://www.yelp.com/biz/colorado-adventure-trips-denver?adjust_creative=OD45_sigUUSBobJ_eVs01w&utm_campaign=yelp_api_v3&utm_medium=api_v3_business_search&utm_source=OD45_sigUUSBobJ_eVs01w", "review_count": 5, "categories": [{"alias": "tours", "title": "Tours"}], "rating": 5.0, "coordinates": {"latitude": 39.768349, "longitude": -105.01152}, "transactions": [], "location": {"address1": "3709 Tejon St", "address2": null, "address3": "", "city": "Denver", "zip_code": "80211", "country": "US", "state": "CO", "display_address": ["3709 Tejon St", "Denver, CO 80211"]}, "phone": "+13035223236", "display_phone": "(303) 522-3236", "distance": 5074.181550196066}, {"id": "FUJMu77SCl1YchtmZFANbA", "alias": "mile-high-bike-tours-denver", "name": "Mile High Bike Tours", "image_url": "https://s3-media3.fl.yelpcdn.com/bphoto/Uxw0kyCEa9fykouzDf4CUA/o.jpg", "is_closed": false, "url": "https://www.yelp.com/biz/mile-high-bike-tours-denver?adjust_creative=OD45_sigUUSBobJ_eVs01w&utm_campaign=yelp_api_v3&utm_medium=api_v3_business_search&utm_source=OD45_sigUUSBobJ_eVs01w", "review_count": 57, "categories": [{"alias": "biketours", "title": "Bike tours"}], "rating": 5.0, "coordinates": {"latitude": 39.75329, "longitude": -104.98546}, "transactions": [], "location": {"address1": "2301 Champa St", "address2": "", "address3": "", "city": "Denver", "zip_code": "80205", "country": "US", "state": "CO", "display_address": ["2301 Champa St", "Denver, CO 80205"]}, "phone": "+13038011766", "display_phone": "(303) 801-1766", "distance": 2365.7109000659016}, {"id": "5YA0PBWvhIYUjoKmkr9wFQ", "alias": "backbone-adventures-estes-park-2", "name": "Backbone Adventures", "image_url": "https://s3-media2.fl.yelpcdn.com/bphoto/td782pmxBUTNdqlEj2-iBg/o.jpg", "is_closed": false, "url": "https://www.yelp.com/biz/backbone-adventures-estes-park-2?adjust_creative=OD45_sigUUSBobJ_eVs01w&utm_campaign=yelp_api_v3&utm_medium=api_v3_business_search&utm_source=OD45_sigUUSBobJ_eVs01w", "review_count": 155, "categories": [{"alias": "atvrentals", "title": "ATV Rentals/Tours"}, {"alias": "motorcycle_rental", "title": "Motorcycle Rental"}, {"alias": "tours", "title": "Tours"}], "rating": 5.0, "coordinates": {"latitude": 40.38041, "longitude": -105.49122}, "transactions": [], "location": {"address1": "1851 N Lake Ave", "address2": "", "address3": "", "city": "Estes Park", "zip_code": "80517", "country": "US", "state": "CO", "display_address": ["1851 N Lake Ave", "Estes Park, CO 80517"]}, "phone": "+19702355045", "display_phone": "(970) 235-5045", "distance": 84296.45478200901}, {"id": "wnj7uYSu6Z4-1E59JtMkjg", "alias": "explorer-tours-denver-3", "name": "Explorer Tours", "image_url": "https://s3-media2.fl.yelpcdn.com/bphoto/fJgPhfMprV3v1CGY_EtH9A/o.jpg", "is_closed": false, "url": "https://www.yelp.com/biz/explorer-tours-denver-3?adjust_creative=OD45_sigUUSBobJ_eVs01w&utm_campaign=yelp_api_v3&utm_medium=api_v3_business_search&utm_source=OD45_sigUUSBobJ_eVs01w", "review_count": 4, "categories": [{"alias": "bustours", "title": "Bus Tours"}, {"alias": "walkingtours", "title": "Walking Tours"}], "rating": 5.0, "coordinates": {"latitude": 39.742020462246494, "longitude": -104.98721796997489}, "transactions": [], "location": {"address1": "1600 Broadway", "address2": "Ste 1600", "address3": "", "city": "Denver", "zip_code": "80202", "country": "US", "state": "CO", "display_address": ["1600 Broadway", "Ste 1600", "Denver, CO 80202"]}, "phone": "+17205566164", "display_phone": "(720) 556-6164", "distance": 1621.080400417649}, {"id": "5lcroubGTOIBWRH9ARGhcw", "alias": "denver-like-a-local-tours-denver", "name": "Denver Like A Local Tours", "image_url": "https://s3-media1.fl.yelpcdn.com/bphoto/WpY1SKL1g5552tSIJVdTbQ/o.jpg", "is_closed": false, "url": "https://www.yelp.com/biz/denver-like-a-local-tours-denver?adjust_creative=OD45_sigUUSBobJ_eVs01w&utm_campaign=yelp_api_v3&utm_medium=api_v3_business_search&utm_source=OD45_sigUUSBobJ_eVs01w", "review_count": 14, "categories": [{"alias": "foodtours", "title": "Food Tours"}, {"alias": "walkingtours", "title": "Walking Tours"}, {"alias": "historicaltours", "title": "Historical Tours"}], "rating": 4.5, "coordinates": {"latitude": 39.75305, "longitude": -104.99995}, "transactions": [], "location": {"address1": "1701 Wynkoop St", "address2": null, "address3": "", "city": "Denver", "zip_code": "80202", "country": "US", "state": "CO", "display_address": ["1701 Wynkoop St", "Denver, CO 80202"]}, "phone": "+17207781170", "display_phone": "(720) 778-1170", "distance": 3227.1247758446375}, {"id": "4FT1_iGzkzibzkZk1qd4iA", "alias": "denver-bike-n-brew-denver", "name": "Denver Bike n Brew", "image_url": "https://s3-media4.fl.yelpcdn.com/bphoto/8obAKQ6IKfUD32NfMWFa2g/o.jpg", "is_closed": false, "url": "https://www.yelp.com/biz/denver-bike-n-brew-denver?adjust_creative=OD45_sigUUSBobJ_eVs01w&utm_campaign=yelp_api_v3&utm_medium=api_v3_business_search&utm_source=OD45_sigUUSBobJ_eVs01w", "review_count": 7, "categories": [{"alias": "beertours", "title": "Beer Tours"}], "rating": 4.5, "coordinates": {"latitude": 39.7125712, "longitude": -104.9877049}, "transactions": [], "location": {"address1": "225 S Broadway", "address2": "", "address3": "", "city": "Denver", "zip_code": "80231", "country": "US", "state": "CO", "display_address": ["225 S Broadway", "Denver, CO 80231"]}, "phone": "+13036309657", "display_phone": "(303) 630-9657", "distance": 2959.755325769949}, {"id": "DFbWP3h_o79OssPesHQoNQ", "alias": "colorado-segway-tours-denver-2", "name": "Colorado Segway Tours", "image_url": "https://s3-media2.fl.yelpcdn.com/bphoto/q5W5E99c-hjYCC_SGBokhw/o.jpg", "is_closed": false, "url": "https://www.yelp.com/biz/colorado-segway-tours-denver-2?adjust_creative=OD45_sigUUSBobJ_eVs01w&utm_campaign=yelp_api_v3&utm_medium=api_v3_business_search&utm_source=OD45_sigUUSBobJ_eVs01w", "review_count": 20, "categories": [{"alias": "tours", "title": "Tours"}], "rating": 4.5, "coordinates": {"latitude": 39.7520092, "longitude": -105.0137649}, "transactions": [], "location": {"address1": "700 Water St", "address2": "", "address3": "", "city": "Denver", "zip_code": "80211", "country": "US", "state": "CO", "display_address": ["700 Water St", "Denver, CO 80211"]}, "phone": "+13034496780", "display_phone": "(303) 449-6780", "distance": 4147.886619853937}, {"id": "b7vKVpDQ1Cj0aWs8bWw3MQ", "alias": "good-time-tours-parker-colorado", "name": "Good Time Tours", "image_url": "https://s3-media1.fl.yelpcdn.com/bphoto/VVRCVLpHiEpOQ8kJxmp3NA/o.jpg", "is_closed": false, "url": "https://www.yelp.com/biz/good-time-tours-parker-colorado?adjust_creative=OD45_sigUUSBobJ_eVs01w&utm_campaign=yelp_api_v3&utm_medium=api_v3_business_search&utm_source=OD45_sigUUSBobJ_eVs01w", "review_count": 11, "categories": [{"alias": "partybusrentals", "title": "Party Bus Rentals"}, {"alias": "bustours", "title": "Bus Tours"}, {"alias": "airport_shuttles", "title": "Airport Shuttles"}], "rating": 4.5, "coordinates": {"latitude": 39.48032, "longitude": -104.76862}, "transactions": [], "location": {"address1": "12995 S Bonney St", "address2": null, "address3": "", "city": "Parker Colorado", "zip_code": "80134", "country": "US", "state": "CO", "display_address": ["12995 S Bonney St", "Parker Colorado, CO 80134"]}, "phone": "+13036537147", "display_phone": "(303) 653-7147", "distance": 33218.565328842626}, {"id": "_yIkcNHPJ8Y-uh951OiMeQ", "alias": "colorado-jeep-tours-canon-city", "name": "Colorado Jeep Tours", "image_url": "https://s3-media2.fl.yelpcdn.com/bphoto/lnsbofOjNxsebN6NBE8GmQ/o.jpg", "is_closed": false, "url": "https://www.yelp.com/biz/colorado-jeep-tours-canon-city?adjust_creative=OD45_sigUUSBobJ_eVs01w&utm_campaign=yelp_api_v3&utm_medium=api_v3_business_search&utm_source=OD45_sigUUSBobJ_eVs01w", "review_count": 19, "categories": [{"alias": "tours", "title": "Tours"}], "rating": 4.5, "coordinates": {"latitude": 38.4462199, "longitude": -105.213089}, "transactions": [], "location": {"address1": "50905 W US Hwy 50", "address2": null, "address3": "", "city": "Canon City", "zip_code": "81212", "country": "US", "state": "CO", "display_address": ["50905 W US Hwy 50", "Canon City, CO 81212"]}, "phone": "+17192756339", "display_phone": "(719) 275-6339", "distance": 144887.5843751248}, {"id": "1cjBnJOPGf_HycmgKrz0lw", "alias": "mad-adventures-clear-creek-dumont", "name": "Mad Adventures - Clear Creek", "image_url": "https://s3-media1.fl.yelpcdn.com/bphoto/GrHvO4t1a6e-MthI1fYUig/o.jpg", "is_closed": false, "url": "https://www.yelp.com/biz/mad-adventures-clear-creek-dumont?adjust_creative=OD45_sigUUSBobJ_eVs01w&utm_campaign=yelp_api_v3&utm_medium=api_v3_business_search&utm_source=OD45_sigUUSBobJ_eVs01w", "review_count": 29, "categories": [{"alias": "rafting", "title": "Rafting/Kayaking"}, {"alias": "tours", "title": "Tours"}, {"alias": "atvrentals", "title": "ATV Rentals/Tours"}], "rating": 4.5, "coordinates": {"latitude": 39.7633802877035, "longitude": -105.600135333008}, "transactions": [], "location": {"address1": "20 W Dumont Rd", "address2": "", "address3": "", "city": "Dumont", "zip_code": "80436", "country": "US", "state": "CO", "display_address": ["20 W Dumont Rd", "Dumont, CO 80436"]}, "phone": "+19707265290", "display_phone": "(970) 726-5290", "distance": 53939.38393385655}, {"id": "B32fGKnz2mfS3-UEmxC73A", "alias": "centennial-tours-denver-3", "name": "Centennial Tours", "image_url": "https://s3-media1.fl.yelpcdn.com/bphoto/4QFxkjQxTJe7kat4firrnQ/o.jpg", "is_closed": false, "url": "https://www.yelp.com/biz/centennial-tours-denver-3?adjust_creative=OD45_sigUUSBobJ_eVs01w&utm_campaign=yelp_api_v3&utm_medium=api_v3_business_search&utm_source=OD45_sigUUSBobJ_eVs01w", "review_count": 63, "categories": [{"alias": "bustours", "title": "Bus Tours"}, {"alias": "partybusrentals", "title": "Party Bus Rentals"}, {"alias": "teambuilding", "title": "Team Building Activities"}], "rating": 4.5, "coordinates": {"latitude": 39.7380374844826, "longitude": -105.026519447565}, "transactions": [], "location": {"address1": "85 S Union Blvd", "address2": null, "address3": "", "city": "Denver", "zip_code": "80204", "country": "US", "state": "CO", "display_address": ["85 S Union Blvd", "Denver, CO 80204"]}, "phone": "+17205732807", "display_phone": "(720) 573-2807", "distance": 4819.971494454104}, {"id": "lFqVgy010Ukt2k67G0rVtA", "alias": "nightly-spirits-denver-2", "name": "Nightly Spirits", "image_url": "https://s3-media1.fl.yelpcdn.com/bphoto/cHH4yhI-zGfXK7dLaMMEuw/o.jpg", "is_closed": false, "url": "https://www.yelp.com/biz/nightly-spirits-denver-2?adjust_creative=OD45_sigUUSBobJ_eVs01w&utm_campaign=yelp_api_v3&utm_medium=api_v3_business_search&utm_source=OD45_sigUUSBobJ_eVs01w", "review_count": 157, "categories": [{"alias": "foodtours", "title": "Food Tours"}, {"alias": "hauntedhouses", "title": "Haunted Houses"}], "rating": 4.5, "coordinates": {"latitude": 39.7479371, "longitude": -105.0002814}, "transactions": [], "location": {"address1": "1400 Market St", "address2": "", "address3": "", "city": "Denver", "zip_code": "80202", "country": "US", "state": "CO", "display_address": ["1400 Market St", "Denver, CO 80202"]}, "phone": "+18446788687", "display_phone": "(844) 678-8687", "distance": 2915.536935628539}, {"id": "tVqMiEHhyVmWfIL_jQMAcA", "alias": "celestial-seasonings-tour-and-tea-shop-boulder", "name": "Celestial Seasonings Tour and Tea Shop", "image_url": "https://s3-media3.fl.yelpcdn.com/bphoto/wbK9WBD5DEivRDE0qEEWxA/o.jpg", "is_closed": false, "url": "https://www.yelp.com/biz/celestial-seasonings-tour-and-tea-shop-boulder?adjust_creative=OD45_sigUUSBobJ_eVs01w&utm_campaign=yelp_api_v3&utm_medium=api_v3_business_search&utm_source=OD45_sigUUSBobJ_eVs01w", "review_count": 468, "categories": [{"alias": "coffee", "title": "Coffee & Tea"}, {"alias": "tours", "title": "Tours"}], "rating": 4.5, "coordinates": {"latitude": 40.05926, "longitude": -105.21981}, "transactions": [], "price": "$", "location": {"address1": "4600 Sleepytime Dr", "address2": "", "address3": "", "city": "Boulder", "zip_code": "80301", "country": "US", "state": "CO", "display_address": ["4600 Sleepytime Dr", "Boulder, CO 80301"]}, "phone": "+13035811202", "display_phone": "(303) 581-1202", "distance": 41815.66029991184}, {"id": "xwEnM4zvEdasGO8hvfBvzQ", "alias": "grand-adventures-winter-park-2", "name": "Grand Adventures", "image_url": "https://s3-media3.fl.yelpcdn.com/bphoto/lTh7uvUchpq6xSb9kmxOjw/o.jpg", "is_closed": false, "url": "https://www.yelp.com/biz/grand-adventures-winter-park-2?adjust_creative=OD45_sigUUSBobJ_eVs01w&utm_campaign=yelp_api_v3&utm_medium=api_v3_business_search&utm_source=OD45_sigUUSBobJ_eVs01w", "review_count": 321, "categories": [{"alias": "tours", "title": "Tours"}, {"alias": "atvrentals", "title": "ATV Rentals/Tours"}], "rating": 4.5, "coordinates": {"latitude": 39.92676, "longitude": -105.7876}, "transactions": [], "location": {"address1": "78311 US Hwy 40", "address2": "Ste 100", "address3": "", "city": "Winter Park", "zip_code": "80482", "country": "US", "state": "CO", "display_address": ["78311 US Hwy 40", "Ste 100", "Winter Park, CO 80482"]}, "phone": "+19707269247", "display_phone": "(970) 726-9247", "distance": 72961.4137961044}, {"id": "8uo_JN-iwTSp_KQjcDZdhQ", "alias": "pedego-electric-bikes-southlands-aurora-2", "name": "Pedego Electric Bikes Southlands", "image_url": "https://s3-media3.fl.yelpcdn.com/bphoto/dmGsMzW5TUx0rRtq2mwvbA/o.jpg", "is_closed": false, "url": "https://www.yelp.com/biz/pedego-electric-bikes-southlands-aurora-2?adjust_creative=OD45_sigUUSBobJ_eVs01w&utm_campaign=yelp_api_v3&utm_medium=api_v3_business_search&utm_source=OD45_sigUUSBobJ_eVs01w", "review_count": 3, "categories": [{"alias": "bikerentals", "title": "Bike Rentals"}, {"alias": "bikes", "title": "Bikes"}, {"alias": "tours", "title": "Tours"}], "rating": 5.0, "coordinates": {"latitude": 39.6041143, "longitude": -104.7087151}, "transactions": [], "price": "$$$$", "location": {"address1": "6220 S Main St", "address2": "", "address3": "", "city": "Aurora", "zip_code": "80016", "country": "US", "state": "CO", "display_address": ["6220 S Main St", "Aurora, CO 80016"]}, "phone": "+13036275788", "display_phone": "(303) 627-5788", "distance": 26760.23626136606}, {"id": "8QHqqHFoNeZaNMAdrzIImQ", "alias": "colorado-canyon-connection-estes-park", "name": "Colorado Canyon Connection", "image_url": "https://s3-media2.fl.yelpcdn.com/bphoto/q8mIFK5YD6OjvpwQmY8-Tw/o.jpg", "is_closed": false, "url": "https://www.yelp.com/biz/colorado-canyon-connection-estes-park?adjust_creative=OD45_sigUUSBobJ_eVs01w&utm_campaign=yelp_api_v3&utm_medium=api_v3_business_search&utm_source=OD45_sigUUSBobJ_eVs01w", "review_count": 3, "categories": [{"alias": "airport_shuttles", "title": "Airport Shuttles"}, {"alias": "tours", "title": "Tours"}], "rating": 5.0, "coordinates": {"latitude": 40.3677756973603, "longitude": -105.492913604445}, "transactions": [], "location": {"address1": "690 Fishcreek Rd", "address2": null, "address3": "", "city": "Estes Park", "zip_code": "80517", "country": "US", "state": "CO", "display_address": ["690 Fishcreek Rd", "Estes Park, CO 80517"]}, "phone": "+19706148669", "display_phone": "(970) 614-8669", "distance": 83184.81770331805}, {"id": "g9OESAcOv0euOWsngt__vg", "alias": "rocky-mountain-hot-air-llc-denver", "name": "Rocky Mountain Hot Air, LLC", "image_url": "https://s3-media4.fl.yelpcdn.com/bphoto/z_YVwTDg7ywVcB_ZJDRunA/o.jpg", "is_closed": false, "url": "https://www.yelp.com/biz/rocky-mountain-hot-air-llc-denver?adjust_creative=OD45_sigUUSBobJ_eVs01w&utm_campaign=yelp_api_v3&utm_medium=api_v3_business_search&utm_source=OD45_sigUUSBobJ_eVs01w", "review_count": 10, "categories": [{"alias": "tours", "title": "Tours"}], "rating": 4.5, "coordinates": {"latitude": 39.7089, "longitude": -105.05194}, "transactions": [], "location": {"address1": "5075 W Alaska Pl", "address2": "", "address3": "", "city": "Denver", "zip_code": "80219", "country": "US", "state": "CO", "display_address": ["5075 W Alaska Pl", "Denver, CO 80219"]}, "phone": "+13039360292", "display_phone": "(303) 936-0292", "distance": 7595.528223995276}, {"id": "1mlcFaVw2Uanf7-sJazX5g", "alias": "kens-anglers-littleton", "name": "Ken's Anglers", "image_url": "https://s3-media3.fl.yelpcdn.com/bphoto/2LRIriMnYPFbsfOa-Ui0Pw/o.jpg", "is_closed": false, "url": "https://www.yelp.com/biz/kens-anglers-littleton?adjust_creative=OD45_sigUUSBobJ_eVs01w&utm_campaign=yelp_api_v3&utm_medium=api_v3_business_search&utm_source=OD45_sigUUSBobJ_eVs01w", "review_count": 3, "categories": [{"alias": "tours", "title": "Tours"}, {"alias": "fishing", "title": "Fishing"}], "rating": 5.0, "coordinates": {"latitude": 39.5835, "longitude": -105.10765}, "transactions": [], "location": {"address1": "9826 W Hinsdale Pl", "address2": "", "address3": "", "city": "Littleton", "zip_code": "80128", "country": "US", "state": "CO", "display_address": ["9826 W Hinsdale Pl", "Littleton, CO 80128"]}, "phone": "+13035015247", "display_phone": "(303) 501-5247", "distance": 20598.4942956535}, {"id": "sUAQl_yxSRtMOmqGEL_3qQ", "alias": "natural-habitat-adventures-louisville-2", "name": "Natural Habitat Adventures", "image_url": "https://s3-media1.fl.yelpcdn.com/bphoto/a5DIaUO5_A7xgbl7v1tBZQ/o.jpg", "is_closed": false, "url": "https://www.yelp.com/biz/natural-habitat-adventures-louisville-2?adjust_creative=OD45_sigUUSBobJ_eVs01w&utm_campaign=yelp_api_v3&utm_medium=api_v3_business_search&utm_source=OD45_sigUUSBobJ_eVs01w", "review_count": 8, "categories": [{"alias": "travelservices", "title": "Travel Services"}, {"alias": "tours", "title": "Tours"}], "rating": 4.5, "coordinates": {"latitude": 39.987650798116, "longitude": -105.156755134247}, "transactions": [], "location": {"address1": "833 W South Boulder Rd", "address2": "", "address3": "", "city": "Louisville", "zip_code": "80027", "country": "US", "state": "CO", "display_address": ["833 W South Boulder Rd", "Louisville, CO 80027"]}, "phone": "+13034493711", "display_phone": "(303) 449-3711", "distance": 32239.519320972013}, {"id": "3CC1PtktYSEqUsfy3MCGdA", "alias": "toms-electric-bikes-denver-3", "name": "Tom's Electric Bikes", "image_url": "https://s3-media3.fl.yelpcdn.com/bphoto/5IeQzc8C9aYwcTucVL_Lwg/o.jpg", "is_closed": false, "url": "https://www.yelp.com/biz/toms-electric-bikes-denver-3?adjust_creative=OD45_sigUUSBobJ_eVs01w&utm_campaign=yelp_api_v3&utm_medium=api_v3_business_search&utm_source=OD45_sigUUSBobJ_eVs01w", "review_count": 4, "categories": [{"alias": "biketours", "title": "Bike tours"}, {"alias": "bike_repair_maintenance", "title": "Bike Repair/Maintenance"}], "rating": 5.0, "coordinates": {"latitude": 39.69514, "longitude": -104.85198}, "transactions": [], "location": {"address1": null, "address2": null, "address3": "", "city": "Denver", "zip_code": "80012", "country": "US", "state": "CO", "display_address": ["Denver, CO 80012"]}, "phone": "+14102271120", "display_phone": "(410) 227-1120", "distance": 11776.705713416197}, {"id": "twvC8MfEOXGR-dDi1Dt_rg", "alias": "carriages-of-colorado-commerce-city", "name": "Carriages Of Colorado", "image_url": "https://s3-media3.fl.yelpcdn.com/bphoto/GgoASLhNdJzizbrVvuTxWw/o.jpg", "is_closed": false, "url": "https://www.yelp.com/biz/carriages-of-colorado-commerce-city?adjust_creative=OD45_sigUUSBobJ_eVs01w&utm_campaign=yelp_api_v3&utm_medium=api_v3_business_search&utm_source=OD45_sigUUSBobJ_eVs01w", "review_count": 3, "categories": [{"alias": "tours", "title": "Tours"}, {"alias": "horsebackriding", "title": "Horseback Riding"}], "rating": 5.0, "coordinates": {"latitude": 39.91259, "longitude": -104.75534}, "transactions": [], "location": {"address1": "19851 E 118th Ave", "address2": null, "address3": "", "city": "Commerce City", "zip_code": "80022", "country": "US", "state": "CO", "display_address": ["19851 E 118th Ave", "Commerce City, CO 80022"]}, "phone": "+17203528465", "display_phone": "(720) 352-8465", "distance": 26920.200441260557}, {"id": "8FPfyd0qGD2tGVl4UTOiTA", "alias": "gear-colorado-fly-fishing-loveland", "name": "Gear Colorado Fly Fishing", "image_url": "https://s3-media2.fl.yelpcdn.com/bphoto/2tsyHn8dSujsuZe48qZVgg/o.jpg", "is_closed": false, "url": "https://www.yelp.com/biz/gear-colorado-fly-fishing-loveland?adjust_creative=OD45_sigUUSBobJ_eVs01w&utm_campaign=yelp_api_v3&utm_medium=api_v3_business_search&utm_source=OD45_sigUUSBobJ_eVs01w", "review_count": 3, "categories": [{"alias": "fishing", "title": "Fishing"}, {"alias": "tours", "title": "Tours"}], "rating": 5.0, "coordinates": {"latitude": 40.44561, "longitude": -105.07816}, "transactions": [], "location": {"address1": "", "address2": null, "address3": "", "city": "Loveland", "zip_code": "80538", "country": "US", "state": "CO", "display_address": ["Loveland, CO 80538"]}, "phone": "+13035208249", "display_phone": "(303) 520-8249", "distance": 74174.69572788918}, {"id": "bT5-M_Z2M3fTYTr5ylpOaw", "alias": "beyond-boulder-adventures-boulder", "name": "Beyond Boulder Adventures", "image_url": "https://s3-media3.fl.yelpcdn.com/bphoto/KOTBcqKGwXF1twG3plFosg/o.jpg", "is_closed": false, "url": "https://www.yelp.com/biz/beyond-boulder-adventures-boulder?adjust_creative=OD45_sigUUSBobJ_eVs01w&utm_campaign=yelp_api_v3&utm_medium=api_v3_business_search&utm_source=OD45_sigUUSBobJ_eVs01w", "review_count": 3, "categories": [{"alias": "biketours", "title": "Bike tours"}, {"alias": "hiking", "title": "Hiking"}, {"alias": "beertours", "title": "Beer Tours"}], "rating": 5.0, "coordinates": {"latitude": 40.030086517334, "longitude": -105.249328613281}, "transactions": [], "location": {"address1": null, "address2": null, "address3": "", "city": "Boulder", "zip_code": "80301", "country": "US", "state": "CO", "display_address": ["Boulder, CO 80301"]}, "phone": "+13039033215", "display_phone": "(303) 903-3215", "distance": 39520.40571706041}, {"id": "6JJFvFovYcXxciklYsY5ow", "alias": "colorado-tour-company-colorado-springs", "name": "Colorado Tour Company ", "image_url": "https://s3-media3.fl.yelpcdn.com/bphoto/LF3mw936KGRXix9PO_1nGQ/o.jpg", "is_closed": false, "url": "https://www.yelp.com/biz/colorado-tour-company-colorado-springs?adjust_creative=OD45_sigUUSBobJ_eVs01w&utm_campaign=yelp_api_v3&utm_medium=api_v3_business_search&utm_source=OD45_sigUUSBobJ_eVs01w", "review_count": 3, "categories": [{"alias": "bustours", "title": "Bus Tours"}, {"alias": "biketours", "title": "Bike tours"}], "rating": 5.0, "coordinates": {"latitude": 39.7541032, "longitude": -105.0002242}, "transactions": [], "location": {"address1": "", "address2": null, "address3": "", "city": "Colorado Springs", "zip_code": "80904", "country": "US", "state": "CO", "display_address": ["Colorado Springs, CO 80904"]}, "phone": "+17202524386", "display_phone": "(720) 252-4386", "distance": 3292.031921569482}, {"id": "zOkIn0joVBwPiTiJkB-2fQ", "alias": "denver-pedicab-tours-denver", "name": "Denver Pedicab Tours", "image_url": "https://s3-media2.fl.yelpcdn.com/bphoto/f_1z6YztzayYJTcMNhVccg/o.jpg", "is_closed": false, "url": "https://www.yelp.com/biz/denver-pedicab-tours-denver?adjust_creative=OD45_sigUUSBobJ_eVs01w&utm_campaign=yelp_api_v3&utm_medium=api_v3_business_search&utm_source=OD45_sigUUSBobJ_eVs01w", "review_count": 7, "categories": [{"alias": "tours", "title": "Tours"}, {"alias": "eventplanning", "title": "Party & Event Planning"}], "rating": 4.5, "coordinates": {"latitude": 39.7320404052734, "longitude": -104.982467651367}, "transactions": [], "location": {"address1": "", "address2": null, "address3": "", "city": "Denver", "zip_code": "80203", "country": "US", "state": "CO", "display_address": ["Denver, CO 80203"]}, "phone": "+13036389019", "display_phone": "(303) 638-9019", "distance": 1167.8232974182863}, {"id": "XLnLApNM1X4T2--3-LEjlw", "alias": "tour-estes-park-estes-park", "name": "Tour Estes Park", "image_url": "https://s3-media3.fl.yelpcdn.com/bphoto/664ifcGLBA4fpZQmYTj-Tg/o.jpg", "is_closed": false, "url": "https://www.yelp.com/biz/tour-estes-park-estes-park?adjust_creative=OD45_sigUUSBobJ_eVs01w&utm_campaign=yelp_api_v3&utm_medium=api_v3_business_search&utm_source=OD45_sigUUSBobJ_eVs01w", "review_count": 7, "categories": [{"alias": "historicaltours", "title": "Historical Tours"}], "rating": 4.5, "coordinates": {"latitude": 40.3827438354492, "longitude": -105.496589660645}, "transactions": [], "location": {"address1": "1550 Raven Cir", "address2": "Unit D", "address3": "", "city": "Estes Park", "zip_code": "80517", "country": "US", "state": "CO", "display_address": ["1550 Raven Cir", "Unit D", "Estes Park, CO 80517"]}, "phone": "+13032608134", "display_phone": "(303) 260-8134", "distance": 84720.55395862384}, {"id": "QHPsTwHaz_uqMV2Re5GiLw", "alias": "ncar-mesa-lab-visitor-center-boulder-2", "name": "NCAR Mesa Lab Visitor Center", "image_url": "https://s3-media3.fl.yelpcdn.com/bphoto/ZQomnyiEfDegFhvMK_3-8g/o.jpg", "is_closed": false, "url": "https://www.yelp.com/biz/ncar-mesa-lab-visitor-center-boulder-2?adjust_creative=OD45_sigUUSBobJ_eVs01w&utm_campaign=yelp_api_v3&utm_medium=api_v3_business_search&utm_source=OD45_sigUUSBobJ_eVs01w", "review_count": 35, "categories": [{"alias": "tours", "title": "Tours"}, {"alias": "hiking", "title": "Hiking"}, {"alias": "museums", "title": "Museums"}], "rating": 4.5, "coordinates": {"latitude": 39.9794004983718, "longitude": -105.274628138669}, "transactions": [], "location": {"address1": "1850 Table Mesa Dr", "address2": "", "address3": "", "city": "Boulder", "zip_code": "80305", "country": "US", "state": "CO", "display_address": ["1850 Table Mesa Dr", "Boulder, CO 80305"]}, "phone": "+13034971000", "display_phone": "(303) 497-1000", "distance": 37555.34519981902}, {"id": "af3rz4-NKb6k0xHE7nNAMQ", "alias": "weavers-dive-and-travel-center-boulder-3", "name": "Weaver's Dive & Travel Center", "image_url": "https://s3-media4.fl.yelpcdn.com/bphoto/yPNpepog4vBI4XKg8VcICw/o.jpg", "is_closed": false, "url": "https://www.yelp.com/biz/weavers-dive-and-travel-center-boulder-3?adjust_creative=OD45_sigUUSBobJ_eVs01w&utm_campaign=yelp_api_v3&utm_medium=api_v3_business_search&utm_source=OD45_sigUUSBobJ_eVs01w", "review_count": 12, "categories": [{"alias": "tours", "title": "Tours"}, {"alias": "scuba", "title": "Scuba Diving"}], "rating": 4.5, "coordinates": {"latitude": 39.98291341065095, "longitude": -105.24981228103337}, "transactions": [], "location": {"address1": "637-V S Broadway", "address2": "Ste V", "address3": "", "city": "Boulder", "zip_code": "80305", "country": "US", "state": "CO", "display_address": ["637-V S Broadway", "Ste V", "Boulder, CO 80305"]}, "phone": "+13034998500", "display_phone": "(303) 499-8500", "distance": 36416.085293100485}, {"id": "Jq-sB1KdQp8YSmdQX92_5w", "alias": "ilimo-lakewood-4", "name": "ilimo", "image_url": "https://s3-media2.fl.yelpcdn.com/bphoto/W8YBzchgyZ5V3BApfDeOqg/o.jpg", "is_closed": false, "url": "https://www.yelp.com/biz/ilimo-lakewood-4?adjust_creative=OD45_sigUUSBobJ_eVs01w&utm_campaign=yelp_api_v3&utm_medium=api_v3_business_search&utm_source=OD45_sigUUSBobJ_eVs01w", "review_count": 16, "categories": [{"alias": "limos", "title": "Limos"}, {"alias": "bustours", "title": "Bus Tours"}], "rating": 4.5, "coordinates": {"latitude": 39.68755, "longitude": -105.05582}, "transactions": [], "location": {"address1": "5480 W Iowa Ave", "address2": null, "address3": "", "city": "Lakewood", "zip_code": "80232", "country": "US", "state": "CO", "display_address": ["5480 W Iowa Ave", "Lakewood, CO 80232"]}, "phone": "+17205515959", "display_phone": "(720) 551-5959", "distance": 9056.186301251428}, {"id": "KCuSjsrIH0OV8VK4AR6zwQ", "alias": "rocky-mountain-whitewater-rafting-idaho-springs", "name": "Rocky Mountain Whitewater Rafting", "image_url": "https://s3-media3.fl.yelpcdn.com/bphoto/wxaXW9PFHpIZrBzZc7ReKg/o.jpg", "is_closed": false, "url": "https://www.yelp.com/biz/rocky-mountain-whitewater-rafting-idaho-springs?adjust_creative=OD45_sigUUSBobJ_eVs01w&utm_campaign=yelp_api_v3&utm_medium=api_v3_business_search&utm_source=OD45_sigUUSBobJ_eVs01w", "review_count": 62, "categories": [{"alias": "rafting", "title": "Rafting/Kayaking"}, {"alias": "tours", "title": "Tours"}], "rating": 4.5, "coordinates": {"latitude": 39.74141, "longitude": -105.51901}, "transactions": [], "location": {"address1": "1313 Idaho St", "address2": "", "address3": "", "city": "Idaho Springs", "zip_code": "80452", "country": "US", "state": "CO", "display_address": ["1313 Idaho St", "Idaho Springs, CO 80452"]}, "phone": "+13039004802", "display_phone": "(303) 900-4802", "distance": 46929.003787695365}, {"id": "djifObyXGJZANiHo_V8s-Q", "alias": "phoenix-gold-mine-idaho-springs", "name": "Phoenix Gold Mine", "image_url": "https://s3-media3.fl.yelpcdn.com/bphoto/H1tbpZLRUKIBaH8cHTM1VQ/o.jpg", "is_closed": false, "url": "https://www.yelp.com/biz/phoenix-gold-mine-idaho-springs?adjust_creative=OD45_sigUUSBobJ_eVs01w&utm_campaign=yelp_api_v3&utm_medium=api_v3_business_search&utm_source=OD45_sigUUSBobJ_eVs01w", "review_count": 101, "categories": [{"alias": "museums", "title": "Museums"}, {"alias": "historicaltours", "title": "Historical Tours"}], "rating": 4.5, "coordinates": {"latitude": 39.748613, "longitude": -105.5655139}, "transactions": [], "location": {"address1": "830 Trl Creek Rd", "address2": "", "address3": "", "city": "Idaho Springs", "zip_code": "80452", "country": "US", "state": "CO", "display_address": ["830 Trl Creek Rd", "Idaho Springs, CO 80452"]}, "phone": "+13035670422", "display_phone": "(303) 567-0422", "distance": 50916.80089541354}, {"id": "g3qF8KNpC1A98W3dSEePRw", "alias": "international-guide-academy-denver", "name": "International Guide Academy", "image_url": "https://s3-media3.fl.yelpcdn.com/bphoto/7_0aaT5EyJVc5tXaQudISQ/o.jpg", "is_closed": false, "url": "https://www.yelp.com/biz/international-guide-academy-denver?adjust_creative=OD45_sigUUSBobJ_eVs01w&utm_campaign=yelp_api_v3&utm_medium=api_v3_business_search&utm_source=OD45_sigUUSBobJ_eVs01w", "review_count": 6, "categories": [{"alias": "specialtyschools", "title": "Specialty Schools"}, {"alias": "tours", "title": "Tours"}], "rating": 4.5, "coordinates": {"latitude": 39.650253, "longitude": -104.887832}, "transactions": [], "location": {"address1": "8700 E Jefferson Ave 370190", "address2": "", "address3": "", "city": "Denver", "zip_code": "80237", "country": "US", "state": "CO", "display_address": ["8700 E Jefferson Ave 370190", "Denver, CO 80237"]}, "phone": "+13037800131", "display_phone": "(303) 780-0131", "distance": 11809.594477458595}, {"id": "Ip6HPaSaPIXraALM6ZrCxA", "alias": "dws-coach-denver", "name": "DWS Coach", "image_url": "https://s3-media3.fl.yelpcdn.com/bphoto/iG0pyFqIwZvtR8BDadKE6g/o.jpg", "is_closed": false, "url": "https://www.yelp.com/biz/dws-coach-denver?adjust_creative=OD45_sigUUSBobJ_eVs01w&utm_campaign=yelp_api_v3&utm_medium=api_v3_business_search&utm_source=OD45_sigUUSBobJ_eVs01w", "review_count": 6, "categories": [{"alias": "tours", "title": "Tours"}, {"alias": "limos", "title": "Limos"}, {"alias": "nightlife", "title": "Nightlife"}], "rating": 4.5, "coordinates": {"latitude": 39.6914367675781, "longitude": -105.154136657715}, "transactions": [], "location": {"address1": null, "address2": null, "address3": "", "city": "Denver", "zip_code": "80228", "country": "US", "state": "CO", "display_address": ["Denver, CO 80228"]}, "phone": "+13039297471", "display_phone": "(303) 929-7471", "distance": 17258.771448452477}, {"id": "VTQxW0dXUNWVp-21FusBRw", "alias": "eagle-rider-denver-denver-4", "name": "Eagle Rider - Denver", "image_url": "https://s3-media3.fl.yelpcdn.com/bphoto/IehlnvKnU9BZHUAPlhcTUg/o.jpg", "is_closed": false, "url": "https://www.yelp.com/biz/eagle-rider-denver-denver-4?adjust_creative=OD45_sigUUSBobJ_eVs01w&utm_campaign=yelp_api_v3&utm_medium=api_v3_business_search&utm_source=OD45_sigUUSBobJ_eVs01w", "review_count": 2, "categories": [{"alias": "motorcycle_rental", "title": "Motorcycle Rental"}, {"alias": "scootertours", "title": "Scooter Tours"}], "rating": 5.0, "coordinates": {"latitude": 39.78269112971121, "longitude": -105.0014111}, "transactions": [], "location": {"address1": "4710 Lipan St", "address2": null, "address3": "", "city": "Denver", "zip_code": "80211", "country": "US", "state": "CO", "display_address": ["4710 Lipan St", "Denver, CO 80211"]}, "phone": "+13035315890", "display_phone": "(303) 531-5890", "distance": 5882.531733887008}, {"id": "YHImwuNBFUeHo151jxO6Ug", "alias": "viajes-colorado-lakewood", "name": "Viajes Colorado", "image_url": "https://s3-media4.fl.yelpcdn.com/bphoto/nPNB5dtOiYqp8ZI-4rhtww/o.jpg", "is_closed": false, "url": "https://www.yelp.com/biz/viajes-colorado-lakewood?adjust_creative=OD45_sigUUSBobJ_eVs01w&utm_campaign=yelp_api_v3&utm_medium=api_v3_business_search&utm_source=OD45_sigUUSBobJ_eVs01w", "review_count": 2, "categories": [{"alias": "tours", "title": "Tours"}, {"alias": "hiking", "title": "Hiking"}, {"alias": "rock_climbing", "title": "Rock Climbing"}], "rating": 5.0, "coordinates": {"latitude": 39.706090041554006, "longitude": -105.0593878}, "transactions": [], "location": {"address1": "599 S Eaton St", "address2": null, "address3": "", "city": "Lakewood", "zip_code": "80226", "country": "US", "state": "CO", "display_address": ["599 S Eaton St", "Lakewood, CO 80226"]}, "phone": "+17202966434", "display_phone": "(720) 296-6434", "distance": 8296.945629683043}, {"id": "bJ1v1eu-PwA2vGQp6rrh9w", "alias": "city-on-the-side-sidecar-motorcycle-tours-englewood-2", "name": "City on the Side: Sidecar Motorcycle Tours", "image_url": "https://s3-media2.fl.yelpcdn.com/bphoto/vWAE6vtdfMTPSQ_uuUZI5Q/o.jpg", "is_closed": false, "url": "https://www.yelp.com/biz/city-on-the-side-sidecar-motorcycle-tours-englewood-2?adjust_creative=OD45_sigUUSBobJ_eVs01w&utm_campaign=yelp_api_v3&utm_medium=api_v3_business_search&utm_source=OD45_sigUUSBobJ_eVs01w", "review_count": 2, "categories": [{"alias": "tours", "title": "Tours"}], "rating": 5.0, "coordinates": {"latitude": 39.609148, "longitude": -104.866327}, "transactions": [], "location": {"address1": "10511 E Orchard Pl", "address2": null, "address3": "", "city": "Englewood", "zip_code": "80111", "country": "US", "state": "CO", "display_address": ["10511 E Orchard Pl", "Englewood, CO 80111"]}, "phone": "+13035705965", "display_phone": "(303) 570-5965", "distance": 16630.528964978217}, {"id": "o0L99gB_MiOtbGn0dsA9jQ", "alias": "bluebird-aviation-broomfield", "name": "Bluebird Aviation", "image_url": "https://s3-media3.fl.yelpcdn.com/bphoto/F8Dyvsx1LaOiYbytqnnp4Q/o.jpg", "is_closed": false, "url": "https://www.yelp.com/biz/bluebird-aviation-broomfield?adjust_creative=OD45_sigUUSBobJ_eVs01w&utm_campaign=yelp_api_v3&utm_medium=api_v3_business_search&utm_source=OD45_sigUUSBobJ_eVs01w", "review_count": 2, "categories": [{"alias": "tours", "title": "Tours"}, {"alias": "airlines", "title": "Airlines"}], "rating": 5.0, "coordinates": {"latitude": 39.9137859, "longitude": -105.1137253}, "transactions": [], "location": {"address1": "10128 Airport Ct", "address2": "Unit A", "address3": "", "city": "Broomfield", "zip_code": "80021", "country": "US", "state": "CO", "display_address": ["10128 Airport Ct", "Unit A", "Broomfield, CO 80021"]}, "phone": "+13037476402", "display_phone": "(303) 747-6402", "distance": 23303.16716562798}, {"id": "H2mlzR2xSLZHJiwdrPBTrA", "alias": "denver-union-station-tours-denver", "name": "Denver Union Station Tours", "image_url": "https://s3-media1.fl.yelpcdn.com/bphoto/x7M5DR5u5so1V_lXYcoMzg/o.jpg", "is_closed": false, "url": "https://www.yelp.com/biz/denver-union-station-tours-denver?adjust_creative=OD45_sigUUSBobJ_eVs01w&utm_campaign=yelp_api_v3&utm_medium=api_v3_business_search&utm_source=OD45_sigUUSBobJ_eVs01w", "review_count": 2, "categories": [{"alias": "historicaltours", "title": "Historical Tours"}], "rating": 5.0, "coordinates": {"latitude": 39.753002, "longitude": -104.9997278}, "transactions": [], "location": {"address1": "1701 Wynkoop St", "address2": null, "address3": "", "city": "Denver", "zip_code": "80211", "country": "US", "state": "CO", "display_address": ["1701 Wynkoop St", "Denver, CO 80211"]}, "phone": "+13036285528", "display_phone": "(303) 628-5528", "distance": 3227.1247758446375}, {"id": "_luOn2xyR-MpRyjhohZxJQ", "alias": "dream-weaver-travel-boulder", "name": "Dream Weaver Travel", "image_url": "https://s3-media3.fl.yelpcdn.com/bphoto/4B9vMJB8cpMvnxTnDTE5aQ/o.jpg", "is_closed": false, "url": "https://www.yelp.com/biz/dream-weaver-travel-boulder?adjust_creative=OD45_sigUUSBobJ_eVs01w&utm_campaign=yelp_api_v3&utm_medium=api_v3_business_search&utm_source=OD45_sigUUSBobJ_eVs01w", "review_count": 5, "categories": [{"alias": "tours", "title": "Tours"}], "rating": 4.0, "coordinates": {"latitude": 39.9840707, "longitude": -105.2487842}, "transactions": [], "location": {"address1": "637 S Broadway St", "address2": "", "address3": "", "city": "Boulder", "zip_code": "80305", "country": "US", "state": "CO", "display_address": ["637 S Broadway St", "Boulder, CO 80305"]}, "phone": "+13034990942", "display_phone": "(303) 499-0942", "distance": 36449.00382179594}, {"id": "aT-CKL8GHF6mMv6ChxpXLQ", "alias": "denver-terrors-denver", "name": "Denver Terrors", "image_url": "https://s3-media2.fl.yelpcdn.com/bphoto/jSuYNeOaZG90UYfouGgNtw/o.jpg", "is_closed": false, "url": "https://www.yelp.com/biz/denver-terrors-denver?adjust_creative=OD45_sigUUSBobJ_eVs01w&utm_campaign=yelp_api_v3&utm_medium=api_v3_business_search&utm_source=OD45_sigUUSBobJ_eVs01w", "review_count": 5, "categories": [{"alias": "walkingtours", "title": "Walking Tours"}, {"alias": "historicaltours", "title": "Historical Tours"}], "rating": 4.0, "coordinates": {"latitude": 39.739443, "longitude": -104.984703}, "transactions": [], "location": {"address1": "200 E Colfax", "address2": null, "address3": "", "city": "Denver", "zip_code": "80203", "country": "US", "state": "CO", "display_address": ["200 E Colfax", "Denver, CO 80203"]}, "phone": "+13032104390", "display_phone": "(303) 210-4390", "distance": 1321.0792727343774}, {"id": "4WMhkLijG8ml9bAY7SLrRw", "alias": "mile-high-wine-tours-denver", "name": "Mile High Wine Tours", "image_url": "https://s3-media3.fl.yelpcdn.com/bphoto/NACjIMc1po7OIKX9lqE6Lg/o.jpg", "is_closed": false, "url": "https://www.yelp.com/biz/mile-high-wine-tours-denver?adjust_creative=OD45_sigUUSBobJ_eVs01w&utm_campaign=yelp_api_v3&utm_medium=api_v3_business_search&utm_source=OD45_sigUUSBobJ_eVs01w", "review_count": 10, "categories": [{"alias": "winetours", "title": "Wine Tours"}], "rating": 4.0, "coordinates": {"latitude": 39.7470917, "longitude": -104.9927878}, "transactions": [], "location": {"address1": "1660 Champa St", "address2": null, "address3": "", "city": "Denver", "zip_code": "80205", "country": "US", "state": "CO", "display_address": ["1660 Champa St", "Denver, CO 80205"]}, "phone": "+13032179933", "display_phone": "(303) 217-9933", "distance": 2317.193733223698}, {"id": "AXGGtIeyKRRfUlZ3SYgu6A", "alias": "colorado-brewery-bus-denver", "name": "Colorado Brewery Bus", "image_url": "https://s3-media2.fl.yelpcdn.com/bphoto/xvY7OydDgPymfBXxx82AEw/o.jpg", "is_closed": false, "url": "https://www.yelp.com/biz/colorado-brewery-bus-denver?adjust_creative=OD45_sigUUSBobJ_eVs01w&utm_campaign=yelp_api_v3&utm_medium=api_v3_business_search&utm_source=OD45_sigUUSBobJ_eVs01w", "review_count": 45, "categories": [{"alias": "breweries", "title": "Breweries"}, {"alias": "tours", "title": "Tours"}], "rating": 4.0, "coordinates": {"latitude": 39.7089865, "longitude": -104.9923935}, "transactions": [], "price": "$$", "location": {"address1": "420 S Cherokee St", "address2": null, "address3": "", "city": "Denver", "zip_code": "80209", "country": "US", "state": "CO", "display_address": ["420 S Cherokee St", "Denver, CO 80209"]}, "phone": "+17204433635", "display_phone": "(720) 443-3635", "distance": 3506.518249081868}, {"id": "fsKp5Iz7mrv1Eg2AkhKlqQ", "alias": "mile-high-gliding-boulder", "name": "Mile High Gliding", "image_url": "https://s3-media3.fl.yelpcdn.com/bphoto/LT0elbTPDaru9qkkw7PZMw/o.jpg", "is_closed": false, "url": "https://www.yelp.com/biz/mile-high-gliding-boulder?adjust_creative=OD45_sigUUSBobJ_eVs01w&utm_campaign=yelp_api_v3&utm_medium=api_v3_business_search&utm_source=OD45_sigUUSBobJ_eVs01w", "review_count": 15, "categories": [{"alias": "flightinstruction", "title": "Flight Instruction"}, {"alias": "aerialtours", "title": "Aerial Tours"}], "rating": 4.0, "coordinates": {"latitude": 40.04003667, "longitude": -105.22666833}, "transactions": [], "location": {"address1": "5534 Independence Rd", "address2": "", "address3": "", "city": "Boulder", "zip_code": "80301", "country": "US", "state": "CO", "display_address": ["5534 Independence Rd", "Boulder, CO 80301"]}, "phone": "+13035271122", "display_phone": "(303) 527-1122", "distance": 40310.13203913623}, {"id": "c99BNHTsMgWlQ7PxLNB9ZA", "alias": "four-mile-historic-park-denver", "name": "Four Mile Historic Park", "image_url": "https://s3-media4.fl.yelpcdn.com/bphoto/LoibhwtfYNlOoBJf-QwZVw/o.jpg", "is_closed": false, "url": "https://www.yelp.com/biz/four-mile-historic-park-denver?adjust_creative=OD45_sigUUSBobJ_eVs01w&utm_campaign=yelp_api_v3&utm_medium=api_v3_business_search&utm_source=OD45_sigUUSBobJ_eVs01w", "review_count": 33, "categories": [{"alias": "museums", "title": "Museums"}, {"alias": "venues", "title": "Venues & Event Spaces"}, {"alias": "historicaltours", "title": "Historical Tours"}], "rating": 4.0, "coordinates": {"latitude": 39.703553, "longitude": -104.929233}, "transactions": [], "location": {"address1": "715 S Forest St", "address2": "", "address3": "", "city": "Denver", "zip_code": "80246", "country": "US", "state": "CO", "display_address": ["715 S Forest St", "Denver, CO 80246"]}, "phone": "+17208650800", "display_phone": "(720) 865-0800", "distance": 4994.250837027915}, {"id": "NVhr5b7cHf5_GtgqCLBYaw", "alias": "hammond-s-candies-denver", "name": "Hammond\u2019s Candies", "image_url": "https://s3-media3.fl.yelpcdn.com/bphoto/F-n-QveZBT82CzKyRUIktQ/o.jpg", "is_closed": false, "url": "https://www.yelp.com/biz/hammond-s-candies-denver?adjust_creative=OD45_sigUUSBobJ_eVs01w&utm_campaign=yelp_api_v3&utm_medium=api_v3_business_search&utm_source=OD45_sigUUSBobJ_eVs01w", "review_count": 266, "categories": [{"alias": "candy", "title": "Candy Stores"}, {"alias": "foodtours", "title": "Food Tours"}], "rating": 4.0, "coordinates": {"latitude": 39.80032, "longitude": -104.97957}, "transactions": ["pickup", "delivery"], "price": "$", "location": {"address1": "5735 Washington St", "address2": "", "address3": "", "city": "Denver", "zip_code": "80216", "country": "US", "state": "CO", "display_address": ["5735 Washington St", "Denver, CO 80216"]}, "phone": "+13033335588", "display_phone": "(303) 333-5588", "distance": 7179.436808347156}, {"id": "Acn1-UqJlCcpPTO7s92A_w", "alias": "trek-bicycle-broomfield-broomfield", "name": "Trek Bicycle Broomfield", "image_url": "https://s3-media1.fl.yelpcdn.com/bphoto/BcU4CDbQOB6WRmztYKk1WQ/o.jpg", "is_closed": false, "url": "https://www.yelp.com/biz/trek-bicycle-broomfield-broomfield?adjust_creative=OD45_sigUUSBobJ_eVs01w&utm_campaign=yelp_api_v3&utm_medium=api_v3_business_search&utm_source=OD45_sigUUSBobJ_eVs01w", "review_count": 63, "categories": [{"alias": "bikes", "title": "Bikes"}, {"alias": "bike_repair_maintenance", "title": "Bike Repair/Maintenance"}, {"alias": "biketours", "title": "Bike tours"}], "rating": 4.0, "coordinates": {"latitude": 39.919802191726475, "longitude": -105.08764100637902}, "transactions": [], "price": "$$$", "location": {"address1": "290 Nickel St", "address2": "Ste 100", "address3": "", "city": "Broomfield", "zip_code": "80020", "country": "US", "state": "CO", "display_address": ["290 Nickel St", "Ste 100", "Broomfield, CO 80020"]}, "phone": "+13034697273", "display_phone": "(303) 469-7273", "distance": 22811.637109514497}, {"id": "Jx1vLW-WtmbAYkkBBlI6bA", "alias": "amazing-adventures-parker", "name": "Amazing Adventures", "image_url": "https://s3-media2.fl.yelpcdn.com/bphoto/c0Grxso63i8S9h-oaa647g/o.jpg", "is_closed": false, "url": "https://www.yelp.com/biz/amazing-adventures-parker?adjust_creative=OD45_sigUUSBobJ_eVs01w&utm_campaign=yelp_api_v3&utm_medium=api_v3_business_search&utm_source=OD45_sigUUSBobJ_eVs01w", "review_count": 1, "categories": [{"alias": "travelagents", "title": "Travel Agents"}, {"alias": "walkingtours", "title": "Walking Tours"}, {"alias": "biketours", "title": "Bike tours"}], "rating": 5.0, "coordinates": {"latitude": 39.52693658236659, "longitude": -104.78571}, "transactions": [], "location": {"address1": "10514 Holyoke Dr", "address2": null, "address3": "", "city": "Parker", "zip_code": "80134", "country": "US", "state": "CO", "display_address": ["10514 Holyoke Dr", "Parker, CO 80134"]}, "phone": "+17167300375", "display_phone": "(716) 730-0375", "distance": 28065.976998633058}, {"id": "K1Y-IHAu2KkXFvIxCTa0_w", "alias": "delicious-tour-denver", "name": "Delicious Tour", "image_url": "https://s3-media3.fl.yelpcdn.com/bphoto/IaJy5ZZBgRuK9FWGCb8KeQ/o.jpg", "is_closed": false, "url": "https://www.yelp.com/biz/delicious-tour-denver?adjust_creative=OD45_sigUUSBobJ_eVs01w&utm_campaign=yelp_api_v3&utm_medium=api_v3_business_search&utm_source=OD45_sigUUSBobJ_eVs01w", "review_count": 1, "categories": [{"alias": "foodtours", "title": "Food Tours"}], "rating": 5.0, "coordinates": {"latitude": 39.7562408447266, "longitude": -105.019538879395}, "transactions": [], "location": {"address1": "", "address2": "", "address3": null, "city": "Denver", "zip_code": "80211", "country": "US", "state": "CO", "display_address": ["Denver, CO 80211"]}, "phone": "", "display_phone": "", "distance": 5391.181039156343}, {"id": "Gp1z_hFmcE_uO4ni0p2uFg", "alias": "colorado-segway-tours-boulder-2", "name": "Colorado Segway Tours", "image_url": "https://s3-media2.fl.yelpcdn.com/bphoto/wtrvrSUBO7JBku8Py4B5zQ/o.jpg", "is_closed": false, "url": "https://www.yelp.com/biz/colorado-segway-tours-boulder-2?adjust_creative=OD45_sigUUSBobJ_eVs01w&utm_campaign=yelp_api_v3&utm_medium=api_v3_business_search&utm_source=OD45_sigUUSBobJ_eVs01w", "review_count": 1, "categories": [{"alias": "tours", "title": "Tours"}], "rating": 5.0, "coordinates": {"latitude": 40.023235, "longitude": -105.271207}, "transactions": [], "location": {"address1": "20TH St Mapleton Ave", "address2": "", "address3": "", "city": "Boulder", "zip_code": "80304", "country": "US", "state": "CO", "display_address": ["20TH St Mapleton Ave", "Boulder, CO 80304"]}, "phone": "+13034496780", "display_phone": "(303) 449-6780", "distance": 41024.42085702313}, {"id": "VqxDt3z3eLky0vNFnnKUuA", "alias": "colorado-xplorer-colorado-springs", "name": "Colorado Xplorer", "image_url": "https://s3-media4.fl.yelpcdn.com/bphoto/u3CyA37M7V7a01rB9WuAng/o.jpg", "is_closed": false, "url": "https://www.yelp.com/biz/colorado-xplorer-colorado-springs?adjust_creative=OD45_sigUUSBobJ_eVs01w&utm_campaign=yelp_api_v3&utm_medium=api_v3_business_search&utm_source=OD45_sigUUSBobJ_eVs01w", "review_count": 1, "categories": [{"alias": "tours", "title": "Tours"}], "rating": 5.0, "coordinates": {"latitude": 38.8870447, "longitude": -104.6995991}, "transactions": [], "location": {"address1": "", "address2": null, "address3": "", "city": "Colorado Springs", "zip_code": "80922", "country": "US", "state": "CO", "display_address": ["Colorado Springs, CO 80922"]}, "phone": "+17195055141", "display_phone": "(719) 505-5141", "distance": 97177.17994093908}, {"id": "JlgKDl2TQseYbIWxazQdaA", "alias": "mj-traveler-denver", "name": "MJ Traveler", "image_url": "https://s3-media3.fl.yelpcdn.com/bphoto/hGs032vrBSBN0DVKqPN_aQ/o.jpg", "is_closed": false, "url": "https://www.yelp.com/biz/mj-traveler-denver?adjust_creative=OD45_sigUUSBobJ_eVs01w&utm_campaign=yelp_api_v3&utm_medium=api_v3_business_search&utm_source=OD45_sigUUSBobJ_eVs01w", "review_count": 1, "categories": [{"alias": "tours", "title": "Tours"}, {"alias": "travelservices", "title": "Travel Services"}], "rating": 5.0, "coordinates": {"latitude": 39.739167, "longitude": -104.984167}, "transactions": [], "location": {"address1": "", "address2": "", "address3": "", "city": "Denver", "zip_code": "80219", "country": "US", "state": "CO", "display_address": ["Denver, CO 80219"]}, "phone": "+16616999209", "display_phone": "(661) 699-9209", "distance": 1257.4245399568856}, {"id": "fLTWwkxnxV-4TSlKRxh9xw", "alias": "adventure-africa-watkins", "name": "Adventure Africa", "image_url": "https://s3-media1.fl.yelpcdn.com/bphoto/KAV7Tii3wBeNpAcMpyAPLQ/o.jpg", "is_closed": false, "url": "https://www.yelp.com/biz/adventure-africa-watkins?adjust_creative=OD45_sigUUSBobJ_eVs01w&utm_campaign=yelp_api_v3&utm_medium=api_v3_business_search&utm_source=OD45_sigUUSBobJ_eVs01w", "review_count": 1, "categories": [{"alias": "tours", "title": "Tours"}, {"alias": "rock_climbing", "title": "Rock Climbing"}, {"alias": "hiking", "title": "Hiking"}], "rating": 5.0, "coordinates": {"latitude": 39.6977577209473, "longitude": -104.550811767578}, "transactions": [], "location": {"address1": "970 S Bonnie Ln", "address2": null, "address3": "", "city": "Watkins", "zip_code": "80137", "country": "US", "state": "CO", "display_address": ["970 S Bonnie Ln", "Watkins, CO 80137"]}, "phone": "+18442546200", "display_phone": "(844) 254-6200", "distance": 35982.552342852905}, {"id": "Z8FPXgpJ8TzjHOxhyCsCRw", "alias": "blue-river-transportation-and-events-aurora", "name": "Blue River Transportation & Events", "image_url": "https://s3-media2.fl.yelpcdn.com/bphoto/A5Ni3lR3UtxB0vuUWiHUAQ/o.jpg", "is_closed": false, "url": "https://www.yelp.com/biz/blue-river-transportation-and-events-aurora?adjust_creative=OD45_sigUUSBobJ_eVs01w&utm_campaign=yelp_api_v3&utm_medium=api_v3_business_search&utm_source=OD45_sigUUSBobJ_eVs01w", "review_count": 1, "categories": [{"alias": "limos", "title": "Limos"}, {"alias": "airport_shuttles", "title": "Airport Shuttles"}, {"alias": "bustours", "title": "Bus Tours"}], "rating": 5.0, "coordinates": {"latitude": 39.59467, "longitude": -104.7276}, "transactions": [], "location": {"address1": "", "address2": null, "address3": "", "city": "Aurora", "zip_code": "80016", "country": "US", "state": "CO", "display_address": ["Aurora, CO 80016"]}, "phone": "+17209796015", "display_phone": "(720) 979-6015", "distance": 27620.99534564072}, {"id": "BRNpshHHRFepNGMsGo71cg", "alias": "branch-and-barrel-distilling-centennial", "name": "Branch & Barrel Distilling", "image_url": "https://s3-media2.fl.yelpcdn.com/bphoto/NpHQfj4N8quN36O6jvaQ0g/o.jpg", "is_closed": false, "url": "https://www.yelp.com/biz/branch-and-barrel-distilling-centennial?adjust_creative=OD45_sigUUSBobJ_eVs01w&utm_campaign=yelp_api_v3&utm_medium=api_v3_business_search&utm_source=OD45_sigUUSBobJ_eVs01w", "review_count": 1, "categories": [{"alias": "distilleries", "title": "Distilleries"}, {"alias": "winetours", "title": "Wine Tours"}, {"alias": "breweries", "title": "Breweries"}], "rating": 5.0, "coordinates": {"latitude": 39.58227, "longitude": -104.80985}, "transactions": [], "location": {"address1": "15353 E Hinsdale Cir", "address2": "Ste C", "address3": "", "city": "Centennial", "zip_code": "80112", "country": "US", "state": "CO", "display_address": ["15353 E Hinsdale Cir", "Ste C", "Centennial, CO 80112"]}, "phone": "+13032845502", "display_phone": "(303) 284-5502", "distance": 21895.630590347813}, {"id": "p2Hbu5kCZIy-lnJ71sTpdA", "alias": "schweiger-ranch-lone-tree", "name": "Schweiger Ranch", "image_url": "https://s3-media2.fl.yelpcdn.com/bphoto/s3S0pc8WHaOWBKJtndxxRA/o.jpg", "is_closed": false, "url": "https://www.yelp.com/biz/schweiger-ranch-lone-tree?adjust_creative=OD45_sigUUSBobJ_eVs01w&utm_campaign=yelp_api_v3&utm_medium=api_v3_business_search&utm_source=OD45_sigUUSBobJ_eVs01w", "review_count": 1, "categories": [{"alias": "landmarks", "title": "Landmarks & Historical Buildings"}, {"alias": "historicaltours", "title": "Historical Tours"}, {"alias": "recreation", "title": "Recreation Centers"}], "rating": 5.0, "coordinates": {"latitude": 39.5178463, "longitude": -104.8646822}, "transactions": [], "location": {"address1": "10822 S Havana St", "address2": "", "address3": null, "city": "Lone Tree", "zip_code": "80124", "country": "US", "state": "CO", "display_address": ["10822 S Havana St", "Lone Tree, CO 80124"]}, "phone": "+13037900557", "display_phone": "(303) 790-0557", "distance": 25837.99497969944}, {"id": "ZvhW2K61YV_pyA9ySAQLkQ", "alias": "fort-collins-charter-service-fort-collins", "name": "Fort Collins Charter Service", "image_url": "https://s3-media2.fl.yelpcdn.com/bphoto/Rcop6kyRD6vg3m2iRSU_qw/o.jpg", "is_closed": false, "url": "https://www.yelp.com/biz/fort-collins-charter-service-fort-collins?adjust_creative=OD45_sigUUSBobJ_eVs01w&utm_campaign=yelp_api_v3&utm_medium=api_v3_business_search&utm_source=OD45_sigUUSBobJ_eVs01w", "review_count": 1, "categories": [{"alias": "bustours", "title": "Bus Tours"}], "rating": 5.0, "coordinates": {"latitude": 40.53166, "longitude": -105.10056}, "transactions": [], "location": {"address1": "1402 Sailcrest Ct", "address2": "", "address3": "", "city": "Fort Collins", "zip_code": "80526", "country": "US", "state": "CO", "display_address": ["1402 Sailcrest Ct", "Fort Collins, CO 80526"]}, "phone": "+19704825605", "display_phone": "(970) 482-5605", "distance": 89217.25385934711}, {"id": "6esVdBbnIZ3lbKuQvVayQA", "alias": "ride-colorado-boulder", "name": "Ride Colorado", "image_url": "", "is_closed": false, "url": "https://www.yelp.com/biz/ride-colorado-boulder?adjust_creative=OD45_sigUUSBobJ_eVs01w&utm_campaign=yelp_api_v3&utm_medium=api_v3_business_search&utm_source=OD45_sigUUSBobJ_eVs01w", "review_count": 1, "categories": [{"alias": "biketours", "title": "Bike tours"}, {"alias": "bikerentals", "title": "Bike Rentals"}, {"alias": "bike_repair_maintenance", "title": "Bike Repair/Maintenance"}], "rating": 5.0, "coordinates": {"latitude": 40.0102126, "longitude": -105.2638777}, "transactions": [], "location": {"address1": "1290 Folsom St", "address2": null, "address3": "", "city": "Boulder", "zip_code": "80302", "country": "US", "state": "CO", "display_address": ["1290 Folsom St", "Boulder, CO 80302"]}, "phone": "+13038955263", "display_phone": "(303) 895-5263", "distance": 39418.851193919996}, {"id": "OhCzca1LBzDDU2jTJeI06g", "alias": "kay-lee-charters-aurora", "name": "Kay-Lee  Charters", "image_url": "https://s3-media4.fl.yelpcdn.com/bphoto/XrfmN5RYueXnrnh6nGrBdg/o.jpg", "is_closed": false, "url": "https://www.yelp.com/biz/kay-lee-charters-aurora?adjust_creative=OD45_sigUUSBobJ_eVs01w&utm_campaign=yelp_api_v3&utm_medium=api_v3_business_search&utm_source=OD45_sigUUSBobJ_eVs01w", "review_count": 1, "categories": [{"alias": "buses", "title": "Buses"}, {"alias": "bustours", "title": "Bus Tours"}, {"alias": "travelservices", "title": "Travel Services"}], "rating": 5.0, "coordinates": {"latitude": 39.7195457, "longitude": -104.79494}, "transactions": [], "location": {"address1": "16500 E 2nd Ave", "address2": null, "address3": "", "city": "Aurora", "zip_code": "80011", "country": "US", "state": "CO", "display_address": ["16500 E 2nd Ave", "Aurora, CO 80011"]}, "phone": "+18338481255", "display_phone": "(833) 848-1255", "distance": 15090.892930297952}, {"id": "_b_0DT_GAqXkRSdj9_NXwA", "alias": "cottonwood-farms-lafayette", "name": "Cottonwood Farms", "image_url": "https://s3-media1.fl.yelpcdn.com/bphoto/HfOKQNnfbUo_QTWURQjmQQ/o.jpg", "is_closed": false, "url": "https://www.yelp.com/biz/cottonwood-farms-lafayette?adjust_creative=OD45_sigUUSBobJ_eVs01w&utm_campaign=yelp_api_v3&utm_medium=api_v3_business_search&utm_source=OD45_sigUUSBobJ_eVs01w", "review_count": 29, "categories": [{"alias": "farmersmarket", "title": "Farmers Market"}, {"alias": "tours", "title": "Tours"}, {"alias": "pumpkinpatches", "title": "Pumpkin Patches"}], "rating": 4.0, "coordinates": {"latitude": 40.0365115, "longitude": -105.1052287}, "transactions": [], "price": "$", "location": {"address1": "10600 Isabelle Rd", "address2": "", "address3": "", "city": "Lafayette", "zip_code": "80026", "country": "US", "state": "CO", "display_address": ["10600 Isabelle Rd", "Lafayette, CO 80026"]}, "phone": "+17208904766", "display_phone": "(720) 890-4766", "distance": 35394.40494425316}, {"id": "-HRvQ6ubT8iHNAyDlMwovA", "alias": "sonny-s-food-truck-broomfield", "name": "Sonny\u2019s Food Truck", "image_url": "https://s3-media3.fl.yelpcdn.com/bphoto/XQIf0YMa9xYOEIzVqymncw/o.jpg", "is_closed": false, "url": "https://www.yelp.com/biz/sonny-s-food-truck-broomfield?adjust_creative=OD45_sigUUSBobJ_eVs01w&utm_campaign=yelp_api_v3&utm_medium=api_v3_business_search&utm_source=OD45_sigUUSBobJ_eVs01w", "review_count": 1, "categories": [{"alias": "mexican", "title": "Mexican"}, {"alias": "burgers", "title": "Burgers"}, {"alias": "foodtours", "title": "Food Tours"}], "rating": 5.0, "coordinates": {"latitude": 39.9122468, "longitude": -105.0031457}, "transactions": [], "location": {"address1": null, "address2": null, "address3": null, "city": "Broomfield", "zip_code": "80020", "country": "US", "state": "CO", "display_address": ["Broomfield, CO 80020"]}, "phone": "+17199373222", "display_phone": "(719) 937-3222", "distance": 19850.48171963181}, {"id": "8P1SxjDF-iznM8srfG52ng", "alias": "charter-sports-ski-and-snowboard-rentals-avon-4", "name": "Charter Sports Ski & Snowboard Rentals", "image_url": "https://s3-media1.fl.yelpcdn.com/bphoto/rmtlC9Ru241N44VEnbCP7Q/o.jpg", "is_closed": false, "url": "https://www.yelp.com/biz/charter-sports-ski-and-snowboard-rentals-avon-4?adjust_creative=OD45_sigUUSBobJ_eVs01w&utm_campaign=yelp_api_v3&utm_medium=api_v3_business_search&utm_source=OD45_sigUUSBobJ_eVs01w", "review_count": 1, "categories": [{"alias": "skishops", "title": "Ski & Snowboard Shops"}, {"alias": "bikerentals", "title": "Bike Rentals"}, {"alias": "biketours", "title": "Bike tours"}], "rating": 5.0, "coordinates": {"latitude": 39.60742, "longitude": -106.51723}, "transactions": [], "price": "$$", "location": {"address1": "120 Offerson Rd", "address2": null, "address3": null, "city": "Avon", "zip_code": "81620", "country": "US", "state": "CO", "display_address": ["120 Offerson Rd", "Avon, CO 81620"]}, "phone": "+19709494891", "display_phone": "(970) 949-4891", "distance": 133193.60471884935}, {"id": "AgwDLhk8wPuUxymVAmF0SA", "alias": "great-divide-barrel-bar-denver-2", "name": "Great Divide Barrel Bar", "image_url": "https://s3-media2.fl.yelpcdn.com/bphoto/XBQEmWt0q5zy9X3M5auMjw/o.jpg", "is_closed": false, "url": "https://www.yelp.com/biz/great-divide-barrel-bar-denver-2?adjust_creative=OD45_sigUUSBobJ_eVs01w&utm_campaign=yelp_api_v3&utm_medium=api_v3_business_search&utm_source=OD45_sigUUSBobJ_eVs01w", "review_count": 122, "categories": [{"alias": "breweries", "title": "Breweries"}, {"alias": "beerbar", "title": "Beer Bar"}, {"alias": "beertours", "title": "Beer Tours"}], "rating": 4.0, "coordinates": {"latitude": 39.770295971246, "longitude": -104.979200350572}, "transactions": [], "price": "$$", "location": {"address1": "1812 35th St", "address2": "", "address3": "", "city": "Denver", "zip_code": "80216", "country": "US", "state": "CO", "display_address": ["1812 35th St", "Denver, CO 80216"]}, "phone": "+13032969460", "display_phone": "(303) 296-9460", "distance": 3941.4974508811924}, {"id": "M4kOwo8oA4vbYOYufCz_xQ", "alias": "denver-bike-bar-denver", "name": "Denver Bike Bar", "image_url": "https://s3-media1.fl.yelpcdn.com/bphoto/K95N-s9ObyuvOfM3Y6xGOQ/o.jpg", "is_closed": false, "url": "https://www.yelp.com/biz/denver-bike-bar-denver?adjust_creative=OD45_sigUUSBobJ_eVs01w&utm_campaign=yelp_api_v3&utm_medium=api_v3_business_search&utm_source=OD45_sigUUSBobJ_eVs01w", "review_count": 7, "categories": [{"alias": "tours", "title": "Tours"}, {"alias": "partybikerentals", "title": "Party Bike Rentals"}], "rating": 4.0, "coordinates": {"latitude": 39.752498626709, "longitude": -104.998573303223}, "transactions": [], "location": {"address1": "", "address2": "", "address3": "", "city": "Denver", "zip_code": "80202", "country": "US", "state": "CO", "display_address": ["Denver, CO 80202"]}, "phone": "+13033594383", "display_phone": "(303) 359-4383", "distance": 3292.031921569482}, {"id": "esARtooUyljqgA6NyVh8Ag", "alias": "the-royal-gorge-route-railroad-canon-city-3", "name": "The Royal Gorge Route Railroad", "image_url": "https://s3-media1.fl.yelpcdn.com/bphoto/KgI8UJ14Dp_KwDZ72hdZLw/o.jpg", "is_closed": false, "url": "https://www.yelp.com/biz/the-royal-gorge-route-railroad-canon-city-3?adjust_creative=OD45_sigUUSBobJ_eVs01w&utm_campaign=yelp_api_v3&utm_medium=api_v3_business_search&utm_source=OD45_sigUUSBobJ_eVs01w", "review_count": 418, "categories": [{"alias": "tours", "title": "Tours"}], "rating": 4.0, "coordinates": {"latitude": 38.438726, "longitude": -105.2413767}, "transactions": [], "location": {"address1": "401 Water St", "address2": "", "address3": null, "city": "Canon City", "zip_code": "81212", "country": "US", "state": "CO", "display_address": ["401 Water St", "Canon City, CO 81212"]}, "phone": "+17192764000", "display_phone": "(719) 276-4000", "distance": 146083.42646516272}, {"id": "I8wph8UZsW9cjon24WzTZA", "alias": "coors-brewery-tour-golden", "name": "Coors Brewery Tour", "image_url": "https://s3-media3.fl.yelpcdn.com/bphoto/67sadQ1q3bqvYfa4s5rx5A/o.jpg", "is_closed": false, "url": "https://www.yelp.com/biz/coors-brewery-tour-golden?adjust_creative=OD45_sigUUSBobJ_eVs01w&utm_campaign=yelp_api_v3&utm_medium=api_v3_business_search&utm_source=OD45_sigUUSBobJ_eVs01w", "review_count": 500, "categories": [{"alias": "beertours", "title": "Beer Tours"}], "rating": 4.0, "coordinates": {"latitude": 39.7558358246656, "longitude": -105.216611154566}, "transactions": [], "location": {"address1": "13th St & Ford St", "address2": "", "address3": "", "city": "Golden", "zip_code": "80401", "country": "US", "state": "CO", "display_address": ["13th St & Ford St", "Golden, CO 80401"]}, "phone": "+13032772337", "display_phone": "(303) 277-2337", "distance": 21184.166339700085}, {"id": "CSlCQHgS6bx9MT8OLPEjjg", "alias": "walking-tree-travel-denver", "name": "Walking Tree Travel", "image_url": "https://s3-media2.fl.yelpcdn.com/bphoto/aaIgLLkXMMlnUCFAquon-A/o.jpg", "is_closed": false, "url": "https://www.yelp.com/biz/walking-tree-travel-denver?adjust_creative=OD45_sigUUSBobJ_eVs01w&utm_campaign=yelp_api_v3&utm_medium=api_v3_business_search&utm_source=OD45_sigUUSBobJ_eVs01w", "review_count": 13, "categories": [{"alias": "travelservices", "title": "Travel Services"}, {"alias": "tours", "title": "Tours"}], "rating": 3.5, "coordinates": {"latitude": 39.732364654541, "longitude": -104.971321105957}, "transactions": [], "location": {"address1": "", "address2": null, "address3": "", "city": "Denver", "zip_code": "80218", "country": "US", "state": "CO", "display_address": ["Denver, CO 80218"]}, "phone": "+13032428541", "display_phone": "(303) 242-8541", "distance": 315.8072509197713}, {"id": "HjuCriK11YasBrNtt2-pgw", "alias": "denver-inside-and-out-denver", "name": "Denver Inside and Out", "image_url": "https://s3-media4.fl.yelpcdn.com/bphoto/CioOui1IjxAunHzV6rqqxw/o.jpg", "is_closed": false, "url": "https://www.yelp.com/biz/denver-inside-and-out-denver?adjust_creative=OD45_sigUUSBobJ_eVs01w&utm_campaign=yelp_api_v3&utm_medium=api_v3_business_search&utm_source=OD45_sigUUSBobJ_eVs01w", "review_count": 12, "categories": [{"alias": "tours", "title": "Tours"}], "rating": 3.5, "coordinates": {"latitude": 39.753002, "longitude": -104.9997278}, "transactions": [], "location": {"address1": "1701 Wynkoop St", "address2": "", "address3": "", "city": "Denver", "zip_code": "80202", "country": "US", "state": "CO", "display_address": ["1701 Wynkoop St", "Denver, CO 80202"]}, "phone": "+13033309871", "display_phone": "(303) 330-9871", "distance": 3227.1247758446375}, {"id": "XhqJVQlLyfbp3jac5zyciQ", "alias": "charter-sports-ski-and-snowboard-rentals-avon-3", "name": "Charter Sports Ski & Snowboard Rentals", "image_url": "https://s3-media3.fl.yelpcdn.com/bphoto/_tUDP7cil7aYiUX_uWLsWg/o.jpg", "is_closed": false, "url": "https://www.yelp.com/biz/charter-sports-ski-and-snowboard-rentals-avon-3?adjust_creative=OD45_sigUUSBobJ_eVs01w&utm_campaign=yelp_api_v3&utm_medium=api_v3_business_search&utm_source=OD45_sigUUSBobJ_eVs01w", "review_count": 11, "categories": [{"alias": "skishops", "title": "Ski & Snowboard Shops"}, {"alias": "bikerentals", "title": "Bike Rentals"}, {"alias": "biketours", "title": "Bike tours"}], "rating": 3.0, "coordinates": {"latitude": 39.636642, "longitude": -106.524932}, "transactions": [], "price": "$$", "location": {"address1": "160 W Beaver Creek Blvd", "address2": "", "address3": "", "city": "Avon", "zip_code": "81620", "country": "US", "state": "CO", "display_address": ["160 W Beaver Creek Blvd", "Avon, CO 81620"]}, "phone": "+19707489882", "display_phone": "(970) 748-9882", "distance": 133488.66119723697}, {"id": "mpiQVE4n6Aw1t4VfCiV-5A", "alias": "colorado-heliops-broomfield", "name": "Colorado Heliops", "image_url": "https://s3-media1.fl.yelpcdn.com/bphoto/AYsIYv8Hha4oR2xpZ_CGRw/o.jpg", "is_closed": false, "url": "https://www.yelp.com/biz/colorado-heliops-broomfield?adjust_creative=OD45_sigUUSBobJ_eVs01w&utm_campaign=yelp_api_v3&utm_medium=api_v3_business_search&utm_source=OD45_sigUUSBobJ_eVs01w", "review_count": 8, "categories": [{"alias": "flightinstruction", "title": "Flight Instruction"}, {"alias": "tours", "title": "Tours"}], "rating": 3.0, "coordinates": {"latitude": 39.9110984802246, "longitude": -105.109768509865}, "transactions": [], "location": {"address1": "11855 Airport Way", "address2": null, "address3": null, "city": "Broomfield", "zip_code": "80021", "country": "US", "state": "CO", "display_address": ["11855 Airport Way", "Broomfield, CO 80021"]}, "phone": "+13034664354", "display_phone": "(303) 466-4354", "distance": 22922.48090729221}, {"id": "Q0SRDdy1_OnReRhSCAdHrQ", "alias": "transit-van-shuttle-colorado-springs", "name": "Transit Van Shuttle", "image_url": "https://s3-media2.fl.yelpcdn.com/bphoto/J1aRyV4Xf1yok89Smxh0GA/o.jpg", "is_closed": false, "url": "https://www.yelp.com/biz/transit-van-shuttle-colorado-springs?adjust_creative=OD45_sigUUSBobJ_eVs01w&utm_campaign=yelp_api_v3&utm_medium=api_v3_business_search&utm_source=OD45_sigUUSBobJ_eVs01w", "review_count": 6, "categories": [{"alias": "airport_shuttles", "title": "Airport Shuttles"}, {"alias": "winetours", "title": "Wine Tours"}], "rating": 2.5, "coordinates": {"latitude": 38.8426544, "longitude": -104.7582849}, "transactions": [], "location": {"address1": "1615 Clemson Dr", "address2": null, "address3": "", "city": "Colorado Springs", "zip_code": "80909", "country": "US", "state": "CO", "display_address": ["1615 Clemson Dr", "Colorado Springs, CO 80909"]}, "phone": "+17193879445", "display_phone": "(719) 387-9445", "distance": 100944.24181851077}, {"id": "SCcXhZG0XrldBmghUift3A", "alias": "denver-coach-charters-aurora", "name": "Denver Coach Charters", "image_url": "https://s3-media3.fl.yelpcdn.com/bphoto/VqAMr82x1nUmkkuKHTPcdw/o.jpg", "is_closed": false, "url": "https://www.yelp.com/biz/denver-coach-charters-aurora?adjust_creative=OD45_sigUUSBobJ_eVs01w&utm_campaign=yelp_api_v3&utm_medium=api_v3_business_search&utm_source=OD45_sigUUSBobJ_eVs01w", "review_count": 3, "categories": [{"alias": "bustours", "title": "Bus Tours"}, {"alias": "busrental", "title": "Bus Rental"}, {"alias": "partybusrentals", "title": "Party Bus Rentals"}], "rating": 2.5, "coordinates": {"latitude": 39.71903, "longitude": -104.79476}, "transactions": [], "location": {"address1": "16628 E 2nd Ave", "address2": null, "address3": "", "city": "Aurora", "zip_code": "80011", "country": "US", "state": "CO", "display_address": ["16628 E 2nd Ave", "Aurora, CO 80011"]}, "phone": "+18555205466", "display_phone": "(855) 520-5466", "distance": 15136.993858700025}, {"id": "Ib-4ygQ3aPK4Jl0G1k0Iuw", "alias": "pedego-electric-bikes-southlands-aurora-4", "name": "Pedego Electric Bikes Southlands", "image_url": "https://s3-media4.fl.yelpcdn.com/bphoto/tU1s27LSN0iHP03yP5BE6w/o.jpg", "is_closed": false, "url": "https://www.yelp.com/biz/pedego-electric-bikes-southlands-aurora-4?adjust_creative=OD45_sigUUSBobJ_eVs01w&utm_campaign=yelp_api_v3&utm_medium=api_v3_business_search&utm_source=OD45_sigUUSBobJ_eVs01w", "review_count": 2, "categories": [{"alias": "bikes", "title": "Bikes"}, {"alias": "bikerentals", "title": "Bike Rentals"}, {"alias": "tours", "title": "Tours"}], "rating": 2.5, "coordinates": {"latitude": 39.60528664805187, "longitude": -104.7085541244332}, "transactions": [], "location": {"address1": "6150 S Main St", "address2": null, "address3": "", "city": "Aurora", "zip_code": "80016", "country": "US", "state": "CO", "display_address": ["6150 S Main St", "Aurora, CO 80016"]}, "phone": "+13036275788", "display_phone": "(303) 627-5788", "distance": 26672.00715678419}, {"id": "Dip1MaQUfv57hzqYGULZnA", "alias": "the-lume-colorado-aurora", "name": "The Lume Colorado", "image_url": "https://s3-media1.fl.yelpcdn.com/bphoto/KaQxVLQOuqHHX9Epcn0Snw/o.jpg", "is_closed": false, "url": "https://www.yelp.com/biz/the-lume-colorado-aurora?adjust_creative=OD45_sigUUSBobJ_eVs01w&utm_campaign=yelp_api_v3&utm_medium=api_v3_business_search&utm_source=OD45_sigUUSBobJ_eVs01w", "review_count": 2, "categories": [{"alias": "arttours", "title": "Art Tours"}], "rating": 2.5, "coordinates": {"latitude": 39.75313990160363, "longitude": -104.87705871462822}, "transactions": [], "location": {"address1": "2501 Dallas St", "address2": "", "address3": null, "city": "Aurora", "zip_code": "80010", "country": "US", "state": "CO", "display_address": ["2501 Dallas St", "Aurora, CO 80010"]}, "phone": "+17209273728", "display_phone": "(720) 927-3728", "distance": 8204.546140778628}, {"id": "0lYQ_HkHnz7Z_JsDvYeGzw", "alias": "ace-express-coaches-golden-2", "name": "Ace Express Coaches", "image_url": "https://s3-media4.fl.yelpcdn.com/bphoto/Mb8beUoV5J9TVj96_AMJbQ/o.jpg", "is_closed": false, "url": "https://www.yelp.com/biz/ace-express-coaches-golden-2?adjust_creative=OD45_sigUUSBobJ_eVs01w&utm_campaign=yelp_api_v3&utm_medium=api_v3_business_search&utm_source=OD45_sigUUSBobJ_eVs01w", "review_count": 15, "categories": [{"alias": "buses", "title": "Buses"}, {"alias": "bustours", "title": "Bus Tours"}, {"alias": "partybusrentals", "title": "Party Bus Rentals"}], "rating": 1.5, "coordinates": {"latitude": 39.77582817, "longitude": -105.1572185}, "transactions": [], "location": {"address1": "14000 W 44th Ave", "address2": "", "address3": "", "city": "Golden", "zip_code": "80403", "country": "US", "state": "CO", "display_address": ["14000 W 44th Ave", "Golden, CO 80403"]}, "phone": "+13034212780", "display_phone": "(303) 421-2780", "distance": 16603.21294991368}, {"id": "7Bt0xSERjEn3VzJqsQzMMA", "alias": "green-tripz-denver", "name": "Green Tripz", "image_url": "https://s3-media1.fl.yelpcdn.com/bphoto/yJ1gKnSxTZMtYNVevQhwRA/o.jpg", "is_closed": false, "url": "https://www.yelp.com/biz/green-tripz-denver?adjust_creative=OD45_sigUUSBobJ_eVs01w&utm_campaign=yelp_api_v3&utm_medium=api_v3_business_search&utm_source=OD45_sigUUSBobJ_eVs01w", "review_count": 3, "categories": [{"alias": "tours", "title": "Tours"}], "rating": 1.0, "coordinates": {"latitude": 39.752498626709, "longitude": -104.998573303223}, "transactions": [], "location": {"address1": null, "address2": null, "address3": "", "city": "Denver", "zip_code": "80202", "country": "US", "state": "CO", "display_address": ["Denver, CO 80202"]}, "phone": "+17205883440", "display_phone": "(720) 588-3440", "distance": 3292.031921569482}, {"id": "jFYm9bpDvm5bFmBpR-jxjA", "alias": "macs-adventure-denver", "name": "Macs Adventure", "image_url": "https://s3-media2.fl.yelpcdn.com/bphoto/XaoRaVxvFEx-8desboUwvg/o.jpg", "is_closed": false, "url": "https://www.yelp.com/biz/macs-adventure-denver?adjust_creative=OD45_sigUUSBobJ_eVs01w&utm_campaign=yelp_api_v3&utm_medium=api_v3_business_search&utm_source=OD45_sigUUSBobJ_eVs01w", "review_count": 3, "categories": [{"alias": "walkingtours", "title": "Walking Tours"}, {"alias": "biketours", "title": "Bike tours"}], "rating": 1.0, "coordinates": {"latitude": 39.763734850147, "longitude": -104.9747209}, "transactions": [], "location": {"address1": "1031 33rd St", "address2": "", "address3": "", "city": "Denver", "zip_code": "80205", "country": "US", "state": "CO", "display_address": ["1031 33rd St", "Denver, CO 80205"]}, "phone": "+17204879898", "display_phone": "(720) 487-9898", "distance": 3160.1253472117296}, {"id": "OmBJT0E6FEE9tFhToRrKDg", "alias": "impulse-denver-denver", "name": "Impulse Denver", "image_url": "https://s3-media1.fl.yelpcdn.com/bphoto/4wr7JHfCNhcF18HDUnXZcQ/o.jpg", "is_closed": false, "url": "https://www.yelp.com/biz/impulse-denver-denver?adjust_creative=OD45_sigUUSBobJ_eVs01w&utm_campaign=yelp_api_v3&utm_medium=api_v3_business_search&utm_source=OD45_sigUUSBobJ_eVs01w", "review_count": 1, "categories": [{"alias": "scavengerhunts", "title": "Scavenger Hunts"}, {"alias": "walkingtours", "title": "Walking Tours"}, {"alias": "historicaltours", "title": "Historical Tours"}], "rating": 1.0, "coordinates": {"latitude": 39.7343902587891, "longitude": -104.934669494629}, "transactions": [], "location": {"address1": "", "address2": null, "address3": "", "city": "Denver", "zip_code": "80220", "country": "US", "state": "CO", "display_address": ["Denver, CO 80220"]}, "phone": "+17207554889", "display_phone": "(720) 755-4889", "distance": 4201.489939874382}, {"id": "zpaIW2EZtVJgQE5fwTQ-Hw", "alias": "bicycle-tour-of-colorado-morrison", "name": "Bicycle Tour of Colorado", "image_url": "", "is_closed": false, "url": "https://www.yelp.com/biz/bicycle-tour-of-colorado-morrison?adjust_creative=OD45_sigUUSBobJ_eVs01w&utm_campaign=yelp_api_v3&utm_medium=api_v3_business_search&utm_source=OD45_sigUUSBobJ_eVs01w", "review_count": 1, "categories": [{"alias": "biketours", "title": "Bike tours"}], "rating": 1.0, "coordinates": {"latitude": 39.640308, "longitude": -105.188243}, "transactions": [], "location": {"address1": "18026 Hwy 8", "address2": "Ste 520", "address3": "", "city": "Morrison", "zip_code": "80465", "country": "US", "state": "CO", "display_address": ["18026 Hwy 8", "Ste 520", "Morrison, CO 80465"]}, "phone": "+13039851180", "display_phone": "(303) 985-1180", "distance": 21448.894556322117}, {"id": "Ql7ijRhVWvOb6gQaVMlLZg", "alias": "ctac-tours-fort-collins", "name": "CTAC Tours", "image_url": "https://s3-media1.fl.yelpcdn.com/bphoto/vUX9HkR4plnCEgOPIF6DzQ/o.jpg", "is_closed": false, "url": "https://www.yelp.com/biz/ctac-tours-fort-collins?adjust_creative=OD45_sigUUSBobJ_eVs01w&utm_campaign=yelp_api_v3&utm_medium=api_v3_business_search&utm_source=OD45_sigUUSBobJ_eVs01w", "review_count": 1, "categories": [{"alias": "tours", "title": "Tours"}, {"alias": "atvrentals", "title": "ATV Rentals/Tours"}], "rating": 1.0, "coordinates": {"latitude": 40.572027, "longitude": -105.116135}, "transactions": [], "location": {"address1": "", "address2": null, "address3": "", "city": "Fort Collins", "zip_code": "80521", "country": "US", "state": "CO", "display_address": ["Fort Collins, CO 80521"]}, "phone": "+17203272797", "display_phone": "(720) 327-2797", "distance": 93837.46354378446}]}