{"businesses": [{"id": "2IGjH4ry4n_EuSLMl1QwpQ", "alias": "corkscrews-wine-storage-denver", "name": "Corkscrews Wine Storage", "image_url": "https://s3-media3.fl.yelpcdn.com/bphoto/huKSVlgfc_GbSW3bUlUe6Q/o.jpg", "is_closed": false, "url": "https://www.yelp.com/biz/corkscrews-wine-storage-denver?adjust_creative=OD45_sigUUSBobJ_eVs01w&utm_campaign=yelp_api_v3&utm_medium=api_v3_business_search&utm_source=OD45_sigUUSBobJ_eVs01w", "review_count": 6, "categories": [{"alias": "selfstorage", "title": "Self Storage"}, {"alias": "winetastingroom", "title": "Wine Tasting Room"}], "rating": 5.0, "coordinates": {"latitude": 39.7352467, "longitude": -105.011678}, "transactions": [], "price": "$$", "location": {"address1": "1845 W 12th Ave", "address2": "", "address3": "", "city": "Denver", "zip_code": "80204", "country": "US", "state": "CO", "display_address": ["1845 W 12th Ave", "Denver, CO 80204"]}, "phone": "+17209162270", "display_phone": "(720) 916-2270", "distance": 3543.0123395965747}, {"id": "Jbw5f5tvTyvdTyNlTEXAqQ", "alias": "wine-dispensary-denver", "name": "Wine Dispensary", "image_url": "https://s3-media1.fl.yelpcdn.com/bphoto/XnHlvEj7q3kY5od2dUf7YA/o.jpg", "is_closed": false, "url": "https://www.yelp.com/biz/wine-dispensary-denver?adjust_creative=OD45_sigUUSBobJ_eVs01w&utm_campaign=yelp_api_v3&utm_medium=api_v3_business_search&utm_source=OD45_sigUUSBobJ_eVs01w", "review_count": 9, "categories": [{"alias": "beer_and_wine", "title": "Beer, Wine & Spirits"}, {"alias": "winetastingroom", "title": "Wine Tasting Room"}], "rating": 5.0, "coordinates": {"latitude": 39.754641, "longitude": -105.004926}, "transactions": [], "location": {"address1": "1590 Little Raven St", "address2": "Ste 175", "address3": "", "city": "Denver", "zip_code": "80202", "country": "US", "state": "CO", "display_address": ["1590 Little Raven St", "Ste 175", "Denver, CO 80202"]}, "phone": "+13038328007", "display_phone": "(303) 832-8007", "distance": 3648.3385720399274}, {"id": "SmjCUEdZ-GehZig1ZLkWdw", "alias": "purgatory-cellars-castle-rock", "name": "Purgatory Cellars", "image_url": "https://s3-media4.fl.yelpcdn.com/bphoto/U-PD5KyvvOy3XU-s_0ayNA/o.jpg", "is_closed": false, "url": "https://www.yelp.com/biz/purgatory-cellars-castle-rock?adjust_creative=OD45_sigUUSBobJ_eVs01w&utm_campaign=yelp_api_v3&utm_medium=api_v3_business_search&utm_source=OD45_sigUUSBobJ_eVs01w", "review_count": 11, "categories": [{"alias": "winetastingroom", "title": "Wine Tasting Room"}], "rating": 5.0, "coordinates": {"latitude": 39.37579, "longitude": -104.86034}, "transactions": [], "location": {"address1": "611 N Wilcox St", "address2": "Unit C", "address3": "", "city": "Castle Rock", "zip_code": "80104", "country": "US", "state": "CO", "display_address": ["611 N Wilcox St", "Unit C", "Castle Rock, CO 80104"]}, "phone": "+17205247241", "display_phone": "(720) 524-7241", "distance": 41079.91098646047}, {"id": "qDNF7mABRkIkSBXqfPiV7Q", "alias": "the-wine-barrel-parker", "name": "The Wine Barrel", "image_url": "https://s3-media1.fl.yelpcdn.com/bphoto/msNi2hZD9YLQXgjRoE_mtg/o.jpg", "is_closed": false, "url": "https://www.yelp.com/biz/the-wine-barrel-parker?adjust_creative=OD45_sigUUSBobJ_eVs01w&utm_campaign=yelp_api_v3&utm_medium=api_v3_business_search&utm_source=OD45_sigUUSBobJ_eVs01w", "review_count": 31, "categories": [{"alias": "wineries", "title": "Wineries"}], "rating": 5.0, "coordinates": {"latitude": 39.508555, "longitude": -104.76455}, "transactions": [], "price": "$$", "location": {"address1": "11495 S Twenty Mile Rd", "address2": "Unit 5", "address3": null, "city": "Parker", "zip_code": "80134", "country": "US", "state": "CO", "display_address": ["11495 S Twenty Mile Rd", "Unit 5", "Parker, CO 80134"]}, "phone": "+13039990454", "display_phone": "(303) 999-0454", "distance": 30778.737787309008}, {"id": "Z3O5Rhr-kWi0k0CDSSMv_Q", "alias": "silver-vines-winery-boulder-2", "name": "Silver Vines Winery", "image_url": "https://s3-media3.fl.yelpcdn.com/bphoto/b1dhcy4KwnW_mEE0rDnVXg/o.jpg", "is_closed": false, "url": "https://www.yelp.com/biz/silver-vines-winery-boulder-2?adjust_creative=OD45_sigUUSBobJ_eVs01w&utm_campaign=yelp_api_v3&utm_medium=api_v3_business_search&utm_source=OD45_sigUUSBobJ_eVs01w", "review_count": 12, "categories": [{"alias": "winetastingroom", "title": "Wine Tasting Room"}, {"alias": "wine_bars", "title": "Wine Bars"}], "rating": 5.0, "coordinates": {"latitude": 40.0187225, "longitude": -105.2790492}, "transactions": [], "location": {"address1": "2015 13th St", "address2": "", "address3": null, "city": "Boulder", "zip_code": "80302", "country": "US", "state": "CO", "display_address": ["2015 13th St", "Boulder, CO 80302"]}, "phone": "+13036580280", "display_phone": "(303) 658-0280", "distance": 41039.81748484415}, {"id": "VHYNOjSnHzWawQfQ9M2GdQ", "alias": "ladron-cellars-englewood", "name": "Ladron Cellars", "image_url": "https://s3-media1.fl.yelpcdn.com/bphoto/aDPX8-_27Mv6W5tKlUHnmQ/o.jpg", "is_closed": false, "url": "https://www.yelp.com/biz/ladron-cellars-englewood?adjust_creative=OD45_sigUUSBobJ_eVs01w&utm_campaign=yelp_api_v3&utm_medium=api_v3_business_search&utm_source=OD45_sigUUSBobJ_eVs01w", "review_count": 17, "categories": [{"alias": "wineries", "title": "Wineries"}], "rating": 5.0, "coordinates": {"latitude": 39.5943773, "longitude": -104.857}, "transactions": [], "location": {"address1": "11435 E Briarwood Ave", "address2": "Unit 100", "address3": null, "city": "Englewood", "zip_code": "80112", "country": "US", "state": "CO", "display_address": ["11435 E Briarwood Ave", "Unit 100", "Englewood, CO 80112"]}, "phone": "+13035268895", "display_phone": "(303) 526-8895", "distance": 18446.92879811721}, {"id": "lRW4C_Pv_oJw8yeTB-u7Ug", "alias": "turquoise-mesa-winery-denver", "name": "Turquoise Mesa Winery", "image_url": "https://s3-media1.fl.yelpcdn.com/bphoto/h_xV1Tlx63aVhd2AYkWSsg/o.jpg", "is_closed": false, "url": "https://www.yelp.com/biz/turquoise-mesa-winery-denver?adjust_creative=OD45_sigUUSBobJ_eVs01w&utm_campaign=yelp_api_v3&utm_medium=api_v3_business_search&utm_source=OD45_sigUUSBobJ_eVs01w", "review_count": 28, "categories": [{"alias": "wineries", "title": "Wineries"}], "rating": 4.5, "coordinates": {"latitude": 39.8123891, "longitude": -104.9762609}, "transactions": [], "price": "$$", "location": {"address1": "800 E 64th Ave", "address2": "Ste 8", "address3": "", "city": "Denver", "zip_code": "80229", "country": "US", "state": "CO", "display_address": ["800 E 64th Ave", "Ste 8", "Denver, CO 80229"]}, "phone": "+13036533822", "display_phone": "(303) 653-3822", "distance": 8562.423462864092}, {"id": "i2xrGJ7N60OXmO7k3NqRcw", "alias": "bookcliff-vineyards-boulder-winery-boulder-2", "name": "BookCliff Vineyards - Boulder Winery", "image_url": "https://s3-media1.fl.yelpcdn.com/bphoto/dKaZ862yIpaoz5Dj8AHYIA/o.jpg", "is_closed": false, "url": "https://www.yelp.com/biz/bookcliff-vineyards-boulder-winery-boulder-2?adjust_creative=OD45_sigUUSBobJ_eVs01w&utm_campaign=yelp_api_v3&utm_medium=api_v3_business_search&utm_source=OD45_sigUUSBobJ_eVs01w", "review_count": 26, "categories": [{"alias": "wineries", "title": "Wineries"}, {"alias": "venues", "title": "Venues & Event Spaces"}], "rating": 4.5, "coordinates": {"latitude": 40.062775301818206, "longitude": -105.278867}, "transactions": [], "price": "$$", "location": {"address1": "1501 Lee Hill Rd", "address2": "Ste 17", "address3": "", "city": "Boulder", "zip_code": "80304", "country": "US", "state": "CO", "display_address": ["1501 Lee Hill Rd", "Ste 17", "Boulder, CO 80304"]}, "phone": "+13034499463", "display_phone": "(303) 449-9463", "distance": 44913.78480375998}, {"id": "RWyBGcKo0ALgRURMs9WQ-Q", "alias": "blanchard-family-wines-denver", "name": "Blanchard Family Wines", "image_url": "https://s3-media3.fl.yelpcdn.com/bphoto/sVn6RzSnDFzZPHIuy5qakQ/o.jpg", "is_closed": false, "url": "https://www.yelp.com/biz/blanchard-family-wines-denver?adjust_creative=OD45_sigUUSBobJ_eVs01w&utm_campaign=yelp_api_v3&utm_medium=api_v3_business_search&utm_source=OD45_sigUUSBobJ_eVs01w", "review_count": 104, "categories": [{"alias": "wineries", "title": "Wineries"}, {"alias": "paintandsip", "title": "Paint & Sip"}], "rating": 4.5, "coordinates": {"latitude": 39.7533251, "longitude": -104.9963574}, "transactions": [], "price": "$$", "location": {"address1": "1855 Blake St", "address2": "Ste 120", "address3": "", "city": "Denver", "zip_code": "80202", "country": "US", "state": "CO", "display_address": ["1855 Blake St", "Ste 120", "Denver, CO 80202"]}, "phone": "+17209909092", "display_phone": "(720) 990-9092", "distance": 2983.635927192013}, {"id": "jAHs1WOWVfcqOaE8xHl3tw", "alias": "mystic-mountain-thornton", "name": "Mystic Mountain", "image_url": "https://s3-media1.fl.yelpcdn.com/bphoto/HQjJ5HLCDqoPzEs6hPp_hA/o.jpg", "is_closed": false, "url": "https://www.yelp.com/biz/mystic-mountain-thornton?adjust_creative=OD45_sigUUSBobJ_eVs01w&utm_campaign=yelp_api_v3&utm_medium=api_v3_business_search&utm_source=OD45_sigUUSBobJ_eVs01w", "review_count": 19, "categories": [{"alias": "winetastingroom", "title": "Wine Tasting Room"}], "rating": 4.5, "coordinates": {"latitude": 39.91715, "longitude": -104.98314}, "transactions": [], "location": {"address1": "12136 Grant Cir", "address2": "", "address3": null, "city": "Thornton", "zip_code": "80241", "country": "US", "state": "CO", "display_address": ["12136 Grant Cir", "Thornton, CO 80241"]}, "phone": "+13039819414", "display_phone": "(303) 981-9414", "distance": 20222.13883773232}, {"id": "MVaObuYadcMosd-ae27AKg", "alias": "carboy-winery-littleton", "name": "Carboy Winery", "image_url": "https://s3-media3.fl.yelpcdn.com/bphoto/rZLVe4CKatPNMA3QetfJaQ/o.jpg", "is_closed": false, "url": "https://www.yelp.com/biz/carboy-winery-littleton?adjust_creative=OD45_sigUUSBobJ_eVs01w&utm_campaign=yelp_api_v3&utm_medium=api_v3_business_search&utm_source=OD45_sigUUSBobJ_eVs01w", "review_count": 132, "categories": [{"alias": "wine_bars", "title": "Wine Bars"}, {"alias": "winetastingroom", "title": "Wine Tasting Room"}], "rating": 4.5, "coordinates": {"latitude": 39.592, "longitude": -105.0234}, "transactions": ["delivery"], "price": "$$", "location": {"address1": "6885 S Santa Fe Dr", "address2": null, "address3": "", "city": "Littleton", "zip_code": "80120", "country": "US", "state": "CO", "display_address": ["6885 S Santa Fe Dr", "Littleton, CO 80120"]}, "phone": "+17205315252", "display_phone": "(720) 531-5252", "distance": 16557.104219646648}, {"id": "qbm8wC6yzUFzPrG26GNU0g", "alias": "kingman-estates-winery-denver", "name": "Kingman Estates Winery", "image_url": "https://s3-media4.fl.yelpcdn.com/bphoto/LzgmoF_WU1MCW7JhWoY8Hg/o.jpg", "is_closed": false, "url": "https://www.yelp.com/biz/kingman-estates-winery-denver?adjust_creative=OD45_sigUUSBobJ_eVs01w&utm_campaign=yelp_api_v3&utm_medium=api_v3_business_search&utm_source=OD45_sigUUSBobJ_eVs01w", "review_count": 24, "categories": [{"alias": "wineries", "title": "Wineries"}, {"alias": "venues", "title": "Venues & Event Spaces"}], "rating": 4.5, "coordinates": {"latitude": 39.8123755, "longitude": -104.9764913}, "transactions": [], "price": "$$", "location": {"address1": "800 E 64th Ave", "address2": null, "address3": "", "city": "Denver", "zip_code": "80229", "country": "US", "state": "CO", "display_address": ["800 E 64th Ave", "Denver, CO 80229"]}, "phone": "+17205607270", "display_phone": "(720) 560-7270", "distance": 8562.118940409266}, {"id": "KZz5-av0-wlNrpRsJUTshQ", "alias": "purgatory-cellars-winery-parker", "name": "Purgatory Cellars Winery", "image_url": "https://s3-media1.fl.yelpcdn.com/bphoto/_t-dG9sPP6Vz6gUvSqnNEA/o.jpg", "is_closed": false, "url": "https://www.yelp.com/biz/purgatory-cellars-winery-parker?adjust_creative=OD45_sigUUSBobJ_eVs01w&utm_campaign=yelp_api_v3&utm_medium=api_v3_business_search&utm_source=OD45_sigUUSBobJ_eVs01w", "review_count": 60, "categories": [{"alias": "winetastingroom", "title": "Wine Tasting Room"}], "rating": 4.5, "coordinates": {"latitude": 39.5269964, "longitude": -104.7700573}, "transactions": [], "price": "$$", "location": {"address1": "18921 Plaza Dr", "address2": "Ste 100", "address3": "", "city": "Parker", "zip_code": "80134", "country": "US", "state": "CO", "display_address": ["18921 Plaza Dr", "Ste 100", "Parker, CO 80134"]}, "phone": "+13036008209", "display_phone": "(303) 600-8209", "distance": 28836.692257612256}, {"id": "gwXIl0yo37qkeuTv9sI5yg", "alias": "settembre-cellars-boulder-2", "name": "Settembre Cellars", "image_url": "https://s3-media3.fl.yelpcdn.com/bphoto/FiglC7QAqFwsKHR74hlkyw/o.jpg", "is_closed": false, "url": "https://www.yelp.com/biz/settembre-cellars-boulder-2?adjust_creative=OD45_sigUUSBobJ_eVs01w&utm_campaign=yelp_api_v3&utm_medium=api_v3_business_search&utm_source=OD45_sigUUSBobJ_eVs01w", "review_count": 11, "categories": [{"alias": "wineries", "title": "Wineries"}], "rating": 4.5, "coordinates": {"latitude": 40.0628521884852, "longitude": -105.278998167984}, "transactions": [], "price": "$$", "location": {"address1": "1501 Lee Hill Rd", "address2": "Ste 16", "address3": "", "city": "Boulder", "zip_code": "80304", "country": "US", "state": "CO", "display_address": ["1501 Lee Hill Rd", "Ste 16", "Boulder, CO 80304"]}, "phone": "+13035321892", "display_phone": "(303) 532-1892", "distance": 44927.26176301122}, {"id": "tHrb_g0sxR81d0Gh1uMkPQ", "alias": "balistreri-vineyards-denver", "name": "Balistreri Vineyards", "image_url": "https://s3-media3.fl.yelpcdn.com/bphoto/GS9yWVSuAvQaVcucZ9d31w/o.jpg", "is_closed": false, "url": "https://www.yelp.com/biz/balistreri-vineyards-denver?adjust_creative=OD45_sigUUSBobJ_eVs01w&utm_campaign=yelp_api_v3&utm_medium=api_v3_business_search&utm_source=OD45_sigUUSBobJ_eVs01w", "review_count": 254, "categories": [{"alias": "wineries", "title": "Wineries"}, {"alias": "venues", "title": "Venues & Event Spaces"}], "rating": 4.5, "coordinates": {"latitude": 39.8159753429815, "longitude": -104.9649313561692}, "transactions": [], "price": "$$", "location": {"address1": "1946 E 66th Ave", "address2": "", "address3": "", "city": "Denver", "zip_code": "80229", "country": "US", "state": "CO", "display_address": ["1946 E 66th Ave", "Denver, CO 80229"]}, "phone": "+13032875156", "display_phone": "(303) 287-5156", "distance": 8957.267219591526}, {"id": "NH5lTGAbsOa7tjKiacZeOQ", "alias": "the-infinite-monkey-theorem-denver", "name": "The Infinite Monkey Theorem", "image_url": "https://s3-media2.fl.yelpcdn.com/bphoto/EoMEPxmAwVHUTDM1woivQQ/o.jpg", "is_closed": false, "url": "https://www.yelp.com/biz/the-infinite-monkey-theorem-denver?adjust_creative=OD45_sigUUSBobJ_eVs01w&utm_campaign=yelp_api_v3&utm_medium=api_v3_business_search&utm_source=OD45_sigUUSBobJ_eVs01w", "review_count": 253, "categories": [{"alias": "wineries", "title": "Wineries"}], "rating": 4.5, "coordinates": {"latitude": 39.7644113, "longitude": -104.9775979}, "transactions": [], "price": "$$", "location": {"address1": "3200 Larimer St", "address2": "", "address3": "", "city": "Denver", "zip_code": "80205", "country": "US", "state": "CO", "display_address": ["3200 Larimer St", "Denver, CO 80205"]}, "phone": "+13037368376", "display_phone": "(303) 736-8376", "distance": 3273.0197288839427}, {"id": "wzYVCOB3U2EkWSrI4fl1lA", "alias": "bigsbys-folly-denver-4", "name": "Bigsby's Folly", "image_url": "https://s3-media1.fl.yelpcdn.com/bphoto/SJsgkmldCaDUHZ4jS6FxwA/o.jpg", "is_closed": false, "url": "https://www.yelp.com/biz/bigsbys-folly-denver-4?adjust_creative=OD45_sigUUSBobJ_eVs01w&utm_campaign=yelp_api_v3&utm_medium=api_v3_business_search&utm_source=OD45_sigUUSBobJ_eVs01w", "review_count": 242, "categories": [{"alias": "winetastingroom", "title": "Wine Tasting Room"}, {"alias": "bars", "title": "Bars"}, {"alias": "venues", "title": "Venues & Event Spaces"}], "rating": 4.5, "coordinates": {"latitude": 39.76995, "longitude": -104.97636}, "transactions": ["delivery", "pickup"], "price": "$$", "location": {"address1": "3563 Wazee St", "address2": "", "address3": null, "city": "Denver", "zip_code": "80216", "country": "US", "state": "CO", "display_address": ["3563 Wazee St", "Denver, CO 80216"]}, "phone": "+17204853158", "display_phone": "(720) 485-3158", "distance": 3859.8360919620245}, {"id": "PHSaJ1i9ScreOScZEae09A", "alias": "creekside-cellars-evergreen", "name": "Creekside Cellars", "image_url": "https://s3-media1.fl.yelpcdn.com/bphoto/PYHarn1orKRFnrD8fBw5eQ/o.jpg", "is_closed": false, "url": "https://www.yelp.com/biz/creekside-cellars-evergreen?adjust_creative=OD45_sigUUSBobJ_eVs01w&utm_campaign=yelp_api_v3&utm_medium=api_v3_business_search&utm_source=OD45_sigUUSBobJ_eVs01w", "review_count": 211, "categories": [{"alias": "wineries", "title": "Wineries"}], "rating": 4.0, "coordinates": {"latitude": 39.63312, "longitude": -105.31811}, "transactions": [], "price": "$$", "location": {"address1": "28036 Hwy 74", "address2": "", "address3": "", "city": "Evergreen", "zip_code": "80439", "country": "US", "state": "CO", "display_address": ["28036 Hwy 74", "Evergreen, CO 80439"]}, "phone": "+13036745460", "display_phone": "(303) 674-5460", "distance": 31791.607514946245}, {"id": "ymHHAJODei9pPs1zmL2MpA", "alias": "silver-vines-winery-arvada", "name": "Silver Vines Winery", "image_url": "https://s3-media4.fl.yelpcdn.com/bphoto/ePenyRLWUB6MTVZJF89LUQ/o.jpg", "is_closed": false, "url": "https://www.yelp.com/biz/silver-vines-winery-arvada?adjust_creative=OD45_sigUUSBobJ_eVs01w&utm_campaign=yelp_api_v3&utm_medium=api_v3_business_search&utm_source=OD45_sigUUSBobJ_eVs01w", "review_count": 129, "categories": [{"alias": "wineries", "title": "Wineries"}], "rating": 4.0, "coordinates": {"latitude": 39.799488, "longitude": -105.080495}, "transactions": [], "price": "$$", "location": {"address1": "7509 Grandview Ave", "address2": "", "address3": "", "city": "Arvada", "zip_code": "80002", "country": "US", "state": "CO", "display_address": ["7509 Grandview Ave", "Arvada, CO 80002"]}, "phone": "+13034565212", "display_phone": "(303) 456-5212", "distance": 11805.902311759553}, {"id": "OgrKMHnZInBRJb9VxC4RyQ", "alias": "carboy-winery-denver-denver", "name": "Carboy Winery - Denver", "image_url": "https://s3-media1.fl.yelpcdn.com/bphoto/wFDMgyXn69aNjyxM8TexQw/o.jpg", "is_closed": false, "url": "https://www.yelp.com/biz/carboy-winery-denver-denver?adjust_creative=OD45_sigUUSBobJ_eVs01w&utm_campaign=yelp_api_v3&utm_medium=api_v3_business_search&utm_source=OD45_sigUUSBobJ_eVs01w", "review_count": 81, "categories": [{"alias": "winetastingroom", "title": "Wine Tasting Room"}, {"alias": "wine_bars", "title": "Wine Bars"}, {"alias": "giftshops", "title": "Gift Shops"}], "rating": 4.0, "coordinates": {"latitude": 39.72714, "longitude": -104.98222}, "transactions": [], "price": "$$", "location": {"address1": "400 E 7th Ave", "address2": null, "address3": "", "city": "Denver", "zip_code": "80203", "country": "US", "state": "CO", "display_address": ["400 E 7th Ave", "Denver, CO 80203"]}, "phone": "+17206179410", "display_phone": "(720) 617-9410", "distance": 1383.0257870987293}, {"id": "i7tmwRzkPRFWupARgC-jHA", "alias": "queen-bee-brews-denver", "name": "Queen Bee Brews", "image_url": "https://s3-media3.fl.yelpcdn.com/bphoto/l_yPzML11zIjeUOLWIsFLg/o.jpg", "is_closed": false, "url": "https://www.yelp.com/biz/queen-bee-brews-denver?adjust_creative=OD45_sigUUSBobJ_eVs01w&utm_campaign=yelp_api_v3&utm_medium=api_v3_business_search&utm_source=OD45_sigUUSBobJ_eVs01w", "review_count": 18, "categories": [{"alias": "wineries", "title": "Wineries"}], "rating": 4.0, "coordinates": {"latitude": 39.81245, "longitude": -104.97649}, "transactions": [], "price": "$$", "location": {"address1": "800 E 64th Ave", "address2": null, "address3": "", "city": "Denver", "zip_code": "80229", "country": "US", "state": "CO", "display_address": ["800 E 64th Ave", "Denver, CO 80229"]}, "phone": "+13039376323", "display_phone": "(303) 937-6323", "distance": 8562.423462864092}, {"id": "PZmthewwKjCqpfHljOlwcQ", "alias": "vinnie-fera-wine-boulder", "name": "Vinnie Fera Wine", "image_url": "https://s3-media3.fl.yelpcdn.com/bphoto/OdX9kYz7XUKnK3BCJpmlKw/o.jpg", "is_closed": false, "url": "https://www.yelp.com/biz/vinnie-fera-wine-boulder?adjust_creative=OD45_sigUUSBobJ_eVs01w&utm_campaign=yelp_api_v3&utm_medium=api_v3_business_search&utm_source=OD45_sigUUSBobJ_eVs01w", "review_count": 1, "categories": [{"alias": "wineries", "title": "Wineries"}], "rating": 5.0, "coordinates": {"latitude": 40.029612, "longitude": -105.226418}, "transactions": [], "location": {"address1": "3012 Sterling Cir", "address2": null, "address3": "", "city": "Boulder", "zip_code": "80301", "country": "US", "state": "CO", "display_address": ["3012 Sterling Cir", "Boulder, CO 80301"]}, "phone": "+17202871252", "display_phone": "(720) 287-1252", "distance": 39331.49207241278}, {"id": "7lM0Bhcmf6rBD81RYEqZ3w", "alias": "dragon-meadery-aurora", "name": "Dragon Meadery", "image_url": "https://s3-media3.fl.yelpcdn.com/bphoto/RZR4j_wTPe7WrSVoTgFQpw/o.jpg", "is_closed": false, "url": "https://www.yelp.com/biz/dragon-meadery-aurora?adjust_creative=OD45_sigUUSBobJ_eVs01w&utm_campaign=yelp_api_v3&utm_medium=api_v3_business_search&utm_source=OD45_sigUUSBobJ_eVs01w", "review_count": 4, "categories": [{"alias": "winetastingroom", "title": "Wine Tasting Room"}], "rating": 4.0, "coordinates": {"latitude": 39.667439, "longitude": -104.805985}, "transactions": [], "location": {"address1": "2708 S Helena Way", "address2": "", "address3": null, "city": "Aurora", "zip_code": "80013", "country": "US", "state": "CO", "display_address": ["2708 S Helena Way", "Aurora, CO 80013"]}, "phone": "+17203711970", "display_phone": "(720) 371-1970", "distance": 15962.273243467735}, {"id": "1O3tsZuQ9EBIWuqIkqiuKw", "alias": "deep-roots-winery-and-bistro-rino-denver-2", "name": "Deep Roots Winery & Bistro Rino", "image_url": "https://s3-media4.fl.yelpcdn.com/bphoto/BFVOSP7JsC73A7iBrgwzxg/o.jpg", "is_closed": false, "url": "https://www.yelp.com/biz/deep-roots-winery-and-bistro-rino-denver-2?adjust_creative=OD45_sigUUSBobJ_eVs01w&utm_campaign=yelp_api_v3&utm_medium=api_v3_business_search&utm_source=OD45_sigUUSBobJ_eVs01w", "review_count": 35, "categories": [{"alias": "wineries", "title": "Wineries"}, {"alias": "tapasmallplates", "title": "Tapas/Small Plates"}, {"alias": "pizza", "title": "Pizza"}], "rating": 3.5, "coordinates": {"latitude": 39.762879, "longitude": -104.984098}, "transactions": [], "location": {"address1": "2875 Blake St", "address2": null, "address3": "", "city": "Denver", "zip_code": "80205", "country": "US", "state": "CO", "display_address": ["2875 Blake St", "Denver, CO 80205"]}, "phone": "+17209093464", "display_phone": "(720) 909-3464", "distance": 3267.690908963169}]}
